{
"type": "FeatureCollection",
"name": "Vienna_AADT_AAWT_2017",
"crs": { "type": "name", "properties": { "name": "urn:ogc:def:crs:OGC:1.3:CRS84" } },
"features": [
{ "type": "Feature", "properties": { "AADT": 39215.333333333336, "TR_AADT": 1377.4166666666667, "AAWT": 43892.833333333336, "TR_AAWT": 1744.0, "raw_oneway": false, "raw_direction": null, "raw_name": "Reichsbrücke", "osm_name": "Reichsbrücke", "osm_type": "primary", "osm_distance": 5.5935159807503272, "osm_lanes": 3.0, "osm_oneway": "True", "osm_maxspeed": 50.0, "osmid": 11362300.0 }, "geometry": { "type": "Point", "coordinates": [ 16.413122550105502, 48.230145316671276 ] } },
{ "type": "Feature", "properties": { "AADT": 72426.833333333328, "TR_AADT": 2783.0833333333335, "AAWT": 75497.166666666672, "TR_AAWT": 3382.0833333333335, "raw_oneway": false, "raw_direction": null, "raw_name": "Westbahnhof", "osm_name": null, "osm_type": null, "osm_distance": null, "osm_lanes": null, "osm_oneway": null, "osm_maxspeed": null, "osmid": null }, "geometry": { "type": "Point", "coordinates": [ 16.338397576138881, 48.192682368192763 ] } },
{ "type": "Feature", "properties": { "AADT": 29185.666666666668, "TR_AADT": 777.58333333333337, "AAWT": 32143.666666666668, "TR_AAWT": 1016.5, "raw_oneway": false, "raw_direction": null, "raw_name": "Floridsdorfer Brücke", "osm_name": "Floridsdorfer Brücke", "osm_type": "primary", "osm_distance": 2.9329241717610004, "osm_lanes": 2.0, "osm_oneway": "True", "osm_maxspeed": 50.0, "osmid": 493217746.0 }, "geometry": { "type": "Point", "coordinates": [ 16.382523454677202, 48.246360772014498 ] } },
{ "type": "Feature", "properties": { "AADT": 24709.0, "TR_AADT": 830.25, "AAWT": 28215.833333333332, "TR_AAWT": 1106.6666666666667, "raw_oneway": false, "raw_direction": null, "raw_name": "Brigittenauer Brücke", "osm_name": null, "osm_type": "service", "osm_distance": 2.7678057355901982, "osm_lanes": null, "osm_oneway": null, "osm_maxspeed": null, "osmid": 101381529.0 }, "geometry": { "type": "Point", "coordinates": [ 16.391930866305682, 48.236758948959697 ] } },
{ "type": "Feature", "properties": { "AADT": 33782.5, "TR_AADT": 1335.5, "AAWT": 37022.583333333336, "TR_AAWT": 1578.0, "raw_oneway": false, "raw_direction": null, "raw_name": "Karlsplatz", "osm_name": "Karlsplatz", "osm_type": "primary", "osm_distance": 3.8231640982710644, "osm_lanes": 3.0, "osm_oneway": "True", "osm_maxspeed": 50.0, "osmid": 4583716.0 }, "geometry": { "type": "Point", "coordinates": [ 16.372721286510952, 48.199942694318565 ] } },
{ "type": "Feature", "properties": { "AADT": 67757.166666666672, "TR_AADT": 2568.9166666666665, "AAWT": 73128.916666666672, "TR_AAWT": 3121.1666666666665, "raw_oneway": false, "raw_direction": null, "raw_name": "Obere Donaustraße/Franz-Josefs-Kai", "osm_name": "Marienbrücke", "osm_type": "tertiary", "osm_distance": 3.7098415869106183, "osm_lanes": 2.0, "osm_oneway": "True", "osm_maxspeed": 50.0, "osmid": 263062087.0 }, "geometry": { "type": "Point", "coordinates": [ 16.376996234456165, 48.21269404274544 ] } },
{ "type": "Feature", "properties": { "AADT": 25013.166666666668, "TR_AADT": 1081.3333333333333, "AAWT": 27964.166666666668, "TR_AAWT": 1440.5833333333333, "raw_oneway": false, "raw_direction": null, "raw_name": "Handelskai", "osm_name": "Handelskai", "osm_type": "primary", "osm_distance": 1.1619289245032824, "osm_lanes": 4.0, "osm_oneway": null, "osm_maxspeed": 50.0, "osmid": 163603737.0 }, "geometry": { "type": "Point", "coordinates": [ 16.423220043354263, 48.212256594908595 ] } },
{ "type": "Feature", "properties": { "AADT": 31962.916666666668, "TR_AADT": 2458.0, "AAWT": 36595.333333333336, "TR_AAWT": 3288.75, "raw_oneway": false, "raw_direction": null, "raw_name": "Brunner Straße", "osm_name": "Brunner Straße", "osm_type": "primary", "osm_distance": 1.849900333492331, "osm_lanes": 2.0, "osm_oneway": "True", "osm_maxspeed": 50.0, "osmid": 89676438.0 }, "geometry": { "type": "Point", "coordinates": [ 16.297924470918023, 48.129474607857794 ] } },
{ "type": "Feature", "properties": { "AADT": 10923.666666666666, "TR_AADT": 430.16666666666669, "AAWT": 12003.916666666666, "TR_AAWT": 538.41666666666663, "raw_oneway": false, "raw_direction": null, "raw_name": "Hochstraße", "osm_name": "Hochstraße", "osm_type": "primary", "osm_distance": 2.2502728200252982, "osm_lanes": 3.0, "osm_oneway": null, "osm_maxspeed": 50.0, "osmid": 504535627.0 }, "geometry": { "type": "Point", "coordinates": [ 16.258615930476058, 48.132033295747632 ] } },
{ "type": "Feature", "properties": { "AADT": 12946.833333333334, "TR_AADT": 375.33333333333331, "AAWT": 14192.416666666666, "TR_AAWT": 463.0, "raw_oneway": false, "raw_direction": null, "raw_name": "Breitenfurter Straße", "osm_name": "Breitenfurter Straße", "osm_type": "primary", "osm_distance": 0.23539089012333669, "osm_lanes": 2.0, "osm_oneway": null, "osm_maxspeed": 50.0, "osmid": 421308651.0 }, "geometry": { "type": "Point", "coordinates": [ 16.238954847590136, 48.137940392579821 ] } },
{ "type": "Feature", "properties": { "AADT": 18190.916666666668, "TR_AADT": 1237.75, "AAWT": 20174.166666666668, "TR_AAWT": 1650.4166666666667, "raw_oneway": false, "raw_direction": null, "raw_name": "Simmeringer Hauptstraße", "osm_name": null, "osm_type": "primary", "osm_distance": 0.54552155979440298, "osm_lanes": 3.0, "osm_oneway": "True", "osm_maxspeed": 50.0, "osmid": 425297947.0 }, "geometry": { "type": "Point", "coordinates": [ 16.461392237202539, 48.148454591697153 ] } },
{ "type": "Feature", "properties": { "AADT": 9774.5, "TR_AADT": 502.83333333333331, "AAWT": 11090.416666666666, "TR_AAWT": 680.66666666666663, "raw_oneway": false, "raw_direction": null, "raw_name": "Himberger Straße", "osm_name": "Himberger Straße", "osm_type": "tertiary", "osm_distance": 1.1511490794911885, "osm_lanes": 2.0, "osm_oneway": null, "osm_maxspeed": 50.0, "osmid": 7974109.0 }, "geometry": { "type": "Point", "coordinates": [ 16.388947783315967, 48.12753436117125 ] } },
{ "type": "Feature", "properties": { "AADT": 19864.5, "TR_AADT": 816.33333333333337, "AAWT": 22700.166666666668, "TR_AAWT": 1100.6666666666667, "raw_oneway": false, "raw_direction": null, "raw_name": "Triester Straße", "osm_name": "Triester Straße", "osm_type": "primary", "osm_distance": 0.71870993216180878, "osm_lanes": 4.0, "osm_oneway": null, "osm_maxspeed": 50.0, "osmid": 348685308.0 }, "geometry": { "type": "Point", "coordinates": [ 16.326667570735701, 48.138203626520351 ] } },
{ "type": "Feature", "properties": { "AADT": 18663.333333333332, "TR_AADT": 888.75, "AAWT": 21640.416666666668, "TR_AAWT": 1202.75, "raw_oneway": false, "raw_direction": null, "raw_name": "Altmannsdorfer Straße", "osm_name": "Altmannsdorfer Straße", "osm_type": "primary", "osm_distance": 4.614511895644835, "osm_lanes": 2.0, "osm_oneway": "True", "osm_maxspeed": 50.0, "osmid": 680776868.0 }, "geometry": { "type": "Point", "coordinates": [ 16.324611621648756, 48.13812803600689 ] } },
{ "type": "Feature", "properties": { "AADT": 19124.583333333332, "TR_AADT": 963.66666666666663, "AAWT": 22040.583333333332, "TR_AAWT": 1309.3333333333333, "raw_oneway": false, "raw_direction": null, "raw_name": "Shuttleworthstraße", "osm_name": "Louis-Häfliger-Gasse", "osm_type": "residential", "osm_distance": 1.7124694643056728, "osm_lanes": null, "osm_oneway": null, "osm_maxspeed": 30.0, "osmid": 19751460.0 }, "geometry": { "type": "Point", "coordinates": [ 16.411684748849964, 48.27081520820866 ] } },
{ "type": "Feature", "properties": { "AADT": 12370.916666666666, "TR_AADT": 421.16666666666669, "AAWT": 13719.666666666666, "TR_AAWT": 564.58333333333337, "raw_oneway": false, "raw_direction": null, "raw_name": "Angyalföldsrtaße", "osm_name": "Angyalföldstraße", "osm_type": "primary", "osm_distance": 0.18154209525465898, "osm_lanes": 2.0, "osm_oneway": "True", "osm_maxspeed": 50.0, "osmid": 265676916.0 }, "geometry": { "type": "Point", "coordinates": [ 16.425064714494475, 48.255010058179145 ] } },
{ "type": "Feature", "properties": { "AADT": 51796.833333333336, "TR_AADT": 1825.1666666666667, "AAWT": 55709.666666666664, "TR_AAWT": 2320.3333333333335, "raw_oneway": false, "raw_direction": null, "raw_name": "Wientalstraße", "osm_name": "Wientalstraße", "osm_type": "primary", "osm_distance": 4.8004419091037134, "osm_lanes": 3.0, "osm_oneway": "True", "osm_maxspeed": 70.0, "osmid": 308198448.0 }, "geometry": { "type": "Point", "coordinates": [ 16.241016791248555, 48.200811336769782 ] } },
{ "type": "Feature", "properties": { "AADT": 11949.75, "TR_AADT": 590.33333333333337, "AAWT": 13027.333333333334, "TR_AAWT": 725.66666666666663, "raw_oneway": false, "raw_direction": null, "raw_name": "Hauptstraße", "osm_name": "Hauptstraße", "osm_type": "secondary", "osm_distance": 0.028929471903277087, "osm_lanes": 2.0, "osm_oneway": "False", "osm_maxspeed": 30.0, "osmid": 29052055.0 }, "geometry": { "type": "Point", "coordinates": [ 16.22764982163498, 48.207711155189337 ] } },
{ "type": "Feature", "properties": { "AADT": 35743.0, "TR_AADT": 1451.1666666666667, "AAWT": 39790.083333333336, "TR_AAWT": 1904.9166666666667, "raw_oneway": false, "raw_direction": null, "raw_name": "Heiligenstädter Straße", "osm_name": "Heiligenstädter Straße", "osm_type": "primary", "osm_distance": 1.2499127590010526, "osm_lanes": 4.0, "osm_oneway": null, "osm_maxspeed": 50.0, "osmid": 228339919.0 }, "geometry": { "type": "Point", "coordinates": [ 16.361492841640764, 48.269758935886351 ] } },
{ "type": "Feature", "properties": { "AADT": 10506.916666666666, "TR_AADT": 378.66666666666669, "AAWT": 11943.5, "TR_AAWT": 501.91666666666669, "raw_oneway": false, "raw_direction": null, "raw_name": "Prager Straße", "osm_name": "Prager Straße", "osm_type": "primary", "osm_distance": 2.0493740725241492, "osm_lanes": null, "osm_oneway": null, "osm_maxspeed": 30.0, "osmid": 414148811.0 }, "geometry": { "type": "Point", "coordinates": [ 16.379327690110117, 48.292890441712906 ] } },
{ "type": "Feature", "properties": { "AADT": 7100.666666666667, "TR_AADT": 213.75, "AAWT": 7956.916666666667, "TR_AAWT": 276.66666666666669, "raw_oneway": false, "raw_direction": null, "raw_name": "Wagramer Straße", "osm_name": "Wagramer Straße", "osm_type": "primary", "osm_distance": 0.63001634420479913, "osm_lanes": null, "osm_oneway": null, "osm_maxspeed": 70.0, "osmid": 240028820.0 }, "geometry": { "type": "Point", "coordinates": [ 16.491711694338811, 48.278924814078501 ] } },
{ "type": "Feature", "properties": { "AADT": 22528.083333333332, "TR_AADT": 769.91666666666663, "AAWT": 25199.75, "TR_AAWT": 967.83333333333337, "raw_oneway": false, "raw_direction": null, "raw_name": "Erzherzog-Karl-Straße", "osm_name": "Erzherzog-Karl-Straße", "osm_type": "primary", "osm_distance": 6.9746587522569197, "osm_lanes": 3.0, "osm_oneway": "True", "osm_maxspeed": 50.0, "osmid": 219103530.0 }, "geometry": { "type": "Point", "coordinates": [ 16.449436021617018, 48.231320595199406 ] } },
{ "type": "Feature", "properties": { "AADT": 16876.5, "TR_AADT": 582.58333333333337, "AAWT": 18465.0, "TR_AAWT": 748.41666666666663, "raw_oneway": false, "raw_direction": null, "raw_name": "Breitenleer Straße", "osm_name": "Breitenleer Straße", "osm_type": "secondary", "osm_distance": 2.7743215893255462, "osm_lanes": 4.0, "osm_oneway": "False", "osm_maxspeed": 50.0, "osmid": 659925284.0 }, "geometry": { "type": "Point", "coordinates": [ 16.460950571888411, 48.251735462822388 ] } },
{ "type": "Feature", "properties": { "AADT": 17026.916666666668, "TR_AADT": 784.75, "AAWT": 19017.333333333332, "TR_AAWT": 1037.6666666666667, "raw_oneway": false, "raw_direction": null, "raw_name": "Brünner Straße", "osm_name": "Brünner Straße", "osm_type": "primary", "osm_distance": 0.35142055065724259, "osm_lanes": 3.0, "osm_oneway": null, "osm_maxspeed": 50.0, "osmid": 658168762.0 }, "geometry": { "type": "Point", "coordinates": [ 16.422874777142887, 48.301331983081738 ] } },
{ "type": "Feature", "properties": { "AADT": 17578.583333333332, "TR_AADT": 1185.0, "AAWT": 19086.416666666668, "TR_AAWT": 1494.5, "raw_oneway": false, "raw_direction": null, "raw_name": "Eßlinger Hauptstraße", "osm_name": "Eßlinger Hauptstraße", "osm_type": "primary", "osm_distance": 0.39738483630006816, "osm_lanes": null, "osm_oneway": null, "osm_maxspeed": 50.0, "osmid": 542660839.0 }, "geometry": { "type": "Point", "coordinates": [ 16.540165367274813, 48.208362081954434 ] } },
{ "type": "Feature", "properties": { "AADT": 12977.25, "TR_AADT": 1685.5833333333333, "AAWT": 16284.5, "TR_AAWT": 2315.1666666666665, "raw_oneway": false, "raw_direction": null, "raw_name": "Vorarlberger Allee West", "osm_name": "Vorarlberger Allee", "osm_type": "tertiary", "osm_distance": 2.6594139484057355, "osm_lanes": 2.0, "osm_oneway": null, "osm_maxspeed": 50.0, "osmid": 556136285.0 }, "geometry": { "type": "Point", "coordinates": [ 16.338377983455782, 48.136366985771531 ] } },
{ "type": "Feature", "properties": { "AADT": 6672.75, "TR_AADT": 1357.4166666666667, "AAWT": 8523.0, "TR_AAWT": 1878.25, "raw_oneway": false, "raw_direction": null, "raw_name": "Vorarlberger Allee Ost", "osm_name": "Vorarlberger Allee", "osm_type": "tertiary", "osm_distance": 0.19389885419839462, "osm_lanes": null, "osm_oneway": null, "osm_maxspeed": 50.0, "osmid": 555292027.0 }, "geometry": { "type": "Point", "coordinates": [ 16.341169494083914, 48.135716790712799 ] } },
{ "type": "Feature", "properties": { "AADT": 12609.5, "TR_AADT": 1032.9166666666667, "AAWT": 15304.333333333334, "TR_AAWT": 1437.25, "raw_oneway": false, "raw_direction": null, "raw_name": "Spange Vösendorf", "osm_name": "Vösendorfer Nordspange", "osm_type": "secondary", "osm_distance": 1.0307667394632651, "osm_lanes": 2.0, "osm_oneway": null, "osm_maxspeed": 50.0, "osmid": 45338273.0 }, "geometry": { "type": "Point", "coordinates": [ 16.339101316349868, 48.134906031226478 ] } },
{ "type": "Feature", "properties": { "AADT": 15223.166666666666, "TR_AADT": 528.41666666666663, "AAWT": 17098.25, "TR_AAWT": 661.91666666666663, "raw_oneway": true, "raw_direction": "Franz-Josef-Kai", "raw_name": "Maria-Theresien-Straße", "osm_name": "Maria-Theresien-Straße", "osm_type": "secondary", "osm_distance": 1.8450750489915493, "osm_lanes": 2.0, "osm_oneway": "True", "osm_maxspeed": 50.0, "osmid": 356123186.0 }, "geometry": { "type": "Point", "coordinates": [ 16.366150302464529, 48.216536918502833 ] } },
{ "type": "Feature", "properties": { "AADT": 20105.416666666668, "TR_AADT": 514.33333333333337, "AAWT": 22739.083333333332, "TR_AAWT": 668.25, "raw_oneway": true, "raw_direction": "Währinger Straße", "raw_name": "Türkenstraße", "osm_name": "Türkenstraße", "osm_type": "secondary", "osm_distance": 1.4712184671726252, "osm_lanes": 3.0, "osm_oneway": "True", "osm_maxspeed": 30.0, "osmid": 8103718.0 }, "geometry": { "type": "Point", "coordinates": [ 16.367595284141686, 48.219056028430579 ] } },
{ "type": "Feature", "properties": { "AADT": 17191.083333333332, "TR_AADT": 552.08333333333337, "AAWT": 17888.0, "TR_AAWT": 709.83333333333337, "raw_oneway": false, "raw_direction": null, "raw_name": "Hernalser Hauptstraße", "osm_name": "Rosensteingasse", "osm_type": "tertiary", "osm_distance": 1.9278326029822896, "osm_lanes": null, "osm_oneway": "True", "osm_maxspeed": 50.0, "osmid": 5004102.0 }, "geometry": { "type": "Point", "coordinates": [ 16.326545885085729, 48.21937042464959 ] } },
{ "type": "Feature", "properties": { "AADT": 10404.166666666666, "TR_AADT": 264.33333333333331, "AAWT": 11173.083333333334, "TR_AAWT": 345.16666666666669, "raw_oneway": false, "raw_direction": null, "raw_name": "Hütteldorfer Straße", "osm_name": null, "osm_type": "service", "osm_distance": 0.096573439058083327, "osm_lanes": null, "osm_oneway": null, "osm_maxspeed": 50.0, "osmid": 140994840.0 }, "geometry": { "type": "Point", "coordinates": [ 16.307006185146843, 48.198969654996972 ] } },
{ "type": "Feature", "properties": { "AADT": 47059.083333333336, "TR_AADT": 2154.8333333333335, "AAWT": 50666.5, "TR_AAWT": 2906.25, "raw_oneway": false, "raw_direction": null, "raw_name": "Altmannsdorfer Straße II", "osm_name": "Altmannsdorfer Straße", "osm_type": "primary", "osm_distance": 3.9723419933703794, "osm_lanes": 2.0, "osm_oneway": "True", "osm_maxspeed": 50.0, "osmid": 268440135.0 }, "geometry": { "type": "Point", "coordinates": [ 16.317123331886041, 48.163829484564324 ] } },
{ "type": "Feature", "properties": { "AADT": 21311.416666666668, "TR_AADT": 1141.0, "AAWT": 24754.416666666668, "TR_AAWT": 1429.5833333333333, "raw_oneway": false, "raw_direction": null, "raw_name": "Wienerbergstraße", "osm_name": "Wienerbergstraße", "osm_type": "primary", "osm_distance": 2.4942065680166414, "osm_lanes": 4.0, "osm_oneway": "False", "osm_maxspeed": 50.0, "osmid": 272254077.0 }, "geometry": { "type": "Point", "coordinates": [ 16.334816969417187, 48.171288541139063 ] } },
{ "type": "Feature", "properties": { "AADT": 19207.0, "TR_AADT": 456.08333333333331, "AAWT": 21944.75, "TR_AAWT": 599.16666666666663, "raw_oneway": false, "raw_direction": null, "raw_name": "Atzgersdorfer Straße", "osm_name": "Atzgersdorfer Straße", "osm_type": "secondary", "osm_distance": 4.3818724038679449, "osm_lanes": 2.0, "osm_oneway": "True", "osm_maxspeed": 50.0, "osmid": 51387557.0 }, "geometry": { "type": "Point", "coordinates": [ 16.295989822389846, 48.169681250216534 ] } },
{ "type": "Feature", "properties": { "AADT": 15168.333333333334, "TR_AADT": 465.41666666666669, "AAWT": 16206.583333333334, "TR_AAWT": 582.08333333333337, "raw_oneway": true, "raw_direction": "stadtauswärts", "raw_name": "Koppstraße", "osm_name": "Koppstraße", "osm_type": "primary", "osm_distance": 0.27702380158431056, "osm_lanes": 2.0, "osm_oneway": "True", "osm_maxspeed": 50.0, "osmid": 26242729.0 }, "geometry": { "type": "Point", "coordinates": [ 16.321197222509106, 48.208527469745697 ] } },
{ "type": "Feature", "properties": { "AADT": 16658.75, "TR_AADT": 2704.9166666666665, "AAWT": 20331.833333333332, "TR_AAWT": 3585.0, "raw_oneway": false, "raw_direction": null, "raw_name": "Laxenburger Straße", "osm_name": "Laxenburger Straße", "osm_type": "primary", "osm_distance": 0.96070698698849766, "osm_lanes": 3.0, "osm_oneway": "True", "osm_maxspeed": 50.0, "osmid": 773857597.0 }, "geometry": { "type": "Point", "coordinates": [ 16.355373063732372, 48.131763346553704 ] } },
{ "type": "Feature", "properties": { "AADT": 21539.666666666668, "TR_AADT": 1044.5833333333333, "AAWT": 23796.083333333332, "TR_AAWT": 1360.3333333333333, "raw_oneway": false, "raw_direction": null, "raw_name": "Donaustadtstraße II", "osm_name": "Donaustadtstraße", "osm_type": "primary", "osm_distance": 6.441734662476839, "osm_lanes": 2.0, "osm_oneway": "True", "osm_maxspeed": 50.0, "osmid": 5061177.0 }, "geometry": { "type": "Point", "coordinates": [ 16.443832333595523, 48.221415780745829 ] } },
{ "type": "Feature", "properties": { "AADT": 9539.75, "TR_AADT": 412.08333333333331, "AAWT": 10149.0, "TR_AAWT": 495.0, "raw_oneway": true, "raw_direction": "Zentrum", "raw_name": "Burggasse II", "osm_name": "Kirchengasse", "osm_type": "residential", "osm_distance": 0.040438765260446395, "osm_lanes": 2.0, "osm_oneway": "False", "osm_maxspeed": 30.0, "osmid": 31129456.0 }, "geometry": { "type": "Point", "coordinates": [ 16.35142455051394, 48.204191924380709 ] } },
{ "type": "Feature", "properties": { "AADT": 10561.333333333334, "TR_AADT": 394.41666666666669, "AAWT": 10975.833333333334, "TR_AAWT": 485.75, "raw_oneway": true, "raw_direction": "Koppstraße", "raw_name": "Neustiftgasse II", "osm_name": "Neustiftgasse", "osm_type": "secondary", "osm_distance": 0.55829820205055303, "osm_lanes": 2.0, "osm_oneway": "True", "osm_maxspeed": 30.0, "osmid": 1317027108.0 }, "geometry": { "type": "Point", "coordinates": [ 16.344835838840392, 48.205697842593679 ] } },
{ "type": "Feature", "properties": { "AADT": 25324.833333333332, "TR_AADT": 1230.5, "AAWT": 27105.333333333332, "TR_AAWT": 1608.9166666666667, "raw_oneway": false, "raw_direction": null, "raw_name": "Erzherzog-Karl-Straße III", "osm_name": "Salbeigasse", "osm_type": "residential", "osm_distance": 0.43913109400328282, "osm_lanes": null, "osm_oneway": null, "osm_maxspeed": null, "osmid": 8677148.0 }, "geometry": { "type": "Point", "coordinates": [ 16.464728289078579, 48.225627495042197 ] } },
{ "type": "Feature", "properties": { "AADT": 7627.333333333333, "TR_AADT": 239.33333333333334, "AAWT": 8537.25, "TR_AAWT": 286.91666666666669, "raw_oneway": false, "raw_direction": null, "raw_name": "Perchtoldsdorfer Straße", "osm_name": "Perchtoldsdorfer Straße", "osm_type": "secondary", "osm_distance": 0.23822084526815127, "osm_lanes": 3.0, "osm_oneway": null, "osm_maxspeed": 50.0, "osmid": 345102565.0 }, "geometry": { "type": "Point", "coordinates": [ 16.281037701371869, 48.132161423274781 ] } },
{ "type": "Feature", "properties": { "AADT": 31757.0, "TR_AADT": 710.75, "AAWT": 35177.75, "TR_AAWT": 888.16666666666663, "raw_oneway": false, "raw_direction": null, "raw_name": "Museumstraße", "osm_name": "Museumstraße", "osm_type": "secondary", "osm_distance": 4.914615465691953, "osm_lanes": 3.0, "osm_oneway": "True", "osm_maxspeed": 50.0, "osmid": 541082473.0 }, "geometry": { "type": "Point", "coordinates": [ 16.355726288275545, 48.206856370975935 ] } },
{ "type": "Feature", "properties": { "AADT": 11378.166666666666, "TR_AADT": 443.08333333333331, "AAWT": 13077.833333333334, "TR_AAWT": 605.08333333333337, "raw_oneway": false, "raw_direction": null, "raw_name": "Spange Leopoldsdorf", "osm_name": "Spange Leopoldsdorf", "osm_type": "secondary", "osm_distance": 0.79095722726235695, "osm_lanes": 2.0, "osm_oneway": null, "osm_maxspeed": 50.0, "osmid": 550185818.0 }, "geometry": { "type": "Point", "coordinates": [ 16.389209067360028, 48.128323459209824 ] } },
{ "type": "Feature", "properties": { "AADT": 20508.583333333332, "TR_AADT": 1120.0833333333333, "AAWT": 21755.166666666668, "TR_AAWT": 1367.9166666666667, "raw_oneway": true, "raw_direction": "Zentrum", "raw_name": "Schönbrunner Straße", "osm_name": "Schönbrunner Straße", "osm_type": "primary", "osm_distance": 8.3854258244877649, "osm_lanes": 2.0, "osm_oneway": "True", "osm_maxspeed": 50.0, "osmid": 31512439.0 }, "geometry": { "type": "Point", "coordinates": [ 16.338352057285007, 48.185964371758253 ] } },
{ "type": "Feature", "properties": { "AADT": 14792.833333333334, "TR_AADT": 612.66666666666663, "AAWT": 16177.5, "TR_AAWT": 766.66666666666663, "raw_oneway": false, "raw_direction": null, "raw_name": "Hirschstettner Straße", "osm_name": "Hirschstettner Straße", "osm_type": "secondary", "osm_distance": 4.7671100190057158, "osm_lanes": 3.0, "osm_oneway": null, "osm_maxspeed": 50.0, "osmid": 760702739.0 }, "geometry": { "type": "Point", "coordinates": [ 16.457841338399877, 48.242196426435321 ] } },
{ "type": "Feature", "properties": { "AADT": 29181.0, "TR_AADT": 833.25, "AAWT": 32348.916666666668, "TR_AAWT": 1055.1666666666667, "raw_oneway": true, "raw_direction": "A4", "raw_name": "Weißgerber Lände", "osm_name": "Weißgerberlände", "osm_type": "primary", "osm_distance": 6.2328885604022135, "osm_lanes": 3.0, "osm_oneway": "True", "osm_maxspeed": 50.0, "osmid": 268591387.0 }, "geometry": { "type": "Point", "coordinates": [ 16.395193958623583, 48.209438187893234 ] } },
{ "type": "Feature", "properties": { "AADT": 44153.333333333336, "TR_AADT": 2874.0833333333335, "AAWT": 47804.666666666664, "TR_AAWT": 3639.9166666666665, "raw_oneway": false, "raw_direction": null, "raw_name": "Margaretengürtel", "osm_name": "Unterfahrung Matzleinsdorfer Platz", "osm_type": "primary", "osm_distance": 3.6840857655750825, "osm_lanes": 2.0, "osm_oneway": "True", "osm_maxspeed": 50.0, "osmid": 10628957.0 }, "geometry": { "type": "Point", "coordinates": [ 16.359123135341825, 48.180923920550391 ] } },
{ "type": "Feature", "properties": { "AADT": 13936.0, "TR_AADT": 426.08333333333331, "AAWT": 14870.333333333334, "TR_AAWT": 555.75, "raw_oneway": false, "raw_direction": null, "raw_name": "Simmeringer Hauptstraße", "osm_name": null, "osm_type": "service", "osm_distance": 1.5715817030402286, "osm_lanes": null, "osm_oneway": null, "osm_maxspeed": 10.0, "osmid": 211894937.0 }, "geometry": { "type": "Point", "coordinates": [ 16.439580603867771, 48.155937844435272 ] } },
{ "type": "Feature", "properties": { "AADT": 18085.0, "TR_AADT": 694.16666666666663, "AAWT": 20372.5, "TR_AAWT": 861.08333333333337, "raw_oneway": false, "raw_direction": null, "raw_name": "Längenfeldgasse", "osm_name": "Längenfeldgasse", "osm_type": "tertiary", "osm_distance": 20.165646103448726, "osm_lanes": 2.0, "osm_oneway": "False", "osm_maxspeed": 50.0, "osmid": 149641215.0 }, "geometry": { "type": "Point", "coordinates": [ 16.342529916276902, 48.174886787971261 ] } },
{ "type": "Feature", "properties": { "AADT": 11125.166666666666, "TR_AADT": 477.25, "AAWT": 12560.333333333334, "TR_AAWT": 566.91666666666663, "raw_oneway": false, "raw_direction": null, "raw_name": "Lainzer Straße", "osm_name": "Lainzer Straße", "osm_type": "secondary", "osm_distance": 14.191578508283989, "osm_lanes": 3.0, "osm_oneway": null, "osm_maxspeed": 50.0, "osmid": 274135424.0 }, "geometry": { "type": "Point", "coordinates": [ 16.283926423244417, 48.179820585379048 ] } },
{ "type": "Feature", "properties": { "AADT": 11312.083333333334, "TR_AADT": 496.08333333333331, "AAWT": 12874.666666666666, "TR_AAWT": 605.16666666666663, "raw_oneway": false, "raw_direction": null, "raw_name": "Maxinggasse", "osm_name": "Maxingstraße", "osm_type": "tertiary", "osm_distance": 8.2137118966218985, "osm_lanes": 2.0, "osm_oneway": null, "osm_maxspeed": 30.0, "osmid": 26728871.0 }, "geometry": { "type": "Point", "coordinates": [ 16.298850176988683, 48.179350027414287 ] } },
{ "type": "Feature", "properties": { "AADT": 15499.333333333334, "TR_AADT": 329.75, "AAWT": 16702.083333333332, "TR_AAWT": 405.66666666666669, "raw_oneway": true, "raw_direction": "Zentrum", "raw_name": "Gablenzgasse", "osm_name": "Gablenzgasse", "osm_type": "primary", "osm_distance": 5.8892989875573543, "osm_lanes": 3.0, "osm_oneway": "True", "osm_maxspeed": 50.0, "osmid": 1213760623.0 }, "geometry": { "type": "Point", "coordinates": [ 16.3222310494669, 48.205833521108417 ] } },
{ "type": "Feature", "properties": { "AADT": 16849.5, "TR_AADT": 1006.6666666666666, "AAWT": 18500.583333333332, "TR_AAWT": 1240.5833333333333, "raw_oneway": false, "raw_direction": null, "raw_name": "Gersthofer Straße", "osm_name": "Gersthofer Straße", "osm_type": "secondary", "osm_distance": 7.1901037586281307, "osm_lanes": 2.0, "osm_oneway": null, "osm_maxspeed": 50.0, "osmid": 9099358.0 }, "geometry": { "type": "Point", "coordinates": [ 16.325895532870046, 48.226972148007611 ] } },
{ "type": "Feature", "properties": { "AADT": 15819.75, "TR_AADT": 554.75, "AAWT": 17631.916666666668, "TR_AAWT": 707.66666666666663, "raw_oneway": false, "raw_direction": null, "raw_name": "Angerer Straße", "osm_name": "Angerer Straße", "osm_type": "secondary", "osm_distance": 9.5669577131765013, "osm_lanes": 2.0, "osm_oneway": null, "osm_maxspeed": 50.0, "osmid": 363963929.0 }, "geometry": { "type": "Point", "coordinates": [ 16.403051767432807, 48.258133123279414 ] } },
{ "type": "Feature", "properties": { "AADT": 14143.833333333334, "TR_AADT": 941.33333333333337, "AAWT": 16082.666666666666, "TR_AAWT": 1216.3333333333333, "raw_oneway": false, "raw_direction": null, "raw_name": "Siemensstraße", "osm_name": "Siemensstraße", "osm_type": "primary", "osm_distance": 7.2611903014427943, "osm_lanes": 2.0, "osm_oneway": null, "osm_maxspeed": 50.0, "osmid": 799305696.0 }, "geometry": { "type": "Point", "coordinates": [ 16.429022763592091, 48.266568952151246 ] } },
{ "type": "Feature", "properties": { "AADT": 16188.0, "TR_AADT": 536.91666666666663, "AAWT": 18205.833333333332, "TR_AAWT": 666.75, "raw_oneway": false, "raw_direction": null, "raw_name": "Breitenfurter Straße II", "osm_name": "Breitenfurter Straße", "osm_type": "primary", "osm_distance": 5.8713168557135802, "osm_lanes": 2.0, "osm_oneway": null, "osm_maxspeed": 50.0, "osmid": 290018396.0 }, "geometry": { "type": "Point", "coordinates": [ 16.286390254659715, 48.136975098468554 ] } },
{ "type": "Feature", "properties": { "AADT": 5009.083333333333, "TR_AADT": 252.83333333333334, "AAWT": 5717.25, "TR_AAWT": 320.58333333333331, "raw_oneway": false, "raw_direction": null, "raw_name": "Endresstraße", "osm_name": "Endresstraße", "osm_type": "tertiary", "osm_distance": 0.57178496129206446, "osm_lanes": 2.0, "osm_oneway": null, "osm_maxspeed": 50.0, "osmid": 33174885.0 }, "geometry": { "type": "Point", "coordinates": [ 16.271115557150921, 48.150457208692259 ] } },
{ "type": "Feature", "properties": { "AADT": 57161.583333333336, "TR_AADT": 2883.5833333333335, "AAWT": 60566.333333333336, "TR_AAWT": 3713.3333333333335, "raw_oneway": false, "raw_direction": null, "raw_name": "Währinger Gürtel Nord/Süd", "osm_name": null, "osm_type": null, "osm_distance": null, "osm_lanes": null, "osm_oneway": null, "osm_maxspeed": null, "osmid": null }, "geometry": { "type": "Point", "coordinates": [ 16.343505558817167, 48.220668372961939 ] } },
{ "type": "Feature", "properties": { "AADT": 12085.416666666666, "TR_AADT": 1212.5, "AAWT": 14175.0, "TR_AAWT": 1631.3333333333333, "raw_oneway": false, "raw_direction": null, "raw_name": "Himberger Str. II", "osm_name": "Himberger Straße", "osm_type": "primary", "osm_distance": 7.4484110057334139, "osm_lanes": 2.0, "osm_oneway": null, "osm_maxspeed": 50.0, "osmid": 1044566775.0 }, "geometry": { "type": "Point", "coordinates": [ 16.38338813782649, 48.136833313436973 ] } },
{ "type": "Feature", "properties": { "AADT": 12563.583333333334, "TR_AADT": 877.08333333333337, "AAWT": 14083.5, "TR_AAWT": 1154.4166666666667, "raw_oneway": false, "raw_direction": null, "raw_name": "Breitenleer Straße II", "osm_name": "Breitenleer Straße", "osm_type": "secondary", "osm_distance": 0.091659548500032578, "osm_lanes": null, "osm_oneway": null, "osm_maxspeed": 50.0, "osmid": 4898083.0 }, "geometry": { "type": "Point", "coordinates": [ 16.512593643458409, 48.250867904653383 ] } },
{ "type": "Feature", "properties": { "AADT": 12712.75, "TR_AADT": 510.5, "AAWT": 14133.833333333334, "TR_AAWT": 722.58333333333337, "raw_oneway": false, "raw_direction": null, "raw_name": "Seyringer Straße", "osm_name": "Seyringer Straße", "osm_type": "secondary", "osm_distance": 3.2545819096799256, "osm_lanes": 2.0, "osm_oneway": "False", "osm_maxspeed": 50.0, "osmid": 404349427.0 }, "geometry": { "type": "Point", "coordinates": [ 16.457655754654876, 48.274640134001608 ] } }
]
}
