{
"type": "FeatureCollection",
"name": "Vienna_AADT_AAWT_2020",
"crs": { "type": "name", "properties": { "name": "urn:ogc:def:crs:OGC:1.3:CRS84" } },
"features": [
{ "type": "Feature", "properties": { "AADT": 32651.583333333332, "TR_AADT": 1021.4166666666666, "AAWT": 36626.5, "TR_AAWT": 1325.6666666666667, "raw_oneway": false, "raw_direction": null, "raw_name": "Reichsbrücke", "osm_name": "Reichsbrücke", "osm_type": "primary", "osm_distance": 5.5935159807503272, "osm_lanes": 3.0, "osm_oneway": "True", "osmid": 11362300.0 }, "geometry": { "type": "Point", "coordinates": [ 16.413122550105502, 48.230145316671276 ] } },
{ "type": "Feature", "properties": { "AADT": 64169.0, "TR_AADT": 2346.25, "AAWT": 67098.916666666672, "TR_AAWT": 2894.75, "raw_oneway": false, "raw_direction": null, "raw_name": "Westbahnhof", "osm_name": null, "osm_type": null, "osm_distance": null, "osm_lanes": null, "osm_oneway": null, "osmid": null }, "geometry": { "type": "Point", "coordinates": [ 16.338397576138881, 48.192682368192763 ] } },
{ "type": "Feature", "properties": { "AADT": 25647.083333333332, "TR_AADT": 631.83333333333337, "AAWT": 27971.75, "TR_AAWT": 811.66666666666663, "raw_oneway": false, "raw_direction": null, "raw_name": "Floridsdorfer Brücke", "osm_name": "Floridsdorfer Brücke", "osm_type": "primary", "osm_distance": 3.7574024148789871, "osm_lanes": 2.0, "osm_oneway": "True", "osmid": 493217745.0 }, "geometry": { "type": "Point", "coordinates": [ 16.382523454677202, 48.246360772014498 ] } },
{ "type": "Feature", "properties": { "AADT": 21666.916666666668, "TR_AADT": 709.66666666666663, "AAWT": 24446.083333333332, "TR_AAWT": 964.0, "raw_oneway": false, "raw_direction": null, "raw_name": "Brigittenauer Brücke", "osm_name": null, "osm_type": "service", "osm_distance": 2.7678057355901982, "osm_lanes": null, "osm_oneway": null, "osmid": 101381529.0 }, "geometry": { "type": "Point", "coordinates": [ 16.391930866305682, 48.236758948959697 ] } },
{ "type": "Feature", "properties": { "AADT": 25598.833333333332, "TR_AADT": 704.16666666666663, "AAWT": 28665.083333333332, "TR_AAWT": 903.0, "raw_oneway": false, "raw_direction": null, "raw_name": "Karlsplatz", "osm_name": "Karlsplatz", "osm_type": "primary", "osm_distance": 3.8231640982710644, "osm_lanes": 3.0, "osm_oneway": "True", "osmid": 4583716.0 }, "geometry": { "type": "Point", "coordinates": [ 16.372721286510952, 48.199942694318565 ] } },
{ "type": "Feature", "properties": { "AADT": 56143.0, "TR_AADT": 1776.0, "AAWT": 61198.0, "TR_AAWT": 2307.6666666666665, "raw_oneway": false, "raw_direction": null, "raw_name": "Obere Donaustraße/Franz-Josefs-Kai", "osm_name": "Marienbrücke", "osm_type": "tertiary", "osm_distance": 3.7098415869106183, "osm_lanes": 2.0, "osm_oneway": "True", "osmid": 263062087.0 }, "geometry": { "type": "Point", "coordinates": [ 16.376996234456165, 48.21269404274544 ] } },
{ "type": "Feature", "properties": { "AADT": 19373.0, "TR_AADT": 890.5, "AAWT": 21516.083333333332, "TR_AAWT": 1212.1666666666667, "raw_oneway": false, "raw_direction": null, "raw_name": "Handelskai", "osm_name": "Handelskai", "osm_type": "primary", "osm_distance": 1.3401334482249303, "osm_lanes": 4.0, "osm_oneway": null, "osmid": 34748258.0 }, "geometry": { "type": "Point", "coordinates": [ 16.423220043354263, 48.212256594908595 ] } },
{ "type": "Feature", "properties": { "AADT": 27945.666666666668, "TR_AADT": 2209.0, "AAWT": 31956.833333333332, "TR_AAWT": 2918.9166666666665, "raw_oneway": false, "raw_direction": null, "raw_name": "Brunner Straße", "osm_name": "Brunner Straße", "osm_type": "primary", "osm_distance": 1.849900333492331, "osm_lanes": 2.0, "osm_oneway": "True", "osmid": 89676438.0 }, "geometry": { "type": "Point", "coordinates": [ 16.297924470918023, 48.129474607857794 ] } },
{ "type": "Feature", "properties": { "AADT": 9801.8333333333339, "TR_AADT": 426.25, "AAWT": 10717.916666666666, "TR_AAWT": 529.75, "raw_oneway": false, "raw_direction": null, "raw_name": "Hochstraße", "osm_name": "Hochstraße", "osm_type": "primary", "osm_distance": 2.2493467465420878, "osm_lanes": 3.0, "osm_oneway": null, "osmid": 504535627.0 }, "geometry": { "type": "Point", "coordinates": [ 16.258615930476058, 48.132033295747632 ] } },
{ "type": "Feature", "properties": { "AADT": 11871.416666666666, "TR_AADT": 423.08333333333331, "AAWT": 12982.0, "TR_AAWT": 524.41666666666663, "raw_oneway": false, "raw_direction": null, "raw_name": "Breitenfurter Straße", "osm_name": "Breitenfurter Straße", "osm_type": "primary", "osm_distance": 0.23539089012333669, "osm_lanes": 2.0, "osm_oneway": null, "osmid": 421308651.0 }, "geometry": { "type": "Point", "coordinates": [ 16.238954847590136, 48.137940392579821 ] } },
{ "type": "Feature", "properties": { "AADT": 15994.5, "TR_AADT": 1109.75, "AAWT": 17873.25, "TR_AAWT": 1447.8333333333333, "raw_oneway": false, "raw_direction": null, "raw_name": "Simmeringer Hauptstraße", "osm_name": null, "osm_type": "primary", "osm_distance": 0.54552155979440298, "osm_lanes": 3.0, "osm_oneway": "True", "osmid": 425297947.0 }, "geometry": { "type": "Point", "coordinates": [ 16.461392237202539, 48.148454591697153 ] } },
{ "type": "Feature", "properties": { "AADT": 9323.5833333333339, "TR_AADT": 372.41666666666669, "AAWT": 10527.333333333334, "TR_AAWT": 509.66666666666669, "raw_oneway": false, "raw_direction": null, "raw_name": "Himberger Straße", "osm_name": "Himberger Straße", "osm_type": "tertiary", "osm_distance": 1.1511490794911885, "osm_lanes": 2.0, "osm_oneway": null, "osmid": 7974109.0 }, "geometry": { "type": "Point", "coordinates": [ 16.388947783315967, 48.12753436117125 ] } },
{ "type": "Feature", "properties": { "AADT": 17105.583333333332, "TR_AADT": 690.66666666666663, "AAWT": 19497.75, "TR_AAWT": 929.16666666666663, "raw_oneway": false, "raw_direction": null, "raw_name": "Triester Straße", "osm_name": "Triester Straße", "osm_type": "primary", "osm_distance": 0.71870993216180878, "osm_lanes": 4.0, "osm_oneway": null, "osmid": 348685308.0 }, "geometry": { "type": "Point", "coordinates": [ 16.326667570735701, 48.138203626520351 ] } },
{ "type": "Feature", "properties": { "AADT": 17497.083333333332, "TR_AADT": 829.66666666666663, "AAWT": 20141.916666666668, "TR_AAWT": 1112.25, "raw_oneway": false, "raw_direction": null, "raw_name": "Altmannsdorfer Straße", "osm_name": "Altmannsdorfer Straße", "osm_type": "primary", "osm_distance": 4.614511895644835, "osm_lanes": 2.0, "osm_oneway": "True", "osmid": 680776868.0 }, "geometry": { "type": "Point", "coordinates": [ 16.324611621648756, 48.13812803600689 ] } },
{ "type": "Feature", "properties": { "AADT": 18109.083333333332, "TR_AADT": 943.5, "AAWT": 20580.083333333332, "TR_AAWT": 1267.8333333333333, "raw_oneway": false, "raw_direction": null, "raw_name": "Shuttleworthstraße", "osm_name": "Louis-Häfliger-Gasse", "osm_type": "residential", "osm_distance": 1.7124694643056728, "osm_lanes": null, "osm_oneway": null, "osmid": 19751460.0 }, "geometry": { "type": "Point", "coordinates": [ 16.411684748849964, 48.27081520820866 ] } },
{ "type": "Feature", "properties": { "AADT": 10787.25, "TR_AADT": 405.41666666666669, "AAWT": 11961.0, "TR_AAWT": 532.75, "raw_oneway": false, "raw_direction": null, "raw_name": "Angyalföldsrtaße", "osm_name": "Angyalföldstraße", "osm_type": "primary", "osm_distance": 0.18154209525465898, "osm_lanes": 2.0, "osm_oneway": "True", "osmid": 265676916.0 }, "geometry": { "type": "Point", "coordinates": [ 16.425064714494475, 48.255010058179145 ] } },
{ "type": "Feature", "properties": { "AADT": 44609.0, "TR_AADT": 1498.0833333333333, "AAWT": 47963.666666666664, "TR_AAWT": 1926.6666666666667, "raw_oneway": false, "raw_direction": null, "raw_name": "Wientalstraße", "osm_name": "Wientalstraße", "osm_type": "primary", "osm_distance": 4.8004419091037134, "osm_lanes": 3.0, "osm_oneway": "True", "osmid": 308198448.0 }, "geometry": { "type": "Point", "coordinates": [ 16.241016791248555, 48.200811336769782 ] } },
{ "type": "Feature", "properties": { "AADT": 10375.083333333334, "TR_AADT": 584.58333333333337, "AAWT": 11281.25, "TR_AAWT": 713.08333333333337, "raw_oneway": false, "raw_direction": null, "raw_name": "Hauptstraße", "osm_name": "Hauptstraße", "osm_type": "secondary", "osm_distance": 0.22315850810704363, "osm_lanes": 3.0, "osm_oneway": "False", "osmid": 1201756977.0 }, "geometry": { "type": "Point", "coordinates": [ 16.22764982163498, 48.207711155189337 ] } },
{ "type": "Feature", "properties": { "AADT": 31489.166666666668, "TR_AADT": 1393.5833333333333, "AAWT": 34467.833333333336, "TR_AAWT": 1827.9166666666667, "raw_oneway": false, "raw_direction": null, "raw_name": "Heiligenstädter Straße", "osm_name": "Heiligenstädter Straße", "osm_type": "primary", "osm_distance": 1.2499127590010526, "osm_lanes": 4.0, "osm_oneway": null, "osmid": 228339919.0 }, "geometry": { "type": "Point", "coordinates": [ 16.361492841640764, 48.269758935886351 ] } },
{ "type": "Feature", "properties": { "AADT": 8898.75, "TR_AADT": 329.25, "AAWT": 10038.583333333334, "TR_AAWT": 431.33333333333331, "raw_oneway": false, "raw_direction": null, "raw_name": "Prager Straße", "osm_name": "Prager Straße", "osm_type": "primary", "osm_distance": 2.0493740725241492, "osm_lanes": null, "osm_oneway": null, "osmid": 414148811.0 }, "geometry": { "type": "Point", "coordinates": [ 16.379327690110117, 48.292890441712906 ] } },
{ "type": "Feature", "properties": { "AADT": 6577.75, "TR_AADT": 256.16666666666669, "AAWT": 7387.5, "TR_AAWT": 331.66666666666669, "raw_oneway": false, "raw_direction": null, "raw_name": "Wagramer Straße", "osm_name": "Wagramer Straße", "osm_type": "primary", "osm_distance": 0.63001634420479913, "osm_lanes": null, "osm_oneway": null, "osmid": 240028820.0 }, "geometry": { "type": "Point", "coordinates": [ 16.491711694338811, 48.278924814078501 ] } },
{ "type": "Feature", "properties": { "AADT": 19615.166666666668, "TR_AADT": 765.08333333333337, "AAWT": 22073.666666666668, "TR_AAWT": 944.16666666666663, "raw_oneway": false, "raw_direction": null, "raw_name": "Erzherzog-Karl-Straße", "osm_name": "Erzherzog-Karl-Straße", "osm_type": "primary", "osm_distance": 6.9746587522569197, "osm_lanes": 3.0, "osm_oneway": "True", "osmid": 219103530.0 }, "geometry": { "type": "Point", "coordinates": [ 16.449436021617018, 48.231320595199406 ] } },
{ "type": "Feature", "properties": { "AADT": 15269.25, "TR_AADT": 528.08333333333337, "AAWT": 16603.166666666668, "TR_AAWT": 684.41666666666663, "raw_oneway": false, "raw_direction": null, "raw_name": "Breitenleer Straße", "osm_name": "Breitenleer Straße", "osm_type": "secondary", "osm_distance": 2.7743215893255462, "osm_lanes": 4.0, "osm_oneway": "False", "osmid": 659925284.0 }, "geometry": { "type": "Point", "coordinates": [ 16.460950571888411, 48.251735462822388 ] } },
{ "type": "Feature", "properties": { "AADT": 15756.583333333334, "TR_AADT": 755.66666666666663, "AAWT": 17784.333333333332, "TR_AAWT": 1000.0833333333334, "raw_oneway": false, "raw_direction": null, "raw_name": "Brünner Straße", "osm_name": "Brünner Straße", "osm_type": "primary", "osm_distance": 0.35142055065724259, "osm_lanes": 3.0, "osm_oneway": null, "osmid": 658168762.0 }, "geometry": { "type": "Point", "coordinates": [ 16.422874777142887, 48.301331983081738 ] } },
{ "type": "Feature", "properties": { "AADT": 16342.916666666666, "TR_AADT": 1023.8333333333334, "AAWT": 17684.916666666668, "TR_AAWT": 1304.8333333333333, "raw_oneway": false, "raw_direction": null, "raw_name": "Eßlinger Hauptstraße", "osm_name": "Eßlinger Hauptstraße", "osm_type": "primary", "osm_distance": 0.39738483630006816, "osm_lanes": null, "osm_oneway": null, "osmid": 542660839.0 }, "geometry": { "type": "Point", "coordinates": [ 16.540165367274813, 48.208362081954434 ] } },
{ "type": "Feature", "properties": { "AADT": 11752.25, "TR_AADT": 1728.5833333333333, "AAWT": 14651.083333333334, "TR_AAWT": 2328.1666666666665, "raw_oneway": false, "raw_direction": null, "raw_name": "Vorarlberger Allee West", "osm_name": "Vorarlberger Allee", "osm_type": "tertiary", "osm_distance": 2.6594139484057355, "osm_lanes": 2.0, "osm_oneway": null, "osmid": 556136285.0 }, "geometry": { "type": "Point", "coordinates": [ 16.338377983455782, 48.136366985771531 ] } },
{ "type": "Feature", "properties": { "AADT": 6408.0, "TR_AADT": 1486.0, "AAWT": 8085.166666666667, "TR_AAWT": 1996.25, "raw_oneway": false, "raw_direction": null, "raw_name": "Vorarlberger Allee Ost", "osm_name": "Vorarlberger Allee", "osm_type": "tertiary", "osm_distance": 0.19389885419839462, "osm_lanes": null, "osm_oneway": null, "osmid": 555292027.0 }, "geometry": { "type": "Point", "coordinates": [ 16.341169494083914, 48.135716790712799 ] } },
{ "type": "Feature", "properties": { "AADT": 11551.916666666666, "TR_AADT": 960.66666666666663, "AAWT": 13865.833333333334, "TR_AAWT": 1313.0833333333333, "raw_oneway": false, "raw_direction": null, "raw_name": "Spange Vösendorf", "osm_name": "Vösendorfer Nordspange", "osm_type": "secondary", "osm_distance": 1.0307667394632651, "osm_lanes": 2.0, "osm_oneway": null, "osmid": 45338273.0 }, "geometry": { "type": "Point", "coordinates": [ 16.339101316349868, 48.134906031226478 ] } },
{ "type": "Feature", "properties": { "AADT": 11872.25, "TR_AADT": 346.66666666666669, "AAWT": 13626.75, "TR_AAWT": 456.75, "raw_oneway": true, "raw_direction": "Franz-Josef-Kai", "raw_name": "Maria-Theresien-Straße", "osm_name": "Maria-Theresien-Straße", "osm_type": "secondary", "osm_distance": 1.8450750489915493, "osm_lanes": 2.0, "osm_oneway": "True", "osmid": 356123186.0 }, "geometry": { "type": "Point", "coordinates": [ 16.366150302464529, 48.216536918502833 ] } },
{ "type": "Feature", "properties": { "AADT": 15731.416666666666, "TR_AADT": 386.91666666666669, "AAWT": 17983.25, "TR_AAWT": 512.33333333333337, "raw_oneway": true, "raw_direction": "Währinger Straße", "raw_name": "Türkenstraße", "osm_name": "Türkenstraße", "osm_type": "secondary", "osm_distance": 1.4712184671726252, "osm_lanes": 3.0, "osm_oneway": "True", "osmid": 8103718.0 }, "geometry": { "type": "Point", "coordinates": [ 16.367595284141686, 48.219056028430579 ] } },
{ "type": "Feature", "properties": { "AADT": 14979.166666666666, "TR_AADT": 450.66666666666669, "AAWT": 15667.5, "TR_AAWT": 574.0, "raw_oneway": false, "raw_direction": null, "raw_name": "Hernalser Hauptstraße", "osm_name": "Rosensteingasse", "osm_type": "tertiary", "osm_distance": 1.9278326029822896, "osm_lanes": null, "osm_oneway": "True", "osmid": 5004102.0 }, "geometry": { "type": "Point", "coordinates": [ 16.326545885085729, 48.21937042464959 ] } },
{ "type": "Feature", "properties": { "AADT": 9397.25, "TR_AADT": 211.0, "AAWT": 10113.416666666666, "TR_AAWT": 273.25, "raw_oneway": false, "raw_direction": null, "raw_name": "Hütteldorfer Straße", "osm_name": null, "osm_type": "service", "osm_distance": 0.096573439058083327, "osm_lanes": null, "osm_oneway": null, "osmid": 140994840.0 }, "geometry": { "type": "Point", "coordinates": [ 16.307006185146843, 48.198969654996972 ] } },
{ "type": "Feature", "properties": { "AADT": 43820.75, "TR_AADT": 2058.4166666666665, "AAWT": 47252.333333333336, "TR_AAWT": 2769.9166666666665, "raw_oneway": false, "raw_direction": null, "raw_name": "Altmannsdorfer Straße II", "osm_name": "Altmannsdorfer Straße", "osm_type": "primary", "osm_distance": 3.9723419933703794, "osm_lanes": 2.0, "osm_oneway": "True", "osmid": 268440135.0 }, "geometry": { "type": "Point", "coordinates": [ 16.317123331886041, 48.163829484564324 ] } },
{ "type": "Feature", "properties": { "AADT": 18326.833333333332, "TR_AADT": 1024.6666666666667, "AAWT": 20919.0, "TR_AAWT": 1247.8333333333333, "raw_oneway": false, "raw_direction": null, "raw_name": "Wienerbergstraße", "osm_name": "Wienerbergstraße", "osm_type": "primary", "osm_distance": 2.4942065680166414, "osm_lanes": 4.0, "osm_oneway": "False", "osmid": 272254077.0 }, "geometry": { "type": "Point", "coordinates": [ 16.334816969417187, 48.171288541139063 ] } },
{ "type": "Feature", "properties": { "AADT": 16859.083333333332, "TR_AADT": 421.41666666666669, "AAWT": 19310.333333333332, "TR_AAWT": 542.08333333333337, "raw_oneway": false, "raw_direction": null, "raw_name": "Atzgersdorfer Straße", "osm_name": "Atzgersdorfer Straße", "osm_type": "secondary", "osm_distance": 4.3818724038679449, "osm_lanes": 2.0, "osm_oneway": "True", "osmid": 51387557.0 }, "geometry": { "type": "Point", "coordinates": [ 16.295989822389846, 48.169681250216534 ] } },
{ "type": "Feature", "properties": { "AADT": 14500.083333333334, "TR_AADT": 431.83333333333331, "AAWT": 15457.75, "TR_AAWT": 536.0, "raw_oneway": true, "raw_direction": "stadtauswärts", "raw_name": "Koppstraße", "osm_name": "Koppstraße", "osm_type": "primary", "osm_distance": 0.27702380158431056, "osm_lanes": 2.0, "osm_oneway": "True", "osmid": 26242729.0 }, "geometry": { "type": "Point", "coordinates": [ 16.321197222509106, 48.208527469745697 ] } },
{ "type": "Feature", "properties": { "AADT": 15097.75, "TR_AADT": 2969.5833333333335, "AAWT": 18282.833333333332, "TR_AAWT": 3843.1666666666665, "raw_oneway": false, "raw_direction": null, "raw_name": "Laxenburger Straße", "osm_name": "Laxenburger Straße", "osm_type": "primary", "osm_distance": 0.96070698698849766, "osm_lanes": 3.0, "osm_oneway": "True", "osmid": 773857597.0 }, "geometry": { "type": "Point", "coordinates": [ 16.355373063732372, 48.131763346553704 ] } },
{ "type": "Feature", "properties": { "AADT": 18284.833333333332, "TR_AADT": 952.16666666666663, "AAWT": 20319.916666666668, "TR_AAWT": 1231.9166666666667, "raw_oneway": false, "raw_direction": null, "raw_name": "Donaustadtstraße II", "osm_name": "Donaustadtstraße", "osm_type": "primary", "osm_distance": 6.441734662476839, "osm_lanes": 2.0, "osm_oneway": "True", "osmid": 5061177.0 }, "geometry": { "type": "Point", "coordinates": [ 16.443832333595523, 48.221415780745829 ] } },
{ "type": "Feature", "properties": { "AADT": 7932.083333333333, "TR_AADT": 456.16666666666669, "AAWT": 8629.0, "TR_AAWT": 545.41666666666663, "raw_oneway": true, "raw_direction": "Zentrum", "raw_name": "Burggasse II", "osm_name": "Kirchengasse", "osm_type": "residential", "osm_distance": 0.040438765260446395, "osm_lanes": 2.0, "osm_oneway": "False", "osmid": 31129456.0 }, "geometry": { "type": "Point", "coordinates": [ 16.35142455051394, 48.204191924380709 ] } },
{ "type": "Feature", "properties": { "AADT": 9388.0833333333339, "TR_AADT": 359.91666666666669, "AAWT": 9875.5833333333339, "TR_AAWT": 438.83333333333331, "raw_oneway": true, "raw_direction": "Koppstraße", "raw_name": "Neustiftgasse II", "osm_name": "Neustiftgasse", "osm_type": "secondary", "osm_distance": 0.55829820205055303, "osm_lanes": 2.0, "osm_oneway": "True", "osmid": 1317027108.0 }, "geometry": { "type": "Point", "coordinates": [ 16.344835838840392, 48.205697842593679 ] } },
{ "type": "Feature", "properties": { "AADT": 24310.333333333332, "TR_AADT": 1316.5833333333333, "AAWT": 26189.75, "TR_AAWT": 1722.0833333333333, "raw_oneway": false, "raw_direction": null, "raw_name": "Erzherzog-Karl-Straße III", "osm_name": "Salbeigasse", "osm_type": "residential", "osm_distance": 0.43913109400328282, "osm_lanes": null, "osm_oneway": null, "osmid": 8677148.0 }, "geometry": { "type": "Point", "coordinates": [ 16.464728289078579, 48.225627495042197 ] } },
{ "type": "Feature", "properties": { "AADT": 6318.666666666667, "TR_AADT": 229.41666666666666, "AAWT": 7003.666666666667, "TR_AAWT": 271.58333333333331, "raw_oneway": false, "raw_direction": null, "raw_name": "Perchtoldsdorfer Straße", "osm_name": "Perchtoldsdorfer Straße", "osm_type": "secondary", "osm_distance": 0.23822084526815127, "osm_lanes": 3.0, "osm_oneway": null, "osmid": 345102565.0 }, "geometry": { "type": "Point", "coordinates": [ 16.281037701371869, 48.132161423274781 ] } },
{ "type": "Feature", "properties": { "AADT": 23415.0, "TR_AADT": 383.25, "AAWT": 26673.166666666668, "TR_AAWT": 507.41666666666669, "raw_oneway": false, "raw_direction": null, "raw_name": "Museumstraße", "osm_name": "Museumstraße", "osm_type": "secondary", "osm_distance": 4.914615465691953, "osm_lanes": 3.0, "osm_oneway": "True", "osmid": 541082473.0 }, "geometry": { "type": "Point", "coordinates": [ 16.355726288275545, 48.206856370975935 ] } },
{ "type": "Feature", "properties": { "AADT": 7553.75, "TR_AADT": 275.33333333333331, "AAWT": 8576.1666666666661, "TR_AAWT": 374.41666666666669, "raw_oneway": false, "raw_direction": null, "raw_name": "Spange Leopoldsdorf", "osm_name": "Spange Leopoldsdorf", "osm_type": "secondary", "osm_distance": 0.79095722726235695, "osm_lanes": 2.0, "osm_oneway": null, "osmid": 550185818.0 }, "geometry": { "type": "Point", "coordinates": [ 16.389209067360028, 48.128323459209824 ] } },
{ "type": "Feature", "properties": { "AADT": 19549.583333333332, "TR_AADT": 993.75, "AAWT": 21270.333333333332, "TR_AAWT": 1202.25, "raw_oneway": false, "raw_direction": null, "raw_name": "Barawitzkagasse", "osm_name": "Döblinger Hauptstraße", "osm_type": "secondary", "osm_distance": 0.68469965085854168, "osm_lanes": 3.0, "osm_oneway": null, "osmid": 1315036682.0 }, "geometry": { "type": "Point", "coordinates": [ 16.355683116708612, 48.244597677168763 ] } },
{ "type": "Feature", "properties": { "AADT": 21353.333333333332, "TR_AADT": 497.5, "AAWT": 24097.666666666668, "TR_AAWT": 654.75, "raw_oneway": false, "raw_direction": null, "raw_name": "Am Heumarkt", "osm_name": "Am Heumarkt", "osm_type": "primary", "osm_distance": 0.33634019564074175, "osm_lanes": 2.0, "osm_oneway": "True", "osmid": 1273089813.0 }, "geometry": { "type": "Point", "coordinates": [ 16.381600677900366, 48.203061497605852 ] } },
{ "type": "Feature", "properties": { "AADT": 26330.333333333332, "TR_AADT": 954.16666666666663, "AAWT": 27917.666666666668, "TR_AAWT": 1227.0, "raw_oneway": false, "raw_direction": null, "raw_name": "Grenzackerstraße", "osm_name": "Grenzackerstraße", "osm_type": "primary", "osm_distance": 3.8406677811187908, "osm_lanes": 2.0, "osm_oneway": "True", "osmid": 805241646.0 }, "geometry": { "type": "Point", "coordinates": [ 16.375264358848831, 48.163738747645553 ] } },
{ "type": "Feature", "properties": { "AADT": 19834.916666666668, "TR_AADT": 378.41666666666669, "AAWT": 21996.583333333332, "TR_AAWT": 480.91666666666669, "raw_oneway": true, "raw_direction": "Schottenring", "raw_name": "Universitätsring", "osm_name": "Universitätsring", "osm_type": "secondary", "osm_distance": 0.30170774992672039, "osm_lanes": 3.0, "osm_oneway": "True", "osmid": 29065909.0 }, "geometry": { "type": "Point", "coordinates": [ 16.360711028012862, 48.210637356345146 ] } },
{ "type": "Feature", "properties": { "AADT": 18446.333333333332, "TR_AADT": 504.66666666666669, "AAWT": 19845.166666666668, "TR_AAWT": 615.08333333333337, "raw_oneway": false, "raw_direction": null, "raw_name": "Adalbert-Stifter-Straße", "osm_name": "Adalbert-Stifter-Straße", "osm_type": "primary", "osm_distance": 5.4617190122261992, "osm_lanes": 2.0, "osm_oneway": "True", "osmid": 42918486.0 }, "geometry": { "type": "Point", "coordinates": [ 16.367124157258235, 48.238391193367377 ] } },
{ "type": "Feature", "properties": { "AADT": 18724.75, "TR_AADT": 722.58333333333337, "AAWT": 21222.25, "TR_AAWT": 984.0, "raw_oneway": false, "raw_direction": null, "raw_name": "Wagramer Straße II", "osm_name": "Goldemundweg", "osm_type": "residential", "osm_distance": 1.3344610877654808, "osm_lanes": 4.0, "osm_oneway": "False", "osmid": 10614525.0 }, "geometry": { "type": "Point", "coordinates": [ 16.446343758431553, 48.253621221659905 ] } },
{ "type": "Feature", "properties": { "AADT": 15117.916666666666, "TR_AADT": 664.75, "AAWT": 16191.083333333334, "TR_AAWT": 859.08333333333337, "raw_oneway": true, "raw_direction": "Zentrum", "raw_name": "Schönbrunner Straße", "osm_name": "Schönbrunner Straße", "osm_type": "primary", "osm_distance": 8.3854258244877649, "osm_lanes": 2.0, "osm_oneway": "True", "osmid": 31512439.0 }, "geometry": { "type": "Point", "coordinates": [ 16.338352057285007, 48.185964371758253 ] } },
{ "type": "Feature", "properties": { "AADT": 12978.083333333334, "TR_AADT": 367.83333333333331, "AAWT": 14417.333333333334, "TR_AAWT": 473.08333333333331, "raw_oneway": false, "raw_direction": null, "raw_name": "Hirschstettner Straße", "osm_name": "Hirschstettner Straße", "osm_type": "secondary", "osm_distance": 4.7671100190057158, "osm_lanes": 3.0, "osm_oneway": null, "osmid": 760702739.0 }, "geometry": { "type": "Point", "coordinates": [ 16.457841338399877, 48.242196426435321 ] } },
{ "type": "Feature", "properties": { "AADT": 23142.666666666668, "TR_AADT": 567.33333333333337, "AAWT": 26070.75, "TR_AAWT": 774.41666666666663, "raw_oneway": true, "raw_direction": "A4", "raw_name": "Weißgerber Lände", "osm_name": "Weißgerberlände", "osm_type": "primary", "osm_distance": 6.2328885604022135, "osm_lanes": 3.0, "osm_oneway": "True", "osmid": 268591387.0 }, "geometry": { "type": "Point", "coordinates": [ 16.395193958623583, 48.209438187893234 ] } },
{ "type": "Feature", "properties": { "AADT": 41688.916666666664, "TR_AADT": 4723.25, "AAWT": 45279.0, "TR_AAWT": 5799.166666666667, "raw_oneway": false, "raw_direction": null, "raw_name": "Margaretengürtel", "osm_name": "Unterfahrung Matzleinsdorfer Platz", "osm_type": "primary", "osm_distance": 3.6840857655750825, "osm_lanes": 2.0, "osm_oneway": "True", "osmid": 10628957.0 }, "geometry": { "type": "Point", "coordinates": [ 16.359123135341825, 48.180923920550391 ] } },
{ "type": "Feature", "properties": { "AADT": 12504.416666666666, "TR_AADT": 430.83333333333331, "AAWT": 13429.833333333334, "TR_AAWT": 562.83333333333337, "raw_oneway": false, "raw_direction": null, "raw_name": "Simmeringer Hauptstraße", "osm_name": null, "osm_type": "service", "osm_distance": 1.5715817030402286, "osm_lanes": null, "osm_oneway": null, "osmid": 211894937.0 }, "geometry": { "type": "Point", "coordinates": [ 16.439580603867771, 48.155937844435272 ] } },
{ "type": "Feature", "properties": { "AADT": 16427.25, "TR_AADT": 665.75, "AAWT": 18145.833333333332, "TR_AAWT": 810.75, "raw_oneway": false, "raw_direction": null, "raw_name": "Längenfeldgasse", "osm_name": "Längenfeldgasse", "osm_type": "tertiary", "osm_distance": 20.165646103448726, "osm_lanes": 2.0, "osm_oneway": "False", "osmid": 149641215.0 }, "geometry": { "type": "Point", "coordinates": [ 16.342529916276902, 48.174886787971261 ] } },
{ "type": "Feature", "properties": { "AADT": 9150.0833333333339, "TR_AADT": 338.66666666666669, "AAWT": 10250.75, "TR_AAWT": 400.33333333333331, "raw_oneway": false, "raw_direction": null, "raw_name": "Lainzer Straße", "osm_name": "Lainzer Straße", "osm_type": "secondary", "osm_distance": 14.191578508283989, "osm_lanes": 3.0, "osm_oneway": null, "osmid": 274135424.0 }, "geometry": { "type": "Point", "coordinates": [ 16.283926423244417, 48.179820585379048 ] } },
{ "type": "Feature", "properties": { "AADT": 11107.416666666666, "TR_AADT": 1015.5, "AAWT": 12528.75, "TR_AAWT": 1209.3333333333333, "raw_oneway": false, "raw_direction": null, "raw_name": "Maxinggasse", "osm_name": "Maxingstraße", "osm_type": "tertiary", "osm_distance": 8.2137118966218985, "osm_lanes": 2.0, "osm_oneway": null, "osmid": 26728871.0 }, "geometry": { "type": "Point", "coordinates": [ 16.298850176988683, 48.179350027414287 ] } },
{ "type": "Feature", "properties": { "AADT": 13655.333333333334, "TR_AADT": 334.08333333333331, "AAWT": 14745.333333333334, "TR_AAWT": 411.75, "raw_oneway": true, "raw_direction": "Zentrum", "raw_name": "Gablenzgasse", "osm_name": "Gablenzgasse", "osm_type": "primary", "osm_distance": 5.8892989875573543, "osm_lanes": 3.0, "osm_oneway": "True", "osmid": 1213760623.0 }, "geometry": { "type": "Point", "coordinates": [ 16.3222310494669, 48.205833521108417 ] } },
{ "type": "Feature", "properties": { "AADT": 15353.833333333334, "TR_AADT": 1298.0833333333333, "AAWT": 16785.583333333332, "TR_AAWT": 1561.0833333333333, "raw_oneway": false, "raw_direction": null, "raw_name": "Gersthofer Straße", "osm_name": "Gersthofer Straße", "osm_type": "secondary", "osm_distance": 7.1901037586281307, "osm_lanes": 2.0, "osm_oneway": null, "osmid": 9099358.0 }, "geometry": { "type": "Point", "coordinates": [ 16.325895532870046, 48.226972148007611 ] } },
{ "type": "Feature", "properties": { "AADT": 12619.0, "TR_AADT": 398.25, "AAWT": 13756.5, "TR_AAWT": 504.25, "raw_oneway": false, "raw_direction": null, "raw_name": "Angerer Straße", "osm_name": "Angerer Straße", "osm_type": "secondary", "osm_distance": 9.5669577131765013, "osm_lanes": 2.0, "osm_oneway": null, "osmid": 363963929.0 }, "geometry": { "type": "Point", "coordinates": [ 16.403051767432807, 48.258133123279414 ] } },
{ "type": "Feature", "properties": { "AADT": 14242.666666666666, "TR_AADT": 2032.8333333333333, "AAWT": 16061.416666666666, "TR_AAWT": 2583.8333333333335, "raw_oneway": false, "raw_direction": null, "raw_name": "Siemensstraße", "osm_name": "Siemensstraße", "osm_type": "primary", "osm_distance": 7.2611903014427943, "osm_lanes": 2.0, "osm_oneway": null, "osmid": 799305696.0 }, "geometry": { "type": "Point", "coordinates": [ 16.429022763592091, 48.266568952151246 ] } },
{ "type": "Feature", "properties": { "AADT": 15046.416666666666, "TR_AADT": 551.0, "AAWT": 16767.916666666668, "TR_AAWT": 669.25, "raw_oneway": false, "raw_direction": null, "raw_name": "Breitenfurter Straße II", "osm_name": "Breitenfurter Straße", "osm_type": "primary", "osm_distance": 5.8713168557135802, "osm_lanes": 2.0, "osm_oneway": null, "osmid": 290018396.0 }, "geometry": { "type": "Point", "coordinates": [ 16.286390254659715, 48.136975098468554 ] } },
{ "type": "Feature", "properties": { "AADT": 4669.416666666667, "TR_AADT": 432.33333333333331, "AAWT": 5283.25, "TR_AAWT": 541.75, "raw_oneway": false, "raw_direction": null, "raw_name": "Endresstraße", "osm_name": "Endresstraße", "osm_type": "tertiary", "osm_distance": 0.57178496129206446, "osm_lanes": 2.0, "osm_oneway": null, "osmid": 33174885.0 }, "geometry": { "type": "Point", "coordinates": [ 16.271115557150921, 48.150457208692259 ] } },
{ "type": "Feature", "properties": { "AADT": 53705.083333333336, "TR_AADT": 4269.333333333333, "AAWT": 57138.166666666664, "TR_AAWT": 5340.833333333333, "raw_oneway": false, "raw_direction": null, "raw_name": "Währinger Gürtel Nord/Süd", "osm_name": null, "osm_type": null, "osm_distance": null, "osm_lanes": null, "osm_oneway": null, "osmid": null }, "geometry": { "type": "Point", "coordinates": [ 16.343505558817167, 48.220668372961939 ] } },
{ "type": "Feature", "properties": { "AADT": 8664.6666666666661, "TR_AADT": 1036.5833333333333, "AAWT": 10063.166666666666, "TR_AAWT": 1363.6666666666667, "raw_oneway": false, "raw_direction": null, "raw_name": "Himberger Str. II", "osm_name": "Himberger Straße", "osm_type": "primary", "osm_distance": 7.4484110057334139, "osm_lanes": 2.0, "osm_oneway": null, "osmid": 1044566775.0 }, "geometry": { "type": "Point", "coordinates": [ 16.38338813782649, 48.136833313436973 ] } },
{ "type": "Feature", "properties": { "AADT": 11698.0, "TR_AADT": 880.5, "AAWT": 13198.333333333334, "TR_AAWT": 1160.3333333333333, "raw_oneway": false, "raw_direction": null, "raw_name": "Breitenleer Straße II", "osm_name": "Breitenleer Straße", "osm_type": "secondary", "osm_distance": 0.091659548500032578, "osm_lanes": null, "osm_oneway": null, "osmid": 4898083.0 }, "geometry": { "type": "Point", "coordinates": [ 16.512593643458409, 48.250867904653383 ] } },
{ "type": "Feature", "properties": { "AADT": 12409.333333333334, "TR_AADT": 488.91666666666669, "AAWT": 13799.5, "TR_AAWT": 684.83333333333337, "raw_oneway": false, "raw_direction": null, "raw_name": "Seyringer Straße", "osm_name": "Seyringer Straße", "osm_type": "secondary", "osm_distance": 3.2545819096799256, "osm_lanes": 2.0, "osm_oneway": "False", "osmid": 404349427.0 }, "geometry": { "type": "Point", "coordinates": [ 16.457655754654876, 48.274640134001608 ] } },
{ "type": "Feature", "properties": { "AADT": 10740.666666666666, "TR_AADT": 223.5, "AAWT": 12208.166666666666, "TR_AAWT": 295.08333333333331, "raw_oneway": false, "raw_direction": null, "raw_name": "Taubstummengasse", "osm_name": "Favoritenstraße", "osm_type": "residential", "osm_distance": 2.1961873185063459, "osm_lanes": 1.0, "osm_oneway": "True", "osmid": 1318496604.0 }, "geometry": { "type": "Point", "coordinates": [ 16.369857947210054, 48.194713895759449 ] } },
{ "type": "Feature", "properties": { "AADT": 17904.333333333332, "TR_AADT": 833.25, "AAWT": 18994.25, "TR_AAWT": 1060.9166666666667, "raw_oneway": false, "raw_direction": null, "raw_name": "Ludwig-von-Höhnel-Gasse", "osm_name": "Fischhofgasse", "osm_type": "residential", "osm_distance": 1.2508230744286635, "osm_lanes": 1.0, "osm_oneway": null, "osmid": 504586377.0 }, "geometry": { "type": "Point", "coordinates": [ 16.387066991189783, 48.158949026028523 ] } },
{ "type": "Feature", "properties": { "AADT": 14217.166666666666, "TR_AADT": 487.58333333333331, "AAWT": 15200.416666666666, "TR_AAWT": 620.41666666666663, "raw_oneway": false, "raw_direction": null, "raw_name": "Felberstraße", "osm_name": "Felberstraße", "osm_type": "secondary", "osm_distance": 0.87270458347053126, "osm_lanes": 1.0, "osm_oneway": "True", "osmid": 38279772.0 }, "geometry": { "type": "Point", "coordinates": [ 16.334779878646248, 48.197304403121066 ] } }
]
}
