{
"type": "FeatureCollection",
"name": "Malmo_AADT_2020",
"crs": { "type": "name", "properties": { "name": "urn:ogc:def:crs:OGC:1.3:CRS84" } },
"features": [
{ "type": "Feature", "properties": { "AADT": 10900, "TR_pct_AADT": 9.0, "raw_name": "JÄGERSROVÄGEN", "raw_oneway": false, "osm_name": "Jägersrovägen", "osm_type": "tertiary", "osm_lanes": 2.0, "osm_oneway": null, "osm_distance": 0.41587226786065223, "osmid": 25045193.0 }, "geometry": { "type": "Point", "coordinates": [ 13.047697796550001, 55.574766537400009 ] } },
{ "type": "Feature", "properties": { "AADT": 300, "TR_pct_AADT": 5.0, "raw_name": "HALLSTORPSVÄGEN", "raw_oneway": false, "osm_name": "Hallstorpsvägen", "osm_type": "residential", "osm_lanes": null, "osm_oneway": null, "osm_distance": 1.3787154411051785, "osmid": 28329424.0 }, "geometry": { "type": "Point", "coordinates": [ 13.079643955649999, 55.588046353050004 ] } },
{ "type": "Feature", "properties": { "AADT": 33200, "TR_pct_AADT": 12.0, "raw_name": "YSTADVÄGEN", "raw_oneway": false, "osm_name": "Ystadsvägen", "osm_type": "motorway", "osm_lanes": 4.0, "osm_oneway": "True", "osm_distance": 4.7543317821530557, "osmid": 139648125.0 }, "geometry": { "type": "Point", "coordinates": [ 13.065463291900523, 55.563681534693544 ] } },
{ "type": "Feature", "properties": { "AADT": 300, "TR_pct_AADT": 5.0, "raw_name": "VIRENTOFTAGATAN", "raw_oneway": false, "osm_name": "Virentoftagatan", "osm_type": "residential", "osm_lanes": null, "osm_oneway": null, "osm_distance": 1.4762647011877452, "osmid": 28445151.0 }, "geometry": { "type": "Point", "coordinates": [ 13.0770205503, 55.589511047849996 ] } },
{ "type": "Feature", "properties": { "AADT": 13500, "TR_pct_AADT": 6.0, "raw_name": "LANTMANNAGATAN", "raw_oneway": false, "osm_name": "Lantmannagatan", "osm_type": "tertiary", "osm_lanes": 4.0, "osm_oneway": null, "osm_distance": 1.8383105035225131, "osmid": 226873730.0 }, "geometry": { "type": "Point", "coordinates": [ 13.01975331355, 55.580627380199999 ] } },
{ "type": "Feature", "properties": { "AADT": 8000, "TR_pct_AADT": 14.0, "raw_name": "GRIMSBYGATAN", "raw_oneway": false, "osm_name": "Grimsbygatan", "osm_type": "unclassified", "osm_lanes": null, "osm_oneway": null, "osm_distance": 0.16309605113419948, "osmid": 28480291.0 }, "geometry": { "type": "Point", "coordinates": [ 13.016255034450001, 55.613330232199999 ] } },
{ "type": "Feature", "properties": { "AADT": 2500, "TR_pct_AADT": 64.0, "raw_name": "RÅDMANSGATAN", "raw_oneway": false, "osm_name": "Rådmansgatan", "osm_type": "residential", "osm_lanes": null, "osm_oneway": null, "osm_distance": 1.7137892979063716, "osmid": 267133199.0 }, "geometry": { "type": "Point", "coordinates": [ 13.000170746950001, 55.592647423350002 ] } },
{ "type": "Feature", "properties": { "AADT": 15900, "TR_pct_AADT": 40.0, "raw_name": "SPILLEPENGSGATAN", "raw_oneway": false, "osm_name": "Spillepengsgatan", "osm_type": "tertiary", "osm_lanes": 2.0, "osm_oneway": "True", "osm_distance": 2.8142555264831959, "osmid": 148489995.0 }, "geometry": { "type": "Point", "coordinates": [ 13.049118059500001, 55.627542087649999 ] } },
{ "type": "Feature", "properties": { "AADT": 300, "TR_pct_AADT": 97.0, "raw_name": "PETRIBRON", "raw_oneway": false, "osm_name": "Petribron", "osm_type": "service", "osm_lanes": null, "osm_oneway": "True", "osm_distance": 0.51886348654131376, "osmid": 51078791.0 }, "geometry": { "type": "Point", "coordinates": [ 13.0021424381, 55.608399335149997 ] } },
{ "type": "Feature", "properties": { "AADT": 20800, "TR_pct_AADT": 16.0, "raw_name": "VÄSTKUSTVÄGEN", "raw_oneway": false, "osm_name": "Västkustvägen", "osm_type": "secondary", "osm_lanes": 2.0, "osm_oneway": "True", "osm_distance": 3.8120538606016141, "osmid": 336651635.0 }, "geometry": { "type": "Point", "coordinates": [ 13.045659837109664, 55.622344506652169 ] } },
{ "type": "Feature", "properties": { "AADT": 1200, "TR_pct_AADT": 6.0, "raw_name": "HOHÖGSGATAN", "raw_oneway": false, "osm_name": "Hohögsgatan", "osm_type": "residential", "osm_lanes": null, "osm_oneway": "False", "osm_distance": 0.79986219803115777, "osmid": 140064380.0 }, "geometry": { "type": "Point", "coordinates": [ 13.075875490400003, 55.589602136350003 ] } },
{ "type": "Feature", "properties": { "AADT": 6400, "TR_pct_AADT": 12.0, "raw_name": "CARLSGATAN", "raw_oneway": false, "osm_name": "Carlsgatan", "osm_type": "tertiary", "osm_lanes": 2.0, "osm_oneway": "True", "osm_distance": 2.8350774617949464, "osmid": 454355687.0 }, "geometry": { "type": "Point", "coordinates": [ 12.999757318058734, 55.610499727623186 ] } },
{ "type": "Feature", "properties": { "AADT": 1000, "TR_pct_AADT": 9.0, "raw_name": "ROSKILDEVÄGEN", "raw_oneway": false, "osm_name": "Roskildevägen", "osm_type": "residential", "osm_lanes": null, "osm_oneway": null, "osm_distance": 0.92459121088113394, "osmid": 1131143197.0 }, "geometry": { "type": "Point", "coordinates": [ 12.99329103545, 55.594927806400001 ] } },
{ "type": "Feature", "properties": { "AADT": 9500, "TR_pct_AADT": 7.0, "raw_name": "ÖSTRA RÖNNEHOLMSVÄGEN", "raw_oneway": false, "osm_name": "Östra Rönneholmsvägen", "osm_type": "tertiary", "osm_lanes": null, "osm_oneway": null, "osm_distance": 1.6015802018023888, "osmid": 24161676.0 }, "geometry": { "type": "Point", "coordinates": [ 12.992437227900002, 55.596250636549996 ] } },
{ "type": "Feature", "properties": { "AADT": 100, "TR_pct_AADT": 33.0, "raw_name": "FRIISGATAN", "raw_oneway": false, "osm_name": null, "osm_type": null, "osm_lanes": null, "osm_oneway": null, "osm_distance": null, "osmid": null }, "geometry": { "type": "Point", "coordinates": [ 13.004404294499999, 55.594894923300004 ] } },
{ "type": "Feature", "properties": { "AADT": 21100, "TR_pct_AADT": 10.0, "raw_name": "SALLERUPSVÄGEN", "raw_oneway": false, "osm_name": "Sallerupsvägen", "osm_type": "secondary", "osm_lanes": 2.0, "osm_oneway": "True", "osm_distance": 4.6151009914398049, "osmid": 37005547.0 }, "geometry": { "type": "Point", "coordinates": [ 13.047199861046334, 55.598409116438305 ] } },
{ "type": "Feature", "properties": { "AADT": 12900, "TR_pct_AADT": 16.0, "raw_name": "KLAFFBRON", "raw_oneway": false, "osm_name": "Klaffbron", "osm_type": "tertiary", "osm_lanes": 2.0, "osm_oneway": null, "osm_distance": 0.12995624948167714, "osmid": 10608574.0 }, "geometry": { "type": "Point", "coordinates": [ 12.9936359581, 55.612609082550001 ] } },
{ "type": "Feature", "properties": { "AADT": 700, "TR_pct_AADT": 3.0, "raw_name": "STENKÄLLEVÄGEN", "raw_oneway": false, "osm_name": "Stenkällevägen", "osm_type": "residential", "osm_lanes": null, "osm_oneway": null, "osm_distance": 0.35710662890117051, "osmid": 45172187.0 }, "geometry": { "type": "Point", "coordinates": [ 13.074034871550001, 55.589926977450006 ] } },
{ "type": "Feature", "properties": { "AADT": 200, "TR_pct_AADT": 58.0, "raw_name": "ÄNGELHOLMSGATAN", "raw_oneway": false, "osm_name": "Kristianstadsgatan", "osm_type": "residential", "osm_lanes": null, "osm_oneway": null, "osm_distance": 10.252542011049758, "osmid": 106948171.0 }, "geometry": { "type": "Point", "coordinates": [ 13.008846448550001, 55.592219079050004 ] } },
{ "type": "Feature", "properties": { "AADT": 14300, "TR_pct_AADT": 6.0, "raw_name": "GOTTORPSVÄGEN", "raw_oneway": false, "osm_name": "Gottorpsvägen", "osm_type": "tertiary", "osm_lanes": null, "osm_oneway": null, "osm_distance": 0.0059518216014169383, "osmid": 25046574.0 }, "geometry": { "type": "Point", "coordinates": [ 12.943134171250001, 55.557169984950008 ] } },
{ "type": "Feature", "properties": { "AADT": 23200, "TR_pct_AADT": 7.0, "raw_name": "TRELLEBORGSVÄGEN", "raw_oneway": false, "osm_name": "Trelleborgsvägen", "osm_type": "motorway", "osm_lanes": 2.0, "osm_oneway": "True", "osm_distance": 9.3920712276984499, "osmid": 301813861.0 }, "geometry": { "type": "Point", "coordinates": [ 13.004056460890293, 55.570363788217655 ] } },
{ "type": "Feature", "properties": { "AADT": 3600, "TR_pct_AADT": 9.0, "raw_name": "TYGELSJÖVÄGEN", "raw_oneway": false, "osm_name": "Tygelsjövägen", "osm_type": "secondary", "osm_lanes": null, "osm_oneway": null, "osm_distance": 0.24312459732614675, "osmid": 167053594.0 }, "geometry": { "type": "Point", "coordinates": [ 12.995270597400001, 55.511652992599998 ] } },
{ "type": "Feature", "properties": { "AADT": 10700, "TR_pct_AADT": 8.0, "raw_name": "ANNETORPSVÄGEN", "raw_oneway": false, "osm_name": "Annetorpsvägen", "osm_type": "secondary", "osm_lanes": 1.0, "osm_oneway": "True", "osm_distance": 0.82448369107230224, "osmid": 163836966.0 }, "geometry": { "type": "Point", "coordinates": [ 12.928398404699999, 55.573804966499999 ] } },
{ "type": "Feature", "properties": { "AADT": 2900, "TR_pct_AADT": 62.0, "raw_name": "MORESCOBRON", "raw_oneway": false, "osm_name": "Torggatan", "osm_type": "residential", "osm_lanes": null, "osm_oneway": null, "osm_distance": 1.6883961065541357, "osmid": 38093050.0 }, "geometry": { "type": "Point", "coordinates": [ 12.999414531949999, 55.601021225500006 ] } },
{ "type": "Feature", "properties": { "AADT": 17500, "TR_pct_AADT": 10.0, "raw_name": "PILDAMMSVÄGEN", "raw_oneway": false, "osm_name": "Pildammsvägen", "osm_type": "secondary", "osm_lanes": 4.0, "osm_oneway": null, "osm_distance": 1.3983411748839838, "osmid": 139667343.0 }, "geometry": { "type": "Point", "coordinates": [ 12.99763762485, 55.593014646149996 ] } },
{ "type": "Feature", "properties": { "AADT": 10700, "TR_pct_AADT": 13.0, "raw_name": "NORRA VALLGATAN", "raw_oneway": false, "osm_name": "Norra Vallgatan", "osm_type": "secondary", "osm_lanes": 2.0, "osm_oneway": "True", "osm_distance": 2.3876774060116306, "osmid": 189255257.0 }, "geometry": { "type": "Point", "coordinates": [ 12.996932588, 55.60706056635 ] } },
{ "type": "Feature", "properties": { "AADT": 900, "TR_pct_AADT": 5.0, "raw_name": "HOHÖGSGATAN", "raw_oneway": false, "osm_name": "Hohögsgatan", "osm_type": "residential", "osm_lanes": null, "osm_oneway": null, "osm_distance": 1.1983687960776568, "osmid": 49327299.0 }, "geometry": { "type": "Point", "coordinates": [ 13.077612610300001, 55.5889833186 ] } },
{ "type": "Feature", "properties": { "AADT": 6600, "TR_pct_AADT": 10.0, "raw_name": "ÖSTRA FARMVÄGEN", "raw_oneway": false, "osm_name": "Östra Farmvägen", "osm_type": "tertiary", "osm_lanes": 2.0, "osm_oneway": null, "osm_distance": 1.3833825593515929, "osmid": 159090936.0 }, "geometry": { "type": "Point", "coordinates": [ 13.027693686900001, 55.591302000500001 ] } },
{ "type": "Feature", "properties": { "AADT": 14500, "TR_pct_AADT": 7.0, "raw_name": "ÄRTHOLMSVÄGEN", "raw_oneway": false, "osm_name": "Ärtholmsvägen", "osm_type": "tertiary", "osm_lanes": null, "osm_oneway": null, "osm_distance": 0.13015067476442663, "osmid": 269074345.0 }, "geometry": { "type": "Point", "coordinates": [ 12.98996623805, 55.575554539099997 ] } },
{ "type": "Feature", "properties": { "AADT": 6600, "TR_pct_AADT": 7.0, "raw_name": "INDUSTRIGATAN", "raw_oneway": false, "osm_name": "Industrigatan", "osm_type": "unclassified", "osm_lanes": null, "osm_oneway": null, "osm_distance": 0.33432803247606524, "osmid": 18880291.0 }, "geometry": { "type": "Point", "coordinates": [ 13.02415126985, 55.599661818100003 ] } },
{ "type": "Feature", "properties": { "AADT": 6200, "TR_pct_AADT": 6.0, "raw_name": "BELLEVUEVÄGEN", "raw_oneway": false, "osm_name": "Bellevuevägen", "osm_type": "tertiary", "osm_lanes": 2.0, "osm_oneway": null, "osm_distance": 0.80585198683814363, "osmid": 586404109.0 }, "geometry": { "type": "Point", "coordinates": [ 12.97220861155, 55.592076266399999 ] } },
{ "type": "Feature", "properties": { "AADT": 10600, "TR_pct_AADT": 9.0, "raw_name": "ERIKSFÄLTSGATAN", "raw_oneway": false, "osm_name": "Eriksfältsgatan", "osm_type": "tertiary", "osm_lanes": 1.0, "osm_oneway": "True", "osm_distance": 8.5232313750266222, "osmid": 28550681.0 }, "geometry": { "type": "Point", "coordinates": [ 13.021573443899999, 55.5650069852 ] } },
{ "type": "Feature", "properties": { "AADT": 12900, "TR_pct_AADT": 10.0, "raw_name": "FÖRENINGSGATAN", "raw_oneway": false, "osm_name": "Föreningsgatan", "osm_type": "tertiary", "osm_lanes": null, "osm_oneway": "True", "osm_distance": 3.1713518643982965, "osmid": 36990281.0 }, "geometry": { "type": "Point", "coordinates": [ 13.009595885414722, 55.599435959985271 ] } },
{ "type": "Feature", "properties": { "AADT": 12700, "TR_pct_AADT": 7.0, "raw_name": "HANS MICHELSENSGATAN", "raw_oneway": false, "osm_name": "Stora Varvsgatan", "osm_type": "tertiary", "osm_lanes": 1.0, "osm_oneway": "True", "osm_distance": 0.082863096899550584, "osmid": 24540667.0 }, "geometry": { "type": "Point", "coordinates": [ 12.99787910225, 55.612447390949995 ] } },
{ "type": "Feature", "properties": { "AADT": 14200, "TR_pct_AADT": 9.0, "raw_name": "DROTTNINGGATAN", "raw_oneway": false, "osm_name": "Drottninggatan", "osm_type": "secondary", "osm_lanes": 2.0, "osm_oneway": "True", "osm_distance": 5.4880556083625232, "osmid": 136773633.0 }, "geometry": { "type": "Point", "coordinates": [ 13.020677006460412, 55.607038804149894 ] } },
{ "type": "Feature", "properties": { "AADT": 26400, "TR_pct_AADT": 8.0, "raw_name": "HORNSGATAN", "raw_oneway": false, "osm_name": "Hornsgatan", "osm_type": "secondary", "osm_lanes": 3.0, "osm_oneway": "True", "osm_distance": 2.570126395876033, "osmid": 136773630.0 }, "geometry": { "type": "Point", "coordinates": [ 13.024518587142785, 55.608382668949368 ] } },
{ "type": "Feature", "properties": { "AADT": 4300, "TR_pct_AADT": 21.0, "raw_name": "MÄLARBRON", "raw_oneway": false, "osm_name": "Skeppsbron", "osm_type": "tertiary", "osm_lanes": 4.0, "osm_oneway": null, "osm_distance": 0.20615562514072944, "osmid": 28290415.0 }, "geometry": { "type": "Point", "coordinates": [ 12.999360296, 55.608082043799996 ] } },
{ "type": "Feature", "properties": { "AADT": 10200, "TR_pct_AADT": 11.0, "raw_name": "ARRIEVÄGEN", "raw_oneway": false, "osm_name": "Arrievägen", "osm_type": "secondary", "osm_lanes": 2.0, "osm_oneway": null, "osm_distance": 0.75304806842554572, "osmid": 28550709.0 }, "geometry": { "type": "Point", "coordinates": [ 13.027215397199999, 55.558338016600004 ] } },
{ "type": "Feature", "properties": { "AADT": 6800, "TR_pct_AADT": 6.0, "raw_name": "KALKBROTTSGATAN", "raw_oneway": false, "osm_name": "Kalkbrottsgatan", "osm_type": "tertiary", "osm_lanes": null, "osm_oneway": null, "osm_distance": 1.2086095381245037, "osmid": 1237797432.0 }, "geometry": { "type": "Point", "coordinates": [ 12.920963730399999, 55.565875512649995 ] } },
{ "type": "Feature", "properties": { "AADT": 11500, "TR_pct_AADT": 14.0, "raw_name": "AMIRALSBRON", "raw_oneway": false, "osm_name": "Amiralsbron", "osm_type": "residential", "osm_lanes": 5.0, "osm_oneway": null, "osm_distance": 0.54566107496120064, "osmid": 22948224.0 }, "geometry": { "type": "Point", "coordinates": [ 13.00550007665, 55.602366561750003 ] } },
{ "type": "Feature", "properties": { "AADT": 6100, "TR_pct_AADT": 11.0, "raw_name": "SCHOUGENS BRO", "raw_oneway": false, "osm_name": "Schougens bro", "osm_type": "residential", "osm_lanes": null, "osm_oneway": null, "osm_distance": 0.1827989633083581, "osmid": 28302709.0 }, "geometry": { "type": "Point", "coordinates": [ 13.013208908199999, 55.608094347250002 ] } },
{ "type": "Feature", "properties": { "AADT": 13400, "TR_pct_AADT": 6.0, "raw_name": "STADIONGATAN", "raw_oneway": false, "osm_name": "Stadiongatan", "osm_type": "secondary", "osm_lanes": 2.0, "osm_oneway": null, "osm_distance": 0.15830637858281571, "osmid": 35261314.0 }, "geometry": { "type": "Point", "coordinates": [ 12.99450962615, 55.580313251450001 ] } },
{ "type": "Feature", "properties": { "AADT": 11500, "TR_pct_AADT": 13.0, "raw_name": "VATTENVERKSVÄGEN", "raw_oneway": false, "osm_name": "Vattenverksvägen", "osm_type": "tertiary", "osm_lanes": 2.0, "osm_oneway": null, "osm_distance": 0.17397979167307584, "osmid": 270124690.0 }, "geometry": { "type": "Point", "coordinates": [ 13.064457039800001, 55.609901579750002 ] } },
{ "type": "Feature", "properties": { "AADT": 800, "TR_pct_AADT": 5.0, "raw_name": "SORGENFRIVÄGEN", "raw_oneway": false, "osm_name": "Sorgenfrivägen", "osm_type": "residential", "osm_lanes": null, "osm_oneway": "True", "osm_distance": 1.4419651893583008, "osmid": 37183737.0 }, "geometry": { "type": "Point", "coordinates": [ 13.022197461299999, 55.596324141650001 ] } },
{ "type": "Feature", "properties": { "AADT": 16300, "TR_pct_AADT": 6.0, "raw_name": "LORENSBORGSGATAN", "raw_oneway": false, "osm_name": "Lorensborgsgatan", "osm_type": "secondary", "osm_lanes": 2.0, "osm_oneway": "True", "osm_distance": 9.3337400733470179, "osmid": 30070610.0 }, "geometry": { "type": "Point", "coordinates": [ 12.968936905231866, 55.567701759764617 ] } },
{ "type": "Feature", "properties": { "AADT": 400, "TR_pct_AADT": 5.0, "raw_name": "HALLSTORPSVÄGEN", "raw_oneway": false, "osm_name": "Hallstorpsvägen", "osm_type": "residential", "osm_lanes": null, "osm_oneway": null, "osm_distance": 2.6557091226777341, "osmid": 28329424.0 }, "geometry": { "type": "Point", "coordinates": [ 13.079539813749999, 55.5885922521 ] } },
{ "type": "Feature", "properties": { "AADT": 2500, "TR_pct_AADT": 6.0, "raw_name": "PAULIBRON", "raw_oneway": false, "osm_name": "Paulibron", "osm_type": "residential", "osm_lanes": null, "osm_oneway": null, "osm_distance": 0.35284565753411135, "osmid": 28289456.0 }, "geometry": { "type": "Point", "coordinates": [ 13.0106022126, 55.604047157 ] } },
{ "type": "Feature", "properties": { "AADT": 3900, "TR_pct_AADT": 9.0, "raw_name": "PER ALBIN HANSSONS VÄG", "raw_oneway": false, "osm_name": "Per Albin Hanssons väg", "osm_type": "tertiary", "osm_lanes": null, "osm_oneway": null, "osm_distance": 0.039467789582145578, "osmid": 223813943.0 }, "geometry": { "type": "Point", "coordinates": [ 12.99562217035, 55.566367158700004 ] } },
{ "type": "Feature", "properties": { "AADT": 30600, "TR_pct_AADT": 8.0, "raw_name": "STOCKHOLMSVÄGEN", "raw_oneway": false, "osm_name": "Stockholmsvägen", "osm_type": "motorway", "osm_lanes": 2.0, "osm_oneway": "True", "osm_distance": 2.8037964857883688, "osmid": 4453820.0 }, "geometry": { "type": "Point", "coordinates": [ 13.029035116199999, 55.609709006249993 ] } },
{ "type": "Feature", "properties": { "AADT": 14600, "TR_pct_AADT": 13.0, "raw_name": "SÖDRA FÖRSTADSGATAN", "raw_oneway": false, "osm_name": "Södra Förstadsgatan", "osm_type": "tertiary", "osm_lanes": 2.0, "osm_oneway": "True", "osm_distance": 3.1831394035651162, "osmid": 268468398.0 }, "geometry": { "type": "Point", "coordinates": [ 13.005890020561321, 55.585102132994173 ] } },
{ "type": "Feature", "properties": { "AADT": 13500, "TR_pct_AADT": 8.0, "raw_name": "REGEMENTSGATAN", "raw_oneway": false, "osm_name": "Regementsgatan", "osm_type": "secondary", "osm_lanes": 2.0, "osm_oneway": "True", "osm_distance": 2.4422573511901589, "osmid": 23654462.0 }, "geometry": { "type": "Point", "coordinates": [ 12.994335684599998, 55.600124577949998 ] } },
{ "type": "Feature", "properties": { "AADT": 13900, "TR_pct_AADT": 9.0, "raw_name": "LÖNNGATAN", "raw_oneway": false, "osm_name": "Lönngatan", "osm_type": "tertiary", "osm_lanes": 2.0, "osm_oneway": null, "osm_distance": 0.74146816182721009, "osmid": 1196741311.0 }, "geometry": { "type": "Point", "coordinates": [ 13.0263823871, 55.581443104599998 ] } },
{ "type": "Feature", "properties": { "AADT": 100, "TR_pct_AADT": 26.0, "raw_name": "KÄRLEKSGATAN", "raw_oneway": false, "osm_name": "Kärleksgatan", "osm_type": "residential", "osm_lanes": null, "osm_oneway": null, "osm_distance": 0.27935889007249648, "osmid": 29067890.0 }, "geometry": { "type": "Point", "coordinates": [ 13.000171553400001, 55.599058412700003 ] } },
{ "type": "Feature", "properties": { "AADT": 7200, "TR_pct_AADT": 5.0, "raw_name": "CARL GUSTAFS VÄG", "raw_oneway": false, "osm_name": "Carl Gustafs väg", "osm_type": "tertiary", "osm_lanes": 2.0, "osm_oneway": null, "osm_distance": 0.51037265495547801, "osmid": 139667349.0 }, "geometry": { "type": "Point", "coordinates": [ 12.996703211749999, 55.592663209400001 ] } },
{ "type": "Feature", "properties": { "AADT": 14800, "TR_pct_AADT": 8.0, "raw_name": "MARIEDALSVÄGEN", "raw_oneway": false, "osm_name": "Mariedalsvägen", "osm_type": "secondary", "osm_lanes": 2.0, "osm_oneway": null, "osm_distance": 1.1812181958161918, "osmid": 23654581.0 }, "geometry": { "type": "Point", "coordinates": [ 12.983536191900001, 55.589639782299997 ] } },
{ "type": "Feature", "properties": { "AADT": 600, "TR_pct_AADT": 5.0, "raw_name": "RONNEBYGATAN", "raw_oneway": false, "osm_name": "Ronnebygatan", "osm_type": "residential", "osm_lanes": null, "osm_oneway": null, "osm_distance": 0.55822463465495087, "osmid": 37061885.0 }, "geometry": { "type": "Point", "coordinates": [ 13.020018770650001, 55.593818351850004 ] } },
{ "type": "Feature", "properties": { "AADT": 12600, "TR_pct_AADT": 14.0, "raw_name": "LUNDAVÄGEN", "raw_oneway": false, "osm_name": "Lundavägen", "osm_type": "secondary", "osm_lanes": 1.0, "osm_oneway": "True", "osm_distance": 3.433899206859071, "osmid": 139768835.0 }, "geometry": { "type": "Point", "coordinates": [ 13.032313069879649, 55.609517045440107 ] } },
{ "type": "Feature", "properties": { "AADT": 4600, "TR_pct_AADT": 6.0, "raw_name": "YSTADSGATAN", "raw_oneway": false, "osm_name": "Ystadsgatan", "osm_type": "residential", "osm_lanes": null, "osm_oneway": null, "osm_distance": 1.1612179816551231, "osmid": 1304052811.0 }, "geometry": { "type": "Point", "coordinates": [ 13.0145285071, 55.590051506 ] } },
{ "type": "Feature", "properties": { "AADT": 10800, "TR_pct_AADT": 7.0, "raw_name": "JOHN ERICSSONS VÄG", "raw_oneway": false, "osm_name": "John Ericssons väg", "osm_type": "secondary", "osm_lanes": 2.0, "osm_oneway": "True", "osm_distance": 2.6360363731499481, "osmid": 28552877.0 }, "geometry": { "type": "Point", "coordinates": [ 12.997246507166697, 55.586467247599302 ] } },
{ "type": "Feature", "properties": { "AADT": 6600, "TR_pct_AADT": 9.0, "raw_name": "EXERCISGATAN", "raw_oneway": false, "osm_name": "Exercisgatan", "osm_type": "residential", "osm_lanes": 2.0, "osm_oneway": null, "osm_distance": 0.53085625250696311, "osmid": 334672927.0 }, "geometry": { "type": "Point", "coordinates": [ 13.01375847035, 55.608351495450002 ] } },
{ "type": "Feature", "properties": { "AADT": 9000, "TR_pct_AADT": 12.0, "raw_name": "NEPTUNIBRON", "raw_oneway": false, "osm_name": "Neptunigatan", "osm_type": "tertiary", "osm_lanes": null, "osm_oneway": "True", "osm_distance": 3.9480498269472286, "osmid": 694011976.0 }, "geometry": { "type": "Point", "coordinates": [ 12.984985314672166, 55.60745705082396 ] } },
{ "type": "Feature", "properties": { "AADT": 9200, "TR_pct_AADT": 9.0, "raw_name": "LIMHAMNSVÄGEN", "raw_oneway": false, "osm_name": "Limhamnsvägen", "osm_type": "secondary", "osm_lanes": 2.0, "osm_oneway": null, "osm_distance": 0.32682544397206004, "osmid": 40530482.0 }, "geometry": { "type": "Point", "coordinates": [ 12.956499766649999, 55.59714638965 ] } },
{ "type": "Feature", "properties": { "AADT": 300, "TR_pct_AADT": 3.0, "raw_name": "VIRENTOFTAGATAN", "raw_oneway": false, "osm_name": "Virentoftagatan", "osm_type": "residential", "osm_lanes": null, "osm_oneway": null, "osm_distance": 1.4625905018091809, "osmid": 28445151.0 }, "geometry": { "type": "Point", "coordinates": [ 13.076618537, 55.588953402499989 ] } },
{ "type": "Feature", "properties": { "AADT": 11800, "TR_pct_AADT": 8.0, "raw_name": "SCHEELEGATAN", "raw_oneway": false, "osm_name": "Scheelegatan", "osm_type": "unclassified", "osm_lanes": 2.0, "osm_oneway": null, "osm_distance": 1.009980185854005, "osmid": 37002397.0 }, "geometry": { "type": "Point", "coordinates": [ 13.03679742485, 55.589375620250003 ] } },
{ "type": "Feature", "properties": { "AADT": 16100, "TR_pct_AADT": 9.0, "raw_name": "NOBELVÄGEN", "raw_oneway": false, "osm_name": "Nobelvägen", "osm_type": "secondary", "osm_lanes": 2.0, "osm_oneway": "True", "osm_distance": 3.930704126473842, "osmid": 389936833.0 }, "geometry": { "type": "Point", "coordinates": [ 13.019865904850001, 55.592805524200003 ] } },
{ "type": "Feature", "properties": { "AADT": 7600, "TR_pct_AADT": 17.0, "raw_name": "SALLERUPSVÄGEN", "raw_oneway": false, "osm_name": "Sallerupsvägen", "osm_type": "tertiary", "osm_lanes": null, "osm_oneway": "True", "osm_distance": 3.0944327381309171, "osmid": 232075235.0 }, "geometry": { "type": "Point", "coordinates": [ 13.02690375465, 55.604107766 ] } },
{ "type": "Feature", "properties": { "AADT": 8600, "TR_pct_AADT": 11.0, "raw_name": "ERIKSLUSTVÄGEN", "raw_oneway": false, "osm_name": "Erikslustvägen", "osm_type": "tertiary", "osm_lanes": null, "osm_oneway": "True", "osm_distance": 3.4612534177504299, "osmid": 30626843.0 }, "geometry": { "type": "Point", "coordinates": [ 12.966757991958355, 55.59454994422066 ] } },
{ "type": "Feature", "properties": { "AADT": 36300, "TR_pct_AADT": 7.0, "raw_name": "ANNETORPSVÄGEN", "raw_oneway": false, "osm_name": "Annetorpsvägen", "osm_type": "primary", "osm_lanes": 2.0, "osm_oneway": "True", "osm_distance": 4.4906188004543628, "osmid": 386834371.0 }, "geometry": { "type": "Point", "coordinates": [ 12.980760713599999, 55.568178951249998 ] } },
{ "type": "Feature", "properties": { "AADT": 10500, "TR_pct_AADT": 14.0, "raw_name": "SLUSSBRON", "raw_oneway": false, "osm_name": "Slussbron", "osm_type": "secondary", "osm_lanes": null, "osm_oneway": null, "osm_distance": 0.02249239096814306, "osmid": 27647130.0 }, "geometry": { "type": "Point", "coordinates": [ 13.01274446955, 55.60918549825 ] } },
{ "type": "Feature", "properties": { "AADT": 24700, "TR_pct_AADT": 9.0, "raw_name": "AMIRALSGATAN", "raw_oneway": false, "osm_name": null, "osm_type": null, "osm_lanes": null, "osm_oneway": null, "osm_distance": null, "osmid": null }, "geometry": { "type": "Point", "coordinates": [ 13.051825465068905, 55.583846503382631 ] } },
{ "type": "Feature", "properties": { "AADT": 10700, "TR_pct_AADT": 9.0, "raw_name": "THOMSONS VÄG", "raw_oneway": false, "osm_name": "Thomsons väg", "osm_type": "residential", "osm_lanes": 1.0, "osm_oneway": "True", "osm_distance": 1.5495970344019512, "osmid": 28665278.0 }, "geometry": { "type": "Point", "coordinates": [ 13.054355171488478, 55.58338593984621 ] } },
{ "type": "Feature", "properties": { "AADT": 11700, "TR_pct_AADT": 10.0, "raw_name": "FERSENS BRO", "raw_oneway": false, "osm_name": "Fersens bro", "osm_type": "secondary", "osm_lanes": 3.0, "osm_oneway": null, "osm_distance": 2.112141828075508, "osmid": 28302737.0 }, "geometry": { "type": "Point", "coordinates": [ 12.9951989627, 55.601650036550005 ] } },
{ "type": "Feature", "properties": { "AADT": 8200, "TR_pct_AADT": 11.0, "raw_name": "SKEPPSBYGGAREGATAN", "raw_oneway": false, "osm_name": "Skeppsgatan", "osm_type": "tertiary", "osm_lanes": null, "osm_oneway": "False", "osm_distance": 2.3160893221517767, "osmid": 693562016.0 }, "geometry": { "type": "Point", "coordinates": [ 12.983681922900001, 55.606433389900005 ] } },
{ "type": "Feature", "properties": { "AADT": 10400, "TR_pct_AADT": 7.0, "raw_name": "VARVSBRON", "raw_oneway": false, "osm_name": "Västra Varvsgatan", "osm_type": "tertiary", "osm_lanes": 2.0, "osm_oneway": null, "osm_distance": 0.23975715187069732, "osmid": 28289463.0 }, "geometry": { "type": "Point", "coordinates": [ 12.9789920839, 55.605873356849997 ] } },
{ "type": "Feature", "properties": { "AADT": 2000, "TR_pct_AADT": 6.0, "raw_name": "SLOTTSBRON", "raw_oneway": false, "osm_name": "Malmöhusvägen", "osm_type": "unclassified", "osm_lanes": null, "osm_oneway": null, "osm_distance": 0.19835268956969687, "osmid": 28289459.0 }, "geometry": { "type": "Point", "coordinates": [ 12.99018846055, 55.605199097700002 ] } },
{ "type": "Feature", "properties": { "AADT": 5500, "TR_pct_AADT": 17.0, "raw_name": "ÄLVSBORGSBRON", "raw_oneway": false, "osm_name": "Älvsborgsbron", "osm_type": "tertiary", "osm_lanes": 3.0, "osm_oneway": null, "osm_distance": 1.478546976884306, "osmid": 28302746.0 }, "geometry": { "type": "Point", "coordinates": [ 12.9960990935, 55.607285621850004 ] } },
{ "type": "Feature", "properties": { "AADT": 1800, "TR_pct_AADT": 4.0, "raw_name": "HOHÖGSGATAN", "raw_oneway": false, "osm_name": "Hohögsgatan", "osm_type": "residential", "osm_lanes": null, "osm_oneway": "False", "osm_distance": 0.62486309200920043, "osmid": 140064380.0 }, "geometry": { "type": "Point", "coordinates": [ 13.072456275299999, 55.590806076500002 ] } },
{ "type": "Feature", "properties": { "AADT": 21500, "TR_pct_AADT": 14.0, "raw_name": "TRELLEBORGSVÄGEN", "raw_oneway": false, "osm_name": null, "osm_type": "motorway", "osm_lanes": 2.0, "osm_oneway": "True", "osm_distance": 8.8512301193488803, "osmid": 365604432.0 }, "geometry": { "type": "Point", "coordinates": [ 13.008610598465022, 55.522554446573814 ] } },
{ "type": "Feature", "properties": { "AADT": 5700, "TR_pct_AADT": 5.0, "raw_name": "KÖPENHAMNSVÄGEN", "raw_oneway": false, "osm_name": "Köpenhamnsvägen", "osm_type": "tertiary", "osm_lanes": null, "osm_oneway": null, "osm_distance": 0.13795961055281875, "osmid": 139640935.0 }, "geometry": { "type": "Point", "coordinates": [ 12.9717946292, 55.593624078449999 ] } },
{ "type": "Feature", "properties": { "AADT": 4800, "TR_pct_AADT": 19.0, "raw_name": "NORDENSKIÖLDSGATAN", "raw_oneway": false, "osm_name": "Nordenskiöldsgatan", "osm_type": "tertiary", "osm_lanes": 2.0, "osm_oneway": "False", "osm_distance": 1.0487873468169218, "osmid": 249172731.0 }, "geometry": { "type": "Point", "coordinates": [ 12.994594893, 55.611847959550005 ] } },
{ "type": "Feature", "properties": { "AADT": 12600, "TR_pct_AADT": 14.0, "raw_name": "AMIRALSGATAN", "raw_oneway": false, "osm_name": "Amiralsgatan", "osm_type": "secondary", "osm_lanes": 4.0, "osm_oneway": null, "osm_distance": 0.086118994111411884, "osmid": 295558467.0 }, "geometry": { "type": "Point", "coordinates": [ 13.0186087695, 55.5929928921 ] } }
]
}
