{
"type": "FeatureCollection",
"name": "Malmo_AADT_2023",
"crs": { "type": "name", "properties": { "name": "urn:ogc:def:crs:OGC:1.3:CRS84" } },
"features": [
{ "type": "Feature", "properties": { "AADT": 2900, "TR_pct_AADT": 5.0, "raw_name": "BANGATAN", "raw_oneway": false, "osm_name": "Bangatan", "osm_type": "residential", "osm_lanes": null, "osm_oneway": null, "osm_distance": 1.5161553601390076, "osmid": 28414988.0 }, "geometry": { "type": "Point", "coordinates": [ 13.009080413700001, 55.588360664700005 ] } },
{ "type": "Feature", "properties": { "AADT": 10200, "TR_pct_AADT": 12.0, "raw_name": "ERIKSFÄLTSGATAN", "raw_oneway": false, "osm_name": "Eriksfältsgatan", "osm_type": "tertiary", "osm_lanes": 1.0, "osm_oneway": "True", "osm_distance": 8.5232313750266222, "osmid": 28550681.0 }, "geometry": { "type": "Point", "coordinates": [ 13.021573443899999, 55.5650069852 ] } },
{ "type": "Feature", "properties": { "AADT": 11500, "TR_pct_AADT": 12.0, "raw_name": "AGNESFRIDSVÄGEN", "raw_oneway": false, "osm_name": "Agnesfridsvägen", "osm_type": "secondary", "osm_lanes": null, "osm_oneway": null, "osm_distance": 0.01870777698868601, "osmid": 1141987979.0 }, "geometry": { "type": "Point", "coordinates": [ 13.0356531514, 55.560361472099999 ] } },
{ "type": "Feature", "properties": { "AADT": 7300, "TR_pct_AADT": 14.0, "raw_name": "SJÖLUNDAVIADUKTEN", "raw_oneway": false, "osm_name": "Sjölundaviadukten", "osm_type": "tertiary", "osm_lanes": null, "osm_oneway": "True", "osm_distance": 0.59313063869442328, "osmid": 24988943.0 }, "geometry": { "type": "Point", "coordinates": [ 13.040664122300001, 55.616221131899998 ] } },
{ "type": "Feature", "properties": { "AADT": 22900, "TR_pct_AADT": 10.0, "raw_name": "TRELLEBORGSVÄGEN", "raw_oneway": false, "osm_name": "Trelleborgsvägen", "osm_type": "motorway", "osm_lanes": 2.0, "osm_oneway": "True", "osm_distance": 9.226456949214235, "osmid": 1012861406.0 }, "geometry": { "type": "Point", "coordinates": [ 13.000769523674791, 55.550774745309639 ] } },
{ "type": "Feature", "properties": { "AADT": 1700, "TR_pct_AADT": 6.0, "raw_name": "DISPONENTGATAN", "raw_oneway": false, "osm_name": "Disponentgatan", "osm_type": "residential", "osm_lanes": null, "osm_oneway": null, "osm_distance": 0.80254789730483744, "osmid": 1131143200.0 }, "geometry": { "type": "Point", "coordinates": [ 13.012578973249999, 55.600051733 ] } },
{ "type": "Feature", "properties": { "AADT": 9900, "TR_pct_AADT": 11.0, "raw_name": "BRONSÅLDERSGATAN", "raw_oneway": false, "osm_name": "Bronsåldersgatan", "osm_type": "unclassified", "osm_lanes": 2.0, "osm_oneway": null, "osm_distance": 0.0029807272664482483, "osmid": 28766904.0 }, "geometry": { "type": "Point", "coordinates": [ 13.032983542600002, 55.551411073349996 ] } },
{ "type": "Feature", "properties": { "AADT": 2500, "TR_pct_AADT": 69.0, "raw_name": "RÅDMANSGATAN", "raw_oneway": false, "osm_name": "Rådmansgatan", "osm_type": "residential", "osm_lanes": null, "osm_oneway": null, "osm_distance": 1.7137892979063716, "osmid": 267133199.0 }, "geometry": { "type": "Point", "coordinates": [ 13.000170746950001, 55.592647423350002 ] } },
{ "type": "Feature", "properties": { "AADT": 4000, "TR_pct_AADT": 5.0, "raw_name": "BORREBACKEVÄGEN", "raw_oneway": false, "osm_name": "Borrebackevägen", "osm_type": "tertiary", "osm_lanes": null, "osm_oneway": null, "osm_distance": 0.41373055257210184, "osmid": 964735282.0 }, "geometry": { "type": "Point", "coordinates": [ 12.9435339379, 55.529859376399997 ] } },
{ "type": "Feature", "properties": { "AADT": 15500, "TR_pct_AADT": 8.0, "raw_name": "FRIHAMNSVIADUKTEN", "raw_oneway": false, "osm_name": "Frihamnsviadukten", "osm_type": "secondary", "osm_lanes": 2.0, "osm_oneway": "True", "osm_distance": 11.311260949976289, "osmid": 975440134.0 }, "geometry": { "type": "Point", "coordinates": [ 13.018073571027898, 55.610857055327791 ] } },
{ "type": "Feature", "properties": { "AADT": 2100, "TR_pct_AADT": 17.0, "raw_name": "PÅSKLILJEGATAN", "raw_oneway": false, "osm_name": "Påskliljegatan", "osm_type": "residential", "osm_lanes": null, "osm_oneway": null, "osm_distance": 0.26363975489272146, "osmid": 40268527.0 }, "geometry": { "type": "Point", "coordinates": [ 12.984443274149999, 55.56921605 ] } },
{ "type": "Feature", "properties": { "AADT": 6900, "TR_pct_AADT": 19.0, "raw_name": "NORDENSKIÖLDSGATAN", "raw_oneway": false, "osm_name": "Nordenskiöldsgatan", "osm_type": "tertiary", "osm_lanes": 2.0, "osm_oneway": "False", "osm_distance": 1.0487873468169218, "osmid": 249172731.0 }, "geometry": { "type": "Point", "coordinates": [ 12.994594893, 55.611847959550005 ] } },
{ "type": "Feature", "properties": { "AADT": 7100, "TR_pct_AADT": 10.0, "raw_name": "KALKBROTTSGATAN", "raw_oneway": false, "osm_name": "Kalkbrottsgatan", "osm_type": "secondary", "osm_lanes": null, "osm_oneway": null, "osm_distance": 1.1744659003729923, "osmid": 279303895.0 }, "geometry": { "type": "Point", "coordinates": [ 12.930079893449999, 55.582728801599998 ] } },
{ "type": "Feature", "properties": { "AADT": 8700, "TR_pct_AADT": 7.0, "raw_name": "HYLLIE ALLÉ", "raw_oneway": false, "osm_name": "Hyllie allé", "osm_type": "tertiary", "osm_lanes": null, "osm_oneway": "True", "osm_distance": 1.5070318747052847, "osmid": 95123103.0 }, "geometry": { "type": "Point", "coordinates": [ 12.983120253, 55.561171554949993 ] } },
{ "type": "Feature", "properties": { "AADT": 1400, "TR_pct_AADT": 21.0, "raw_name": "ÖSTRA BUNKEFLOVÄGEN", "raw_oneway": false, "osm_name": "Östra Bunkeflovägen", "osm_type": "tertiary", "osm_lanes": 2.0, "osm_oneway": null, "osm_distance": 0.65070130857559882, "osmid": 25046575.0 }, "geometry": { "type": "Point", "coordinates": [ 12.954559718300001, 55.557241047650002 ] } },
{ "type": "Feature", "properties": { "AADT": 3800, "TR_pct_AADT": 11.0, "raw_name": "TESSINS VÄG", "raw_oneway": false, "osm_name": "Tessins väg", "osm_type": "tertiary", "osm_lanes": null, "osm_oneway": "True", "osm_distance": 2.2143919769788427, "osmid": 27647298.0 }, "geometry": { "type": "Point", "coordinates": [ 12.975881833900001, 55.600779407100006 ] } },
{ "type": "Feature", "properties": { "AADT": 13000, "TR_pct_AADT": 8.0, "raw_name": "AMIRALSGATAN", "raw_oneway": false, "osm_name": "Amiralsgatan", "osm_type": "secondary", "osm_lanes": 4.0, "osm_oneway": null, "osm_distance": 0.086118994111411884, "osmid": 295558467.0 }, "geometry": { "type": "Point", "coordinates": [ 13.0186087695, 55.5929928921 ] } },
{ "type": "Feature", "properties": { "AADT": 12900, "TR_pct_AADT": 10.0, "raw_name": "LUNDAVÄGEN", "raw_oneway": false, "osm_name": "Lundavägen", "osm_type": "tertiary", "osm_lanes": 2.0, "osm_oneway": "True", "osm_distance": 2.7579217062673838, "osmid": 922952228.0 }, "geometry": { "type": "Point", "coordinates": [ 13.02560566915, 55.606326655700002 ] } },
{ "type": "Feature", "properties": { "AADT": 17500, "TR_pct_AADT": 11.0, "raw_name": "VÄSTKUSTVÄGEN", "raw_oneway": false, "osm_name": "Västkustvägen", "osm_type": "secondary", "osm_lanes": null, "osm_oneway": "True", "osm_distance": 2.7026461157344266, "osmid": 23294117.0 }, "geometry": { "type": "Point", "coordinates": [ 13.019393723299999, 55.613805981750005 ] } },
{ "type": "Feature", "properties": { "AADT": 3700, "TR_pct_AADT": 5.0, "raw_name": "YSTADSGATAN", "raw_oneway": false, "osm_name": "Ystadsgatan", "osm_type": "residential", "osm_lanes": null, "osm_oneway": null, "osm_distance": 1.1612179816551231, "osmid": 1304052811.0 }, "geometry": { "type": "Point", "coordinates": [ 13.0145285071, 55.590051506 ] } },
{ "type": "Feature", "properties": { "AADT": 40500, "TR_pct_AADT": 13.0, "raw_name": "TRELLEBORGSVÄGEN", "raw_oneway": false, "osm_name": null, "osm_type": "motorway", "osm_lanes": 2.0, "osm_oneway": "True", "osm_distance": 8.8512301193488803, "osmid": 365604432.0 }, "geometry": { "type": "Point", "coordinates": [ 13.008610598465022, 55.522554446573814 ] } },
{ "type": "Feature", "properties": { "AADT": 9300, "TR_pct_AADT": 8.0, "raw_name": "TRELLEBORGSVÄGEN", "raw_oneway": false, "osm_name": null, "osm_type": "motorway_link", "osm_lanes": 2.0, "osm_oneway": "True", "osm_distance": 0.52286405377270617, "osmid": 268727959.0 }, "geometry": { "type": "Point", "coordinates": [ 13.001601836150002, 55.563151449049997 ] } },
{ "type": "Feature", "properties": { "AADT": 11800, "TR_pct_AADT": 10.0, "raw_name": "SALLERUPSVÄGEN", "raw_oneway": false, "osm_name": "Sallerupsvägen", "osm_type": "secondary", "osm_lanes": null, "osm_oneway": "True", "osm_distance": 0.92561111410004948, "osmid": 324769906.0 }, "geometry": { "type": "Point", "coordinates": [ 13.111529353449999, 55.589767580050001 ] } },
{ "type": "Feature", "properties": { "AADT": 8900, "TR_pct_AADT": 10.0, "raw_name": "GRIMSBYGATAN", "raw_oneway": false, "osm_name": "Grimsbygatan", "osm_type": "unclassified", "osm_lanes": null, "osm_oneway": null, "osm_distance": 0.16309605113419948, "osmid": 28480291.0 }, "geometry": { "type": "Point", "coordinates": [ 13.016255034450001, 55.613330232199999 ] } },
{ "type": "Feature", "properties": { "AADT": 11200, "TR_pct_AADT": 14.0, "raw_name": "VATTENVERKSVÄGEN", "raw_oneway": false, "osm_name": "Vattenverksvägen", "osm_type": "tertiary", "osm_lanes": 2.0, "osm_oneway": null, "osm_distance": 0.17397979167307584, "osmid": 270124690.0 }, "geometry": { "type": "Point", "coordinates": [ 13.064457039800001, 55.609901579750002 ] } },
{ "type": "Feature", "properties": { "AADT": 18100, "TR_pct_AADT": 8.0, "raw_name": "DROTTNINGGATAN", "raw_oneway": false, "osm_name": "Drottninggatan", "osm_type": "secondary", "osm_lanes": 2.0, "osm_oneway": "True", "osm_distance": 4.0844554716505428, "osmid": 98939345.0 }, "geometry": { "type": "Point", "coordinates": [ 13.007167760350001, 55.602338016099999 ] } },
{ "type": "Feature", "properties": { "AADT": 10400, "TR_pct_AADT": 9.0, "raw_name": "AGNESFRIDSVÄGEN", "raw_oneway": false, "osm_name": "Agnesfridsvägen", "osm_type": "secondary", "osm_lanes": 2.0, "osm_oneway": null, "osm_distance": 0.22993217803599394, "osmid": 28278055.0 }, "geometry": { "type": "Point", "coordinates": [ 13.051323062649999, 55.567704947599999 ] } },
{ "type": "Feature", "properties": { "AADT": 10000, "TR_pct_AADT": 9.0, "raw_name": "SALLERUPSVÄGEN", "raw_oneway": false, "osm_name": "Sallerupsvägen", "osm_type": "tertiary", "osm_lanes": null, "osm_oneway": "True", "osm_distance": 3.0944327381309171, "osmid": 232075235.0 }, "geometry": { "type": "Point", "coordinates": [ 13.02690375465, 55.604107766 ] } },
{ "type": "Feature", "properties": { "AADT": 100, "TR_pct_AADT": 46.0, "raw_name": "ÄNGELHOLMSGATAN", "raw_oneway": false, "osm_name": "Kristianstadsgatan", "osm_type": "residential", "osm_lanes": null, "osm_oneway": null, "osm_distance": 10.252542011049758, "osmid": 106948171.0 }, "geometry": { "type": "Point", "coordinates": [ 13.008846448550001, 55.592219079050004 ] } },
{ "type": "Feature", "properties": { "AADT": 8600, "TR_pct_AADT": 13.0, "raw_name": "JÄGERSROVÄGEN", "raw_oneway": false, "osm_name": "Jägersrovägen", "osm_type": "tertiary", "osm_lanes": 2.0, "osm_oneway": null, "osm_distance": 0.37299835735906711, "osmid": 28498539.0 }, "geometry": { "type": "Point", "coordinates": [ 13.0631063973, 55.567419880450004 ] } },
{ "type": "Feature", "properties": { "AADT": 1600, "TR_pct_AADT": 21.0, "raw_name": "ERIK DAHLBERGSGATAN", "raw_oneway": false, "osm_name": "Erik Dahlbergsgatan", "osm_type": "residential", "osm_lanes": null, "osm_oneway": null, "osm_distance": 0.62788619669043577, "osmid": 30801163.0 }, "geometry": { "type": "Point", "coordinates": [ 12.99017600845, 55.597243446250005 ] } },
{ "type": "Feature", "properties": { "AADT": 14100, "TR_pct_AADT": 10.0, "raw_name": "AMIRALSBRON", "raw_oneway": false, "osm_name": "Amiralsbron", "osm_type": "residential", "osm_lanes": 5.0, "osm_oneway": null, "osm_distance": 0.54566107496120064, "osmid": 22948224.0 }, "geometry": { "type": "Point", "coordinates": [ 13.00550007665, 55.602366561750003 ] } },
{ "type": "Feature", "properties": { "AADT": 5300, "TR_pct_AADT": 8.0, "raw_name": "KLAGSHAMNSVÄGEN", "raw_oneway": false, "osm_name": "Klagshamnsvägen", "osm_type": "tertiary", "osm_lanes": null, "osm_oneway": null, "osm_distance": 0.020693194730509342, "osmid": 25046570.0 }, "geometry": { "type": "Point", "coordinates": [ 12.91824332595, 55.553299055050005 ] } },
{ "type": "Feature", "properties": { "AADT": 8800, "TR_pct_AADT": 6.0, "raw_name": "KUNGSHÖGSVÄGEN", "raw_oneway": false, "osm_name": "Kungshögsvägen", "osm_type": "tertiary", "osm_lanes": 3.0, "osm_oneway": null, "osm_distance": 0.15732486169707338, "osmid": 503867778.0 }, "geometry": { "type": "Point", "coordinates": [ 13.098535121400001, 55.554066098700005 ] } },
{ "type": "Feature", "properties": { "AADT": 2200, "TR_pct_AADT": 42.0, "raw_name": "MORESCOBRON", "raw_oneway": false, "osm_name": "Torggatan", "osm_type": "residential", "osm_lanes": null, "osm_oneway": null, "osm_distance": 1.6883961065541357, "osmid": 38093050.0 }, "geometry": { "type": "Point", "coordinates": [ 12.999414531949999, 55.601021225500006 ] } },
{ "type": "Feature", "properties": { "AADT": 2000, "TR_pct_AADT": 9.0, "raw_name": "CAROLIBRON", "raw_oneway": false, "osm_name": "Carolibron", "osm_type": "residential", "osm_lanes": 2.0, "osm_oneway": null, "osm_distance": 0.18796715431851477, "osmid": 28302704.0 }, "geometry": { "type": "Point", "coordinates": [ 13.0141065105, 55.606177578049994 ] } },
{ "type": "Feature", "properties": { "AADT": 100, "TR_pct_AADT": 16.0, "raw_name": "KÄRLEKSGATAN", "raw_oneway": false, "osm_name": "Kärleksgatan", "osm_type": "residential", "osm_lanes": null, "osm_oneway": null, "osm_distance": 0.26093348847273889, "osmid": 1333828578.0 }, "geometry": { "type": "Point", "coordinates": [ 12.99936633035, 55.598992805899996 ] } },
{ "type": "Feature", "properties": { "AADT": 13600, "TR_pct_AADT": 13.0, "raw_name": "KÄGLINGEVÄGEN", "raw_oneway": false, "osm_name": "Käglingevägen", "osm_type": "secondary", "osm_lanes": 2.0, "osm_oneway": null, "osm_distance": 0.097700130428181403, "osmid": 23049295.0 }, "geometry": { "type": "Point", "coordinates": [ 13.061155083900001, 55.567215438149994 ] } },
{ "type": "Feature", "properties": { "AADT": 9200, "TR_pct_AADT": 7.0, "raw_name": "LIMHAMNSVÄGEN", "raw_oneway": false, "osm_name": "Limhamnsvägen", "osm_type": "secondary", "osm_lanes": 2.0, "osm_oneway": null, "osm_distance": 0.32682544397206004, "osmid": 40530482.0 }, "geometry": { "type": "Point", "coordinates": [ 12.956499766649999, 55.59714638965 ] } },
{ "type": "Feature", "properties": { "AADT": 44900, "TR_pct_AADT": 13.0, "raw_name": "YTTRE RINGVÄGEN", "raw_oneway": false, "osm_name": "Yttre Ringvägen", "osm_type": "motorway", "osm_lanes": 3.0, "osm_oneway": "True", "osm_distance": 16.000151906469323, "osmid": 1189107508.0 }, "geometry": { "type": "Point", "coordinates": [ 13.116127288318623, 55.607003012953179 ] } },
{ "type": "Feature", "properties": { "AADT": 5300, "TR_pct_AADT": 12.0, "raw_name": "LOCKARPSVÄGEN", "raw_oneway": false, "osm_name": "Lockarpsvägen", "osm_type": "unclassified", "osm_lanes": null, "osm_oneway": "True", "osm_distance": 0.60268151879036025, "osmid": 210468815.0 }, "geometry": { "type": "Point", "coordinates": [ 13.033671179500001, 55.548342834350002 ] } },
{ "type": "Feature", "properties": { "AADT": 10300, "TR_pct_AADT": 9.0, "raw_name": "VÄSTRA KATTARPSVÄGEN", "raw_oneway": false, "osm_name": "Västra Kattarpsvägen", "osm_type": "tertiary", "osm_lanes": 2.0, "osm_oneway": null, "osm_distance": 0.79000806807826351, "osmid": 28761096.0 }, "geometry": { "type": "Point", "coordinates": [ 13.03449103965, 55.584728595450002 ] } },
{ "type": "Feature", "properties": { "AADT": 11800, "TR_pct_AADT": 7.0, "raw_name": "CARLSGATAN", "raw_oneway": false, "osm_name": "Carlsgatan", "osm_type": "tertiary", "osm_lanes": 2.0, "osm_oneway": "True", "osm_distance": 1.6646280343458946, "osmid": 467620585.0 }, "geometry": { "type": "Point", "coordinates": [ 13.016694721800002, 55.611739581099997 ] } },
{ "type": "Feature", "properties": { "AADT": 13400, "TR_pct_AADT": 6.0, "raw_name": "FÖRENINGSGATAN", "raw_oneway": false, "osm_name": "Föreningsgatan", "osm_type": "tertiary", "osm_lanes": null, "osm_oneway": "True", "osm_distance": 3.1713518643982965, "osmid": 36990281.0 }, "geometry": { "type": "Point", "coordinates": [ 13.009595885414722, 55.599435959985271 ] } },
{ "type": "Feature", "properties": { "AADT": 12000, "TR_pct_AADT": 7.0, "raw_name": "MUNKHÄTTEGATAN", "raw_oneway": false, "osm_name": "Munkhättegatan", "osm_type": "secondary", "osm_lanes": null, "osm_oneway": "True", "osm_distance": 5.077667740807005, "osmid": 28535585.0 }, "geometry": { "type": "Point", "coordinates": [ 13.009861255222159, 55.564570473858488 ] } },
{ "type": "Feature", "properties": { "AADT": 16900, "TR_pct_AADT": 6.0, "raw_name": "PILDAMMSVÄGEN", "raw_oneway": false, "osm_name": "Pildammsvägen", "osm_type": "secondary", "osm_lanes": 2.0, "osm_oneway": "True", "osm_distance": 6.7229071029304412, "osmid": 28562024.0 }, "geometry": { "type": "Point", "coordinates": [ 12.997114937759052, 55.580701741251488 ] } },
{ "type": "Feature", "properties": { "AADT": 19700, "TR_pct_AADT": 16.0, "raw_name": "YTTRE RINGVÄGEN", "raw_oneway": false, "osm_name": null, "osm_type": "service", "osm_lanes": null, "osm_oneway": null, "osm_distance": 12.704506754416375, "osmid": 335985312.0 }, "geometry": { "type": "Point", "coordinates": [ 12.926862758806088, 55.564016303612085 ] } },
{ "type": "Feature", "properties": { "AADT": 2400, "TR_pct_AADT": 10.0, "raw_name": "BORREBACKEVÄGEN", "raw_oneway": false, "osm_name": "Borrebackevägen", "osm_type": "tertiary", "osm_lanes": null, "osm_oneway": null, "osm_distance": 0.086631385924940324, "osmid": 210973601.0 }, "geometry": { "type": "Point", "coordinates": [ 12.940608888050001, 55.529865155500005 ] } },
{ "type": "Feature", "properties": { "AADT": 17100, "TR_pct_AADT": 6.0, "raw_name": "PILDAMMSVÄGEN", "raw_oneway": false, "osm_name": "Pildammsvägen", "osm_type": "secondary", "osm_lanes": null, "osm_oneway": "True", "osm_distance": 12.494444825064507, "osmid": 1195592148.0 }, "geometry": { "type": "Point", "coordinates": [ 12.995652914892066, 55.578964902896367 ] } },
{ "type": "Feature", "properties": { "AADT": 1900, "TR_pct_AADT": 64.0, "raw_name": "DAVIDSHALLSGATAN", "raw_oneway": false, "osm_name": "Davidshallsgatan", "osm_type": "residential", "osm_lanes": 2.0, "osm_oneway": "False", "osm_distance": 1.0898866153202076, "osmid": 189255203.0 }, "geometry": { "type": "Point", "coordinates": [ 12.999706295100001, 55.599512892700005 ] } },
{ "type": "Feature", "properties": { "AADT": 3000, "TR_pct_AADT": 12.0, "raw_name": "STENÅLDERSGATAN", "raw_oneway": false, "osm_name": "Stenåldersgatan", "osm_type": "unclassified", "osm_lanes": null, "osm_oneway": "False", "osm_distance": 0.056917736842644388, "osmid": 28569925.0 }, "geometry": { "type": "Point", "coordinates": [ 13.0619976028, 55.55576029585 ] } },
{ "type": "Feature", "properties": { "AADT": 8300, "TR_pct_AADT": 8.0, "raw_name": "PETERSBORGS TRAFIKPLATS", "raw_oneway": false, "osm_name": null, "osm_type": "motorway_link", "osm_lanes": 2.0, "osm_oneway": "True", "osm_distance": 0.28652029808311702, "osmid": 301812679.0 }, "geometry": { "type": "Point", "coordinates": [ 13.001409026800001, 55.550702395899997 ] } },
{ "type": "Feature", "properties": { "AADT": 6200, "TR_pct_AADT": 6.0, "raw_name": "HOVRÄTTSBRON", "raw_oneway": false, "osm_name": "Hovrättsbron", "osm_type": "tertiary", "osm_lanes": null, "osm_oneway": "True", "osm_distance": 3.3736950304219562, "osmid": 28303104.0 }, "geometry": { "type": "Point", "coordinates": [ 12.991988428900001, 55.606474311950002 ] } },
{ "type": "Feature", "properties": { "AADT": 15000, "TR_pct_AADT": 6.0, "raw_name": "ÄRTHOLMSVÄGEN", "raw_oneway": false, "osm_name": "Ärtholmsvägen", "osm_type": "tertiary", "osm_lanes": null, "osm_oneway": null, "osm_distance": 0.13015067476442663, "osmid": 269074345.0 }, "geometry": { "type": "Point", "coordinates": [ 12.98996623805, 55.575554539099997 ] } },
{ "type": "Feature", "properties": { "AADT": 4900, "TR_pct_AADT": 47.0, "raw_name": "HEMSÖGATAN", "raw_oneway": false, "osm_name": "Hemsögatan", "osm_type": "tertiary", "osm_lanes": null, "osm_oneway": null, "osm_distance": 0.29514591504892751, "osmid": 141614523.0 }, "geometry": { "type": "Point", "coordinates": [ 13.017040691150001, 55.628060160800004 ] } },
{ "type": "Feature", "properties": { "AADT": 8100, "TR_pct_AADT": 7.0, "raw_name": "SALLERUPSVÄGEN", "raw_oneway": false, "osm_name": "Malmövägen", "osm_type": "secondary", "osm_lanes": null, "osm_oneway": null, "osm_distance": 0.064117834945379884, "osmid": 549045807.0 }, "geometry": { "type": "Point", "coordinates": [ 13.14522614745, 55.580414507049994 ] } },
{ "type": "Feature", "properties": { "AADT": 5700, "TR_pct_AADT": 9.0, "raw_name": "HORNYXEGATAN", "raw_oneway": false, "osm_name": "Hornyxegatan", "osm_type": "tertiary", "osm_lanes": null, "osm_oneway": null, "osm_distance": 1.1772446143274016, "osmid": 846898995.0 }, "geometry": { "type": "Point", "coordinates": [ 13.051016508349999, 55.566654935849996 ] } },
{ "type": "Feature", "properties": { "AADT": 17000, "TR_pct_AADT": 7.0, "raw_name": "SALLERUPSVÄGEN", "raw_oneway": false, "osm_name": "Sallerupsvägen", "osm_type": "secondary", "osm_lanes": 2.0, "osm_oneway": "True", "osm_distance": 4.2866141006002882, "osmid": 232230902.0 }, "geometry": { "type": "Point", "coordinates": [ 13.057950249131757, 55.596546373760219 ] } },
{ "type": "Feature", "properties": { "AADT": 5600, "TR_pct_AADT": 19.0, "raw_name": "STENYXEGATAN", "raw_oneway": false, "osm_name": "Stenyxegatan", "osm_type": "tertiary", "osm_lanes": null, "osm_oneway": null, "osm_distance": 1.7013881103607797, "osmid": 1221034414.0 }, "geometry": { "type": "Point", "coordinates": [ 13.034458074050001, 55.559788271549998 ] } },
{ "type": "Feature", "properties": { "AADT": 23700, "TR_pct_AADT": 10.0, "raw_name": "AMIRALSGATAN", "raw_oneway": false, "osm_name": null, "osm_type": null, "osm_lanes": null, "osm_oneway": null, "osm_distance": null, "osmid": null }, "geometry": { "type": "Point", "coordinates": [ 13.051825465068905, 55.583846503382631 ] } },
{ "type": "Feature", "properties": { "AADT": 24000, "TR_pct_AADT": 9.0, "raw_name": "SALLERUPSVÄGEN", "raw_oneway": false, "osm_name": "Sallerupsvägen", "osm_type": "secondary", "osm_lanes": 2.0, "osm_oneway": "True", "osm_distance": 4.6151009914398049, "osmid": 37005547.0 }, "geometry": { "type": "Point", "coordinates": [ 13.047199861046334, 55.598409116438305 ] } },
{ "type": "Feature", "properties": { "AADT": 6200, "TR_pct_AADT": 6.0, "raw_name": "BELLEVUEVÄGEN", "raw_oneway": false, "osm_name": "Bellevuevägen", "osm_type": "tertiary", "osm_lanes": 2.0, "osm_oneway": "False", "osm_distance": 0.060333197921518179, "osmid": 211782731.0 }, "geometry": { "type": "Point", "coordinates": [ 12.96433352835, 55.578666820449996 ] } },
{ "type": "Feature", "properties": { "AADT": 3300, "TR_pct_AADT": 7.0, "raw_name": "S:T KNUTS TORG", "raw_oneway": false, "osm_name": "Sankt Knuts torg", "osm_type": "residential", "osm_lanes": null, "osm_oneway": null, "osm_distance": 2.6678361140199387, "osmid": 37253754.0 }, "geometry": { "type": "Point", "coordinates": [ 13.013034334449999, 55.596513400199996 ] } },
{ "type": "Feature", "properties": { "AADT": 3900, "TR_pct_AADT": 10.0, "raw_name": "TEGELBRUKSVÄGEN", "raw_oneway": false, "osm_name": "Tegelbruksvägen", "osm_type": "tertiary", "osm_lanes": null, "osm_oneway": null, "osm_distance": 0.10643186226896625, "osmid": 28821628.0 }, "geometry": { "type": "Point", "coordinates": [ 13.094232109050001, 55.541655117849999 ] } },
{ "type": "Feature", "properties": { "AADT": 18600, "TR_pct_AADT": 14.0, "raw_name": "VÄSTKUSTVÄGEN", "raw_oneway": false, "osm_name": "Västkustvägen", "osm_type": "trunk", "osm_lanes": 2.0, "osm_oneway": "True", "osm_distance": 8.8072158275920867, "osmid": 28442756.0 }, "geometry": { "type": "Point", "coordinates": [ 13.056179461034311, 55.633993717806831 ] } },
{ "type": "Feature", "properties": { "AADT": 19300, "TR_pct_AADT": 4.0, "raw_name": "PILDAMMSVÄGEN", "raw_oneway": false, "osm_name": "Pildammsvägen", "osm_type": "secondary", "osm_lanes": 4.0, "osm_oneway": null, "osm_distance": 2.0013551100702918, "osmid": 1023448275.0 }, "geometry": { "type": "Point", "coordinates": [ 12.997712725900001, 55.59172578095 ] } },
{ "type": "Feature", "properties": { "AADT": 1900, "TR_pct_AADT": 13.0, "raw_name": "ANNETORPSVÄGEN", "raw_oneway": false, "osm_name": null, "osm_type": "primary_link", "osm_lanes": 1.0, "osm_oneway": "True", "osm_distance": 0.055732333429058804, "osmid": 46107292.0 }, "geometry": { "type": "Point", "coordinates": [ 12.974780831050001, 55.568126844199995 ] } },
{ "type": "Feature", "properties": { "AADT": 1700, "TR_pct_AADT": 6.0, "raw_name": "DIÖGATAN", "raw_oneway": false, "osm_name": "Diögatan", "osm_type": "residential", "osm_lanes": null, "osm_oneway": null, "osm_distance": 0.42882221581114449, "osmid": 335899301.0 }, "geometry": { "type": "Point", "coordinates": [ 12.981230834350001, 55.55130075225 ] } },
{ "type": "Feature", "properties": { "AADT": 3800, "TR_pct_AADT": 6.0, "raw_name": "NAFFENTORPSVÄGEN", "raw_oneway": false, "osm_name": "Naffentorpsvägen", "osm_type": "tertiary", "osm_lanes": 2.0, "osm_oneway": null, "osm_distance": 0.079574346209112051, "osmid": 295308493.0 }, "geometry": { "type": "Point", "coordinates": [ 12.97729211475, 55.545668883049998 ] } },
{ "type": "Feature", "properties": { "AADT": 11100, "TR_pct_AADT": 12.0, "raw_name": "SLUSSBRON", "raw_oneway": false, "osm_name": "Slussbron", "osm_type": "secondary", "osm_lanes": null, "osm_oneway": null, "osm_distance": 0.02249239096814306, "osmid": 27647130.0 }, "geometry": { "type": "Point", "coordinates": [ 13.01274446955, 55.60918549825 ] } },
{ "type": "Feature", "properties": { "AADT": 17800, "TR_pct_AADT": 7.0, "raw_name": "NOBELVÄGEN", "raw_oneway": false, "osm_name": "Nobelvägen", "osm_type": "secondary", "osm_lanes": 2.0, "osm_oneway": "True", "osm_distance": 1.6469913037081509, "osmid": 1304051594.0 }, "geometry": { "type": "Point", "coordinates": [ 13.01069468315, 55.586475818700002 ] } },
{ "type": "Feature", "properties": { "AADT": 16000, "TR_pct_AADT": 7.0, "raw_name": "LORENSBORGSGATAN", "raw_oneway": false, "osm_name": "Lorensborgsgatan", "osm_type": "secondary", "osm_lanes": 1.0, "osm_oneway": "True", "osm_distance": 9.5028967114606679, "osmid": 820450155.0 }, "geometry": { "type": "Point", "coordinates": [ 12.954320881289329, 55.554969515922402 ] } },
{ "type": "Feature", "properties": { "AADT": 3500, "TR_pct_AADT": 10.0, "raw_name": "HYLLIEVÅNGSVÄGEN", "raw_oneway": false, "osm_name": "Hyllievångsvägen", "osm_type": "unclassified", "osm_lanes": null, "osm_oneway": null, "osm_distance": 0.18779115325529319, "osmid": 89272856.0 }, "geometry": { "type": "Point", "coordinates": [ 12.9745545903, 55.571223879400002 ] } },
{ "type": "Feature", "properties": { "AADT": 8500, "TR_pct_AADT": 8.0, "raw_name": "AGNESFRIDSVÄGEN", "raw_oneway": false, "osm_name": "Agnesfridsvägen", "osm_type": "secondary", "osm_lanes": 1.0, "osm_oneway": "True", "osm_distance": 3.4707132979025896, "osmid": 28757568.0 }, "geometry": { "type": "Point", "coordinates": [ 13.056187014529591, 55.571180901422359 ] } },
{ "type": "Feature", "properties": { "AADT": 14700, "TR_pct_AADT": 5.0, "raw_name": "SCHEELEGATAN", "raw_oneway": false, "osm_name": "Scheelegatan", "osm_type": "unclassified", "osm_lanes": 2.0, "osm_oneway": null, "osm_distance": 1.009980185854005, "osmid": 37002397.0 }, "geometry": { "type": "Point", "coordinates": [ 13.03679742485, 55.589375620250003 ] } },
{ "type": "Feature", "properties": { "AADT": 2800, "TR_pct_AADT": 10.0, "raw_name": "NAFFENTORPSVÄGEN", "raw_oneway": false, "osm_name": "Naffentorpsvägen", "osm_type": "tertiary", "osm_lanes": null, "osm_oneway": null, "osm_distance": 0.084778891135949525, "osmid": 289656634.0 }, "geometry": { "type": "Point", "coordinates": [ 12.920369519099999, 55.543136147849999 ] } },
{ "type": "Feature", "properties": { "AADT": 3300, "TR_pct_AADT": 10.0, "raw_name": "ANNETORPSVÄGEN", "raw_oneway": false, "osm_name": null, "osm_type": "primary_link", "osm_lanes": 1.0, "osm_oneway": "True", "osm_distance": 0.54052299225185474, "osmid": 71933851.0 }, "geometry": { "type": "Point", "coordinates": [ 12.972817001149998, 55.566167669550005 ] } },
{ "type": "Feature", "properties": { "AADT": 8400, "TR_pct_AADT": 5.0, "raw_name": "INDUSTRIGATAN", "raw_oneway": false, "osm_name": "Industrigatan", "osm_type": "unclassified", "osm_lanes": null, "osm_oneway": null, "osm_distance": 0.33432803247606524, "osmid": 18880291.0 }, "geometry": { "type": "Point", "coordinates": [ 13.02415126985, 55.599661818100003 ] } },
{ "type": "Feature", "properties": { "AADT": 1600, "TR_pct_AADT": 24.0, "raw_name": "ELISEDALSVÄGEN", "raw_oneway": false, "osm_name": "Skabersjövägen", "osm_type": "tertiary", "osm_lanes": null, "osm_oneway": null, "osm_distance": 0.10805384395788872, "osmid": 28303586.0 }, "geometry": { "type": "Point", "coordinates": [ 13.106467261049998, 55.557004243650006 ] } },
{ "type": "Feature", "properties": { "AADT": 1800, "TR_pct_AADT": 13.0, "raw_name": "KRISTINEBERGSVÄGEN", "raw_oneway": false, "osm_name": "Kristinebergsvägen", "osm_type": "tertiary", "osm_lanes": null, "osm_oneway": null, "osm_distance": 0.07579026059344611, "osmid": 295308486.0 }, "geometry": { "type": "Point", "coordinates": [ 13.07232845095, 55.542720105649998 ] } },
{ "type": "Feature", "properties": { "AADT": 2400, "TR_pct_AADT": 6.0, "raw_name": "PAULIBRON", "raw_oneway": false, "osm_name": "Paulibron", "osm_type": "residential", "osm_lanes": null, "osm_oneway": null, "osm_distance": 0.35284565753411135, "osmid": 28289456.0 }, "geometry": { "type": "Point", "coordinates": [ 13.0106022126, 55.604047157 ] } },
{ "type": "Feature", "properties": { "AADT": 4000, "TR_pct_AADT": 10.0, "raw_name": "GALGEBACKSVÄGEN", "raw_oneway": false, "osm_name": "Galgebacksvägen", "osm_type": "tertiary", "osm_lanes": null, "osm_oneway": null, "osm_distance": 0.62913779762788247, "osmid": 250647130.0 }, "geometry": { "type": "Point", "coordinates": [ 13.076736868899999, 55.538440209750007 ] } },
{ "type": "Feature", "properties": { "AADT": 1000, "TR_pct_AADT": 12.0, "raw_name": "JÄGERSHILLGATAN", "raw_oneway": false, "osm_name": "Jägershillgatan", "osm_type": "unclassified", "osm_lanes": null, "osm_oneway": null, "osm_distance": 0.041765384255790704, "osmid": 28498742.0 }, "geometry": { "type": "Point", "coordinates": [ 13.052821153749999, 55.569241986600005 ] } },
{ "type": "Feature", "properties": { "AADT": 13300, "TR_pct_AADT": 7.0, "raw_name": "AGNESFRIDSVÄGEN", "raw_oneway": false, "osm_name": "Agnesfridsvägen", "osm_type": "secondary", "osm_lanes": 2.0, "osm_oneway": "False", "osm_distance": 0.29316740954635268, "osmid": 28757883.0 }, "geometry": { "type": "Point", "coordinates": [ 13.060787978500001, 55.575446838749997 ] } },
{ "type": "Feature", "properties": { "AADT": 6800, "TR_pct_AADT": 9.0, "raw_name": "AXEL DANIELSSONS VÄG", "raw_oneway": false, "osm_name": "Axel Danielssons väg", "osm_type": "tertiary", "osm_lanes": 2.0, "osm_oneway": null, "osm_distance": 0.49066380856108477, "osmid": 1141987984.0 }, "geometry": { "type": "Point", "coordinates": [ 13.002295217799999, 55.558796788049996 ] } },
{ "type": "Feature", "properties": { "AADT": 1200, "TR_pct_AADT": 6.0, "raw_name": "SJÖTORPSVÄGEN", "raw_oneway": false, "osm_name": "Sjötorpsvägen", "osm_type": "tertiary", "osm_lanes": null, "osm_oneway": null, "osm_distance": 0.054972586950389278, "osmid": 174377644.0 }, "geometry": { "type": "Point", "coordinates": [ 12.984183516550001, 55.514810321200002 ] } },
{ "type": "Feature", "properties": { "AADT": 3400, "TR_pct_AADT": 8.0, "raw_name": "ELLENBORGSVÄGEN", "raw_oneway": false, "osm_name": "Ellenborgsvägen", "osm_type": "tertiary", "osm_lanes": null, "osm_oneway": null, "osm_distance": 0.17035097004907002, "osmid": 139931289.0 }, "geometry": { "type": "Point", "coordinates": [ 13.073168477, 55.584919843450002 ] } },
{ "type": "Feature", "properties": { "AADT": 18600, "TR_pct_AADT": 7.0, "raw_name": "ANNETORPSVÄGEN", "raw_oneway": false, "osm_name": "Annetorpsvägen", "osm_type": "secondary", "osm_lanes": null, "osm_oneway": null, "osm_distance": 0.19267988417606899, "osmid": 211692099.0 }, "geometry": { "type": "Point", "coordinates": [ 12.949190359700001, 55.56978188715 ] } },
{ "type": "Feature", "properties": { "AADT": 5300, "TR_pct_AADT": 8.0, "raw_name": "CITADELLSVÄGEN", "raw_oneway": false, "osm_name": "Citadellsvägen", "osm_type": "tertiary", "osm_lanes": 2.0, "osm_oneway": "False", "osm_distance": 0.90575237577693513, "osmid": 139659124.0 }, "geometry": { "type": "Point", "coordinates": [ 12.982886028049998, 55.605891740849998 ] } },
{ "type": "Feature", "properties": { "AADT": 3300, "TR_pct_AADT": 7.0, "raw_name": "PER JOSEPHSSONS VÄG", "raw_oneway": false, "osm_name": "Per Josephssons väg", "osm_type": "unclassified", "osm_lanes": null, "osm_oneway": null, "osm_distance": 0.4368094891224234, "osmid": 211933389.0 }, "geometry": { "type": "Point", "coordinates": [ 12.92858438975, 55.55310210750001 ] } },
{ "type": "Feature", "properties": { "AADT": 3400, "TR_pct_AADT": 6.0, "raw_name": "ANNETORPSVÄGEN", "raw_oneway": false, "osm_name": null, "osm_type": "primary_link", "osm_lanes": 1.0, "osm_oneway": "True", "osm_distance": 0.071142731817190871, "osmid": 52348172.0 }, "geometry": { "type": "Point", "coordinates": [ 12.974956211549998, 55.568071852700001 ] } },
{ "type": "Feature", "properties": { "AADT": 8700, "TR_pct_AADT": 6.0, "raw_name": "EXERCISGATAN", "raw_oneway": false, "osm_name": "Exercisgatan", "osm_type": "residential", "osm_lanes": 2.0, "osm_oneway": null, "osm_distance": 0.53085625250696311, "osmid": 334672927.0 }, "geometry": { "type": "Point", "coordinates": [ 13.01375847035, 55.608351495450002 ] } },
{ "type": "Feature", "properties": { "AADT": 32600, "TR_pct_AADT": 12.0, "raw_name": "YSTADVÄGEN", "raw_oneway": false, "osm_name": "Ystadsvägen", "osm_type": "motorway", "osm_lanes": 4.0, "osm_oneway": "True", "osm_distance": 4.7543317821530557, "osmid": 139648125.0 }, "geometry": { "type": "Point", "coordinates": [ 13.065463291900523, 55.563681534693544 ] } },
{ "type": "Feature", "properties": { "AADT": 9300, "TR_pct_AADT": 7.0, "raw_name": "ÖSTRA RÖNNEHOLMSVÄGEN", "raw_oneway": false, "osm_name": "Östra Rönneholmsvägen", "osm_type": "tertiary", "osm_lanes": null, "osm_oneway": null, "osm_distance": 1.1236262419650691, "osmid": 24161676.0 }, "geometry": { "type": "Point", "coordinates": [ 12.993494992850001, 55.59659382960001 ] } },
{ "type": "Feature", "properties": { "AADT": 3600, "TR_pct_AADT": 61.0, "raw_name": "RENÖGATAN", "raw_oneway": false, "osm_name": "Renögatan", "osm_type": "tertiary", "osm_lanes": null, "osm_oneway": null, "osm_distance": 3.8334313962054147, "osmid": 165788040.0 }, "geometry": { "type": "Point", "coordinates": [ 13.01476279125, 55.628892976499998 ] } },
{ "type": "Feature", "properties": { "AADT": 800, "TR_pct_AADT": 7.0, "raw_name": "EBBARPSVÄGEN", "raw_oneway": false, "osm_name": "Ebbarpsvägen", "osm_type": "tertiary", "osm_lanes": null, "osm_oneway": null, "osm_distance": 0.34100645209597019, "osmid": 295575551.0 }, "geometry": { "type": "Point", "coordinates": [ 13.123625358799996, 55.573362904050008 ] } },
{ "type": "Feature", "properties": { "AADT": 14700, "TR_pct_AADT": 9.0, "raw_name": "SÖDRA FÖRSTADSGATAN", "raw_oneway": false, "osm_name": "Södra Förstadsgatan", "osm_type": "tertiary", "osm_lanes": 2.0, "osm_oneway": "True", "osm_distance": 3.1831394035651162, "osmid": 268468398.0 }, "geometry": { "type": "Point", "coordinates": [ 13.005890020561321, 55.585102132994173 ] } },
{ "type": "Feature", "properties": { "AADT": 6300, "TR_pct_AADT": 12.0, "raw_name": "CARLSGATAN", "raw_oneway": false, "osm_name": "Carlsgatan", "osm_type": "tertiary", "osm_lanes": 2.0, "osm_oneway": "True", "osm_distance": 2.8350774617949464, "osmid": 454355687.0 }, "geometry": { "type": "Point", "coordinates": [ 12.999757318058734, 55.610499727623186 ] } },
{ "type": "Feature", "properties": { "AADT": 27800, "TR_pct_AADT": 11.0, "raw_name": "YSTADVÄGEN", "raw_oneway": false, "osm_name": null, "osm_type": "motorway", "osm_lanes": 2.0, "osm_oneway": "True", "osm_distance": 4.656705753424669, "osmid": 27405068.0 }, "geometry": { "type": "Point", "coordinates": [ 13.113648899114086, 55.552740766915917 ] } },
{ "type": "Feature", "properties": { "AADT": 3400, "TR_pct_AADT": 9.0, "raw_name": "HOLMAVÅNGSVÄGEN", "raw_oneway": false, "osm_name": "Holmavångsvägen", "osm_type": "residential", "osm_lanes": null, "osm_oneway": null, "osm_distance": 1.0070318965705318, "osmid": 140044902.0 }, "geometry": { "type": "Point", "coordinates": [ 12.9894437164, 55.575292621849997 ] } },
{ "type": "Feature", "properties": { "AADT": 7400, "TR_pct_AADT": 6.0, "raw_name": "HYLLIE STATIONSVÄG", "raw_oneway": false, "osm_name": null, "osm_type": "tertiary", "osm_lanes": 1.0, "osm_oneway": "True", "osm_distance": 1.0018078960796146, "osmid": 30651291.0 }, "geometry": { "type": "Point", "coordinates": [ 12.964807817900001, 55.561831489550002 ] } },
{ "type": "Feature", "properties": { "AADT": 6300, "TR_pct_AADT": 6.0, "raw_name": "KALKBROTTSGATAN", "raw_oneway": false, "osm_name": "Kalkbrottsgatan", "osm_type": "tertiary", "osm_lanes": null, "osm_oneway": null, "osm_distance": 1.2086095381245037, "osmid": 1237797432.0 }, "geometry": { "type": "Point", "coordinates": [ 12.920963730399999, 55.565875512649995 ] } },
{ "type": "Feature", "properties": { "AADT": 5000, "TR_pct_AADT": 11.0, "raw_name": "SCHOUGENS BRO", "raw_oneway": false, "osm_name": "Schougens bro", "osm_type": "residential", "osm_lanes": null, "osm_oneway": null, "osm_distance": 0.1827989633083581, "osmid": 28302709.0 }, "geometry": { "type": "Point", "coordinates": [ 13.013208908199999, 55.608094347250002 ] } },
{ "type": "Feature", "properties": { "AADT": 3800, "TR_pct_AADT": 8.0, "raw_name": "HYLLIE BOULEVARD", "raw_oneway": false, "osm_name": "Hyllie boulevard", "osm_type": "residential", "osm_lanes": 2.0, "osm_oneway": null, "osm_distance": 0.74359696876070347, "osmid": 645439211.0 }, "geometry": { "type": "Point", "coordinates": [ 12.976476645049999, 55.569830687600003 ] } },
{ "type": "Feature", "properties": { "AADT": 13600, "TR_pct_AADT": 9.0, "raw_name": "AGNESFRIDSVÄGEN", "raw_oneway": false, "osm_name": "Agnesfridsvägen", "osm_type": "tertiary", "osm_lanes": 2.0, "osm_oneway": "True", "osm_distance": 5.719941330816753, "osmid": 28302310.0 }, "geometry": { "type": "Point", "coordinates": [ 13.022524425637055, 55.560205948231228 ] } },
{ "type": "Feature", "properties": { "AADT": 4000, "TR_pct_AADT": 9.0, "raw_name": "ELLENBORGSVÄGEN", "raw_oneway": false, "osm_name": "Ellenborgsvägen", "osm_type": "tertiary", "osm_lanes": null, "osm_oneway": null, "osm_distance": 0.28654763116005411, "osmid": 141654183.0 }, "geometry": { "type": "Point", "coordinates": [ 13.0638361892, 55.586031557550001 ] } },
{ "type": "Feature", "properties": { "AADT": 2000, "TR_pct_AADT": 13.0, "raw_name": "KLAGSHAMNSVÄGEN", "raw_oneway": false, "osm_name": "Klagshamnsvägen", "osm_type": "tertiary", "osm_lanes": null, "osm_oneway": null, "osm_distance": 0.6278396112521285, "osmid": 585774532.0 }, "geometry": { "type": "Point", "coordinates": [ 12.92352042465, 55.531900403400002 ] } },
{ "type": "Feature", "properties": { "AADT": 20500, "TR_pct_AADT": 14.0, "raw_name": "VÄSTKUSTVÄGEN", "raw_oneway": false, "osm_name": "Västkustvägen", "osm_type": "secondary", "osm_lanes": 2.0, "osm_oneway": "True", "osm_distance": 3.8120538606016141, "osmid": 336651635.0 }, "geometry": { "type": "Point", "coordinates": [ 13.045659837109664, 55.622344506652169 ] } },
{ "type": "Feature", "properties": { "AADT": 38800, "TR_pct_AADT": 8.0, "raw_name": "ANNETORPSVÄGEN", "raw_oneway": false, "osm_name": "Annetorpsvägen", "osm_type": "primary", "osm_lanes": 2.0, "osm_oneway": "True", "osm_distance": 4.4906188004543628, "osmid": 386834371.0 }, "geometry": { "type": "Point", "coordinates": [ 12.980760713599999, 55.568178951249998 ] } },
{ "type": "Feature", "properties": { "AADT": 9300, "TR_pct_AADT": 6.0, "raw_name": "LANTMANNAGATAN", "raw_oneway": false, "osm_name": "Lantmannagatan", "osm_type": "tertiary", "osm_lanes": 5.0, "osm_oneway": null, "osm_distance": 2.7491663613907451, "osmid": 1209458433.0 }, "geometry": { "type": "Point", "coordinates": [ 13.018799546325283, 55.584813864032405 ] } },
{ "type": "Feature", "properties": { "AADT": 1100, "TR_pct_AADT": 4.0, "raw_name": "VELANDERGATAN", "raw_oneway": false, "osm_name": "Velandergatan", "osm_type": "residential", "osm_lanes": null, "osm_oneway": null, "osm_distance": 0.48438034606912284, "osmid": 1131128394.0 }, "geometry": { "type": "Point", "coordinates": [ 12.997253274449999, 55.56848852425 ] } },
{ "type": "Feature", "properties": { "AADT": 10000, "TR_pct_AADT": 12.0, "raw_name": "ARRIEVÄGEN", "raw_oneway": false, "osm_name": "Arrievägen", "osm_type": "secondary", "osm_lanes": 2.0, "osm_oneway": null, "osm_distance": 0.75304806842554572, "osmid": 28550709.0 }, "geometry": { "type": "Point", "coordinates": [ 13.027215397199999, 55.558338016600004 ] } },
{ "type": "Feature", "properties": { "AADT": 16400, "TR_pct_AADT": 16.0, "raw_name": "TOFTANÄSVÄGEN", "raw_oneway": false, "osm_name": "Toftanäsvägen", "osm_type": "tertiary", "osm_lanes": null, "osm_oneway": null, "osm_distance": 2.2368439786854366, "osmid": 141654173.0 }, "geometry": { "type": "Point", "coordinates": [ 13.093131802549999, 55.607836233699999 ] } },
{ "type": "Feature", "properties": { "AADT": 5800, "TR_pct_AADT": 50.0, "raw_name": "SPILLEPENGSGATAN", "raw_oneway": false, "osm_name": "Spillepengsgatan", "osm_type": "tertiary", "osm_lanes": 2.0, "osm_oneway": "True", "osm_distance": 4.0292859218015744, "osmid": 1005667005.0 }, "geometry": { "type": "Point", "coordinates": [ 13.04571320328918, 55.629644794619253 ] } },
{ "type": "Feature", "properties": { "AADT": 24700, "TR_pct_AADT": 10.0, "raw_name": "YSTADVÄGEN", "raw_oneway": false, "osm_name": "Ystadvägen", "osm_type": "secondary", "osm_lanes": 2.0, "osm_oneway": "True", "osm_distance": 4.5588018710263674, "osmid": 23440479.0 }, "geometry": { "type": "Point", "coordinates": [ 13.040911096134625, 55.570985504549149 ] } },
{ "type": "Feature", "properties": { "AADT": 900, "TR_pct_AADT": 5.0, "raw_name": "VIKINGAGATAN", "raw_oneway": false, "osm_name": "Vikingagatan", "osm_type": "residential", "osm_lanes": null, "osm_oneway": null, "osm_distance": 0.047381754081676837, "osmid": 24557266.0 }, "geometry": { "type": "Point", "coordinates": [ 12.955610218, 55.592149284499989 ] } },
{ "type": "Feature", "properties": { "AADT": 21200, "TR_pct_AADT": 16.0, "raw_name": "VÄSTKUSTVÄGEN", "raw_oneway": false, "osm_name": "Västkustvägen", "osm_type": "trunk", "osm_lanes": 2.0, "osm_oneway": "True", "osm_distance": 11.068749926840152, "osmid": 386655224.0 }, "geometry": { "type": "Point", "coordinates": [ 13.0548771411, 55.63086730765 ] } },
{ "type": "Feature", "properties": { "AADT": 11300, "TR_pct_AADT": 9.0, "raw_name": "VÄSTRA VARVSGATAN", "raw_oneway": false, "osm_name": "Västra Varvsgatan", "osm_type": "tertiary", "osm_lanes": 2.0, "osm_oneway": "True", "osm_distance": 8.480980585857905, "osmid": 149413684.0 }, "geometry": { "type": "Point", "coordinates": [ 12.9789182275633, 55.607140778554459 ] } },
{ "type": "Feature", "properties": { "AADT": 12800, "TR_pct_AADT": 10.0, "raw_name": "REGEMENTSGATAN", "raw_oneway": false, "osm_name": "Regementsgatan", "osm_type": "secondary", "osm_lanes": 2.0, "osm_oneway": "True", "osm_distance": 2.4422573511901589, "osmid": 23654462.0 }, "geometry": { "type": "Point", "coordinates": [ 12.994335684599998, 55.600124577949998 ] } },
{ "type": "Feature", "properties": { "AADT": 11800, "TR_pct_AADT": 14.0, "raw_name": "LUNDAVÄGEN", "raw_oneway": false, "osm_name": "Lundavägen", "osm_type": "secondary", "osm_lanes": 1.0, "osm_oneway": "True", "osm_distance": 3.433899206859071, "osmid": 139768835.0 }, "geometry": { "type": "Point", "coordinates": [ 13.032313069879649, 55.609517045440107 ] } },
{ "type": "Feature", "properties": { "AADT": 24800, "TR_pct_AADT": 22.0, "raw_name": "INRE RINGVÄGEN", "raw_oneway": false, "osm_name": "Inre Ringvägen", "osm_type": "motorway", "osm_lanes": 2.0, "osm_oneway": "True", "osm_distance": 5.4359308659817165, "osmid": 281921295.0 }, "geometry": { "type": "Point", "coordinates": [ 13.055160017950001, 55.625495761849997 ] } },
{ "type": "Feature", "properties": { "AADT": 8500, "TR_pct_AADT": 8.0, "raw_name": "PETERSBORGS TRAFIKPLATS", "raw_oneway": false, "osm_name": null, "osm_type": "motorway_link", "osm_lanes": 2.0, "osm_oneway": "True", "osm_distance": 0.25603563654961864, "osmid": 301812680.0 }, "geometry": { "type": "Point", "coordinates": [ 13.00011575195, 55.550694077399996 ] } },
{ "type": "Feature", "properties": { "AADT": 29100, "TR_pct_AADT": 6.0, "raw_name": "HORNSGATAN", "raw_oneway": false, "osm_name": "Hornsgatan", "osm_type": "secondary", "osm_lanes": 3.0, "osm_oneway": "True", "osm_distance": 2.570126395876033, "osmid": 136773630.0 }, "geometry": { "type": "Point", "coordinates": [ 13.024518587142785, 55.608382668949368 ] } },
{ "type": "Feature", "properties": { "AADT": 5700, "TR_pct_AADT": 16.0, "raw_name": "BRONSÅLDERSGATAN", "raw_oneway": false, "osm_name": "Bronsåldersgatan", "osm_type": "unclassified", "osm_lanes": 2.0, "osm_oneway": null, "osm_distance": 0.10634379207324979, "osmid": 28766904.0 }, "geometry": { "type": "Point", "coordinates": [ 13.0347089878, 55.551483217949993 ] } },
{ "type": "Feature", "properties": { "AADT": 500, "TR_pct_AADT": 12.0, "raw_name": "RONNEBYGATAN", "raw_oneway": false, "osm_name": "Ronnebygatan", "osm_type": "residential", "osm_lanes": null, "osm_oneway": null, "osm_distance": 0.55822463465495087, "osmid": 37061885.0 }, "geometry": { "type": "Point", "coordinates": [ 13.020018770650001, 55.593818351850004 ] } },
{ "type": "Feature", "properties": { "AADT": 900, "TR_pct_AADT": 6.0, "raw_name": "KVARNBYVÄGEN", "raw_oneway": false, "osm_name": "Östra Kattarpsvägen", "osm_type": "tertiary", "osm_lanes": null, "osm_oneway": null, "osm_distance": 0.073943556318608994, "osmid": 295159938.0 }, "geometry": { "type": "Point", "coordinates": [ 13.09725580075, 55.574774065749999 ] } },
{ "type": "Feature", "properties": { "AADT": 50, "TR_pct_AADT": 16.0, "raw_name": "KVARNBYVÄGEN", "raw_oneway": false, "osm_name": "Kvarnbyvägen", "osm_type": "residential", "osm_lanes": null, "osm_oneway": null, "osm_distance": 0.40432753103687197, "osmid": 28951100.0 }, "geometry": { "type": "Point", "coordinates": [ 13.097689372849997, 55.574536772750001 ] } },
{ "type": "Feature", "properties": { "AADT": 11600, "TR_pct_AADT": 6.0, "raw_name": "LÖNNGATAN", "raw_oneway": false, "osm_name": "Lönngatan", "osm_type": "tertiary", "osm_lanes": 2.0, "osm_oneway": null, "osm_distance": 0.74146816182721009, "osmid": 1196741311.0 }, "geometry": { "type": "Point", "coordinates": [ 13.0263823871, 55.581443104599998 ] } },
{ "type": "Feature", "properties": { "AADT": 26900, "TR_pct_AADT": 15.0, "raw_name": "VÄG11", "raw_oneway": false, "osm_name": null, "osm_type": "motorway", "osm_lanes": 2.0, "osm_oneway": "True", "osm_distance": 5.3025186075556086, "osmid": 135935011.0 }, "geometry": { "type": "Point", "coordinates": [ 13.098719294622686, 55.609428060922944 ] } },
{ "type": "Feature", "properties": { "AADT": 6000, "TR_pct_AADT": 7.0, "raw_name": "ÖSTRA FARMVÄGEN", "raw_oneway": false, "osm_name": "Östra Farmvägen", "osm_type": "tertiary", "osm_lanes": 2.0, "osm_oneway": null, "osm_distance": 1.3833825593515929, "osmid": 159090936.0 }, "geometry": { "type": "Point", "coordinates": [ 13.027693686900001, 55.591302000500001 ] } },
{ "type": "Feature", "properties": { "AADT": 14000, "TR_pct_AADT": 6.0, "raw_name": "JOHN ERICSSONS VÄG", "raw_oneway": false, "osm_name": "John Ericssons väg", "osm_type": "secondary", "osm_lanes": 2.0, "osm_oneway": "True", "osm_distance": 2.9226887873300869, "osmid": 28552875.0 }, "geometry": { "type": "Point", "coordinates": [ 13.00066352616885, 55.586322091626869 ] } },
{ "type": "Feature", "properties": { "AADT": 15200, "TR_pct_AADT": 6.0, "raw_name": "NOBELVÄGEN", "raw_oneway": false, "osm_name": "Nobelvägen", "osm_type": "secondary", "osm_lanes": 2.0, "osm_oneway": "True", "osm_distance": 3.930704126473842, "osmid": 389936833.0 }, "geometry": { "type": "Point", "coordinates": [ 13.019865904850001, 55.592805524200003 ] } },
{ "type": "Feature", "properties": { "AADT": 3600, "TR_pct_AADT": 21.0, "raw_name": "BORRGATAN", "raw_oneway": false, "osm_name": "Borrgatan", "osm_type": "unclassified", "osm_lanes": null, "osm_oneway": null, "osm_distance": 0.28037001049403615, "osmid": 141654179.0 }, "geometry": { "type": "Point", "coordinates": [ 13.021207476600001, 55.615524833850003 ] } },
{ "type": "Feature", "properties": { "AADT": 10100, "TR_pct_AADT": 11.0, "raw_name": "JÄGERSROVÄGEN", "raw_oneway": false, "osm_name": "Jägersrovägen", "osm_type": "secondary", "osm_lanes": 2.0, "osm_oneway": "True", "osm_distance": 3.020842167410438, "osmid": 28757340.0 }, "geometry": { "type": "Point", "coordinates": [ 13.057799478165629, 55.571286544524803 ] } },
{ "type": "Feature", "properties": { "AADT": 8900, "TR_pct_AADT": 10.0, "raw_name": "AGNESFRIDSVÄGEN", "raw_oneway": false, "osm_name": "Agnesfridsvägen", "osm_type": "secondary", "osm_lanes": null, "osm_oneway": null, "osm_distance": 0.17080259689877295, "osmid": 1141987978.0 }, "geometry": { "type": "Point", "coordinates": [ 13.04978739255, 55.566590956550002 ] } },
{ "type": "Feature", "properties": { "AADT": 10000, "TR_pct_AADT": 15.0, "raw_name": "MUNKHÄTTEGATAN", "raw_oneway": false, "osm_name": "Munkhättegatan", "osm_type": "tertiary", "osm_lanes": 2.0, "osm_oneway": "True", "osm_distance": 3.7107294645416067, "osmid": 28826828.0 }, "geometry": { "type": "Point", "coordinates": [ 13.012026931081225, 55.558756654207485 ] } },
{ "type": "Feature", "properties": { "AADT": 1200, "TR_pct_AADT": 7.0, "raw_name": "BADVÄGEN", "raw_oneway": false, "osm_name": "Badvägen", "osm_type": "unclassified", "osm_lanes": null, "osm_oneway": null, "osm_distance": 0.12025628598388097, "osmid": 964735281.0 }, "geometry": { "type": "Point", "coordinates": [ 12.93832294025, 55.526345325050002 ] } },
{ "type": "Feature", "properties": { "AADT": 3500, "TR_pct_AADT": 10.0, "raw_name": "ELISEDALSVÄGEN", "raw_oneway": false, "osm_name": "Elisedalsvägen", "osm_type": "tertiary", "osm_lanes": null, "osm_oneway": null, "osm_distance": 0.69758204225205656, "osmid": 28288768.0 }, "geometry": { "type": "Point", "coordinates": [ 13.08553382325, 55.565836193349995 ] } },
{ "type": "Feature", "properties": { "AADT": 14800, "TR_pct_AADT": 7.0, "raw_name": "NOBELVÄGEN", "raw_oneway": false, "osm_name": "Nobelvägen", "osm_type": "secondary", "osm_lanes": 2.0, "osm_oneway": "True", "osm_distance": 4.2371935240175613, "osmid": 160904786.0 }, "geometry": { "type": "Point", "coordinates": [ 13.018945939117968, 55.592070518143451 ] } },
{ "type": "Feature", "properties": { "AADT": 9800, "TR_pct_AADT": 8.0, "raw_name": "KÄGLINGEVÄGEN", "raw_oneway": false, "osm_name": "Käglingevägen", "osm_type": "secondary", "osm_lanes": 1.0, "osm_oneway": "True", "osm_distance": 0.44176878802439123, "osmid": 295308488.0 }, "geometry": { "type": "Point", "coordinates": [ 13.064069836750001, 55.554966576199995 ] } },
{ "type": "Feature", "properties": { "AADT": 4400, "TR_pct_AADT": 4.0, "raw_name": "AXEL DANIELSSONS VÄG", "raw_oneway": false, "osm_name": "Axel Danielssons väg", "osm_type": "tertiary", "osm_lanes": 2.0, "osm_oneway": null, "osm_distance": 0.91196300999946001, "osmid": 289656632.0 }, "geometry": { "type": "Point", "coordinates": [ 12.994180942599998, 55.565032824349998 ] } },
{ "type": "Feature", "properties": { "AADT": 3800, "TR_pct_AADT": 8.0, "raw_name": "ÄLVSBORGSBRON", "raw_oneway": false, "osm_name": "Älvsborgsbron", "osm_type": "tertiary", "osm_lanes": 3.0, "osm_oneway": null, "osm_distance": 1.478546976884306, "osmid": 28302746.0 }, "geometry": { "type": "Point", "coordinates": [ 12.9960990935, 55.607285621850004 ] } },
{ "type": "Feature", "properties": { "AADT": 9900, "TR_pct_AADT": 11.0, "raw_name": "VATTENVERKSVÄGEN", "raw_oneway": false, "osm_name": "Vattenverksvägen", "osm_type": "tertiary", "osm_lanes": 2.0, "osm_oneway": null, "osm_distance": 1.1107753775154474, "osmid": 140312309.0 }, "geometry": { "type": "Point", "coordinates": [ 13.06129177355, 55.609464213599999 ] } },
{ "type": "Feature", "properties": { "AADT": 9300, "TR_pct_AADT": 5.0, "raw_name": "THOMSONS VÄG", "raw_oneway": false, "osm_name": "Thomsons väg", "osm_type": "residential", "osm_lanes": 1.0, "osm_oneway": "True", "osm_distance": 1.5495970344019512, "osmid": 28665278.0 }, "geometry": { "type": "Point", "coordinates": [ 13.054355171488478, 55.58338593984621 ] } },
{ "type": "Feature", "properties": { "AADT": 4800, "TR_pct_AADT": 4.0, "raw_name": "TRELLEBORGSVÄGEN", "raw_oneway": false, "osm_name": null, "osm_type": "motorway_link", "osm_lanes": 2.0, "osm_oneway": "True", "osm_distance": 2.0116806212165255, "osmid": 136744204.0 }, "geometry": { "type": "Point", "coordinates": [ 13.0030277383, 55.566257805299998 ] } },
{ "type": "Feature", "properties": { "AADT": 9400, "TR_pct_AADT": 14.0, "raw_name": "SEGEMÖLLEGATAN", "raw_oneway": false, "osm_name": "Segemöllegatan", "osm_type": "tertiary", "osm_lanes": 1.0, "osm_oneway": "True", "osm_distance": 6.7005702360403037, "osmid": 270124689.0 }, "geometry": { "type": "Point", "coordinates": [ 13.062712342351949, 55.610439980760965 ] } },
{ "type": "Feature", "properties": { "AADT": 600, "TR_pct_AADT": 10.0, "raw_name": "MARIAGATAN", "raw_oneway": false, "osm_name": "Mariagatan", "osm_type": "living_street", "osm_lanes": null, "osm_oneway": null, "osm_distance": 0.65665298628949031, "osmid": 226863989.0 }, "geometry": { "type": "Point", "coordinates": [ 13.017750045500001, 55.595683561650006 ] } },
{ "type": "Feature", "properties": { "AADT": 46500, "TR_pct_AADT": 8.0, "raw_name": "STOCKHOLMSVÄGEN", "raw_oneway": false, "osm_name": null, "osm_type": "motorway", "osm_lanes": 2.0, "osm_oneway": "True", "osm_distance": 3.2518603750374147, "osmid": 301890309.0 }, "geometry": { "type": "Point", "coordinates": [ 13.066548576, 55.623411516399997 ] } },
{ "type": "Feature", "properties": { "AADT": 18200, "TR_pct_AADT": 10.0, "raw_name": "AMIRALSGATAN", "raw_oneway": false, "osm_name": "Amiralsgatan", "osm_type": "secondary", "osm_lanes": 2.0, "osm_oneway": null, "osm_distance": 0.34245725347679074, "osmid": 126497649.0 }, "geometry": { "type": "Point", "coordinates": [ 13.0608506248, 55.580384315049997 ] } },
{ "type": "Feature", "properties": { "AADT": 15800, "TR_pct_AADT": 7.0, "raw_name": "LORENSBORGSGATAN", "raw_oneway": false, "osm_name": "Lorensborgsgatan", "osm_type": "secondary", "osm_lanes": 2.0, "osm_oneway": null, "osm_distance": 0.10278733893530863, "osmid": 149178397.0 }, "geometry": { "type": "Point", "coordinates": [ 12.956430525750001, 55.557469625099998 ] } },
{ "type": "Feature", "properties": { "AADT": 7700, "TR_pct_AADT": 9.0, "raw_name": "AXEL DANIELSSONS VÄG", "raw_oneway": false, "osm_name": "Axel Danielssons väg", "osm_type": "tertiary", "osm_lanes": 1.0, "osm_oneway": "True", "osm_distance": 1.6238489568939469, "osmid": 28550677.0 }, "geometry": { "type": "Point", "coordinates": [ 13.010488940949999, 55.558387013699999 ] } },
{ "type": "Feature", "properties": { "AADT": 17400, "TR_pct_AADT": 6.0, "raw_name": "TRELLEBORGSVÄGEN", "raw_oneway": false, "osm_name": "Trelleborgsvägen", "osm_type": "secondary", "osm_lanes": 2.0, "osm_oneway": "True", "osm_distance": 6.5139106346776119, "osmid": 301813853.0 }, "geometry": { "type": "Point", "coordinates": [ 13.005434485193891, 55.57972252839442 ] } },
{ "type": "Feature", "properties": { "AADT": 66500, "TR_pct_AADT": 11.0, "raw_name": "INRE RINGVÄGEN", "raw_oneway": false, "osm_name": "Inre Ringvägen", "osm_type": "motorway", "osm_lanes": 2.0, "osm_oneway": "True", "osm_distance": 10.566164000689195, "osmid": 27646934.0 }, "geometry": { "type": "Point", "coordinates": [ 13.053978035027846, 55.593317075515778 ] } },
{ "type": "Feature", "properties": { "AADT": 6500, "TR_pct_AADT": 25.0, "raw_name": "KANTYXEGATAN", "raw_oneway": false, "osm_name": "Kantyxegatan", "osm_type": "tertiary", "osm_lanes": 2.0, "osm_oneway": null, "osm_distance": 0.10610267318408731, "osmid": 283526761.0 }, "geometry": { "type": "Point", "coordinates": [ 13.05679059805, 55.561769959149998 ] } },
{ "type": "Feature", "properties": { "AADT": 12600, "TR_pct_AADT": 47.0, "raw_name": "SPILLEPENGSGATAN", "raw_oneway": false, "osm_name": "Spillepengsgatan", "osm_type": "tertiary", "osm_lanes": 2.0, "osm_oneway": "True", "osm_distance": 2.8142555264831959, "osmid": 148489995.0 }, "geometry": { "type": "Point", "coordinates": [ 13.049118059500001, 55.627542087649999 ] } },
{ "type": "Feature", "properties": { "AADT": 800, "TR_pct_AADT": 47.0, "raw_name": "VERKÖGATAN", "raw_oneway": false, "osm_name": "Verkögatan", "osm_type": "unclassified", "osm_lanes": null, "osm_oneway": null, "osm_distance": 0.34473796470989454, "osmid": 718209946.0 }, "geometry": { "type": "Point", "coordinates": [ 13.0085323128, 55.631117496450003 ] } },
{ "type": "Feature", "properties": { "AADT": 2700, "TR_pct_AADT": 10.0, "raw_name": "SLÄTTÄNGSVÄGEN", "raw_oneway": false, "osm_name": "Slättängsvägen", "osm_type": "tertiary", "osm_lanes": null, "osm_oneway": null, "osm_distance": 1.7760578243084693, "osmid": 24249935.0 }, "geometry": { "type": "Point", "coordinates": [ 12.938974203, 55.525715511599998 ] } },
{ "type": "Feature", "properties": { "AADT": 2700, "TR_pct_AADT": 26.0, "raw_name": "HYLLIE BOULEVARD", "raw_oneway": false, "osm_name": "Hövdingevägen", "osm_type": "residential", "osm_lanes": 2.0, "osm_oneway": null, "osm_distance": 0.19809916144001663, "osmid": 571066248.0 }, "geometry": { "type": "Point", "coordinates": [ 12.981846747600001, 55.554486070750002 ] } },
{ "type": "Feature", "properties": { "AADT": 1200, "TR_pct_AADT": 5.0, "raw_name": "NORRA HYLLIEVÄGEN", "raw_oneway": false, "osm_name": "Norra Hyllievägen", "osm_type": "residential", "osm_lanes": null, "osm_oneway": "False", "osm_distance": 0.64724602555020183, "osmid": 918028014.0 }, "geometry": { "type": "Point", "coordinates": [ 12.952688005400001, 55.574165151049996 ] } },
{ "type": "Feature", "properties": { "AADT": 4800, "TR_pct_AADT": 28.0, "raw_name": "BORRGATAN", "raw_oneway": false, "osm_name": "Borrgatan", "osm_type": "unclassified", "osm_lanes": null, "osm_oneway": null, "osm_distance": 0.29722234080543886, "osmid": 696522195.0 }, "geometry": { "type": "Point", "coordinates": [ 13.046466643750001, 55.626933573050003 ] } },
{ "type": "Feature", "properties": { "AADT": 5800, "TR_pct_AADT": 13.0, "raw_name": "FLYGFÄLTSVÄGEN", "raw_oneway": false, "osm_name": "Flygfältsvägen", "osm_type": "tertiary", "osm_lanes": 1.0, "osm_oneway": "True", "osm_distance": 3.1361144087319701, "osmid": 249169270.0 }, "geometry": { "type": "Point", "coordinates": [ 13.063776853499999, 55.6087337644 ] } },
{ "type": "Feature", "properties": { "AADT": 21500, "TR_pct_AADT": 6.0, "raw_name": "LORENSBORGSGATAN", "raw_oneway": false, "osm_name": "Lorensborgsgatan", "osm_type": "secondary", "osm_lanes": 2.0, "osm_oneway": "True", "osm_distance": 9.3337400733470179, "osmid": 30070610.0 }, "geometry": { "type": "Point", "coordinates": [ 12.968936905231866, 55.567701759764617 ] } },
{ "type": "Feature", "properties": { "AADT": 4400, "TR_pct_AADT": 7.0, "raw_name": "SLÄTTÄNGSVÄGEN", "raw_oneway": false, "osm_name": "Slättängsvägen", "osm_type": "tertiary", "osm_lanes": 2.0, "osm_oneway": null, "osm_distance": 0.30794648374812983, "osmid": 24250126.0 }, "geometry": { "type": "Point", "coordinates": [ 12.941388286, 55.529366340400003 ] } },
{ "type": "Feature", "properties": { "AADT": 29900, "TR_pct_AADT": 13.0, "raw_name": "ÖSTERLENVÄGEN", "raw_oneway": false, "osm_name": "Österlenvägen", "osm_type": "motorway", "osm_lanes": 2.0, "osm_oneway": "True", "osm_distance": 5.7298938740254739, "osmid": 1311623785.0 }, "geometry": { "type": "Point", "coordinates": [ 13.075910914581319, 55.604608934141119 ] } },
{ "type": "Feature", "properties": { "AADT": 3800, "TR_pct_AADT": 13.0, "raw_name": "ANNETORPSVÄGEN", "raw_oneway": false, "osm_name": null, "osm_type": "primary_link", "osm_lanes": 1.0, "osm_oneway": "True", "osm_distance": 1.103984830247678, "osmid": 326226463.0 }, "geometry": { "type": "Point", "coordinates": [ 12.973872513749999, 55.566503840150013 ] } },
{ "type": "Feature", "properties": { "AADT": 25900, "TR_pct_AADT": 13.0, "raw_name": "YTTRE RINGVÄGEN", "raw_oneway": false, "osm_name": null, "osm_type": null, "osm_lanes": null, "osm_oneway": null, "osm_distance": null, "osmid": null }, "geometry": { "type": "Point", "coordinates": [ 12.969970391436988, 55.547100925167669 ] } },
{ "type": "Feature", "properties": { "AADT": 3100, "TR_pct_AADT": 10.0, "raw_name": "KVARNBYVÄGEN", "raw_oneway": false, "osm_name": "Kvarnbyvägen", "osm_type": "tertiary", "osm_lanes": null, "osm_oneway": null, "osm_distance": 2.6763230396505082, "osmid": 28612821.0 }, "geometry": { "type": "Point", "coordinates": [ 13.09616927075, 55.575053253299998 ] } },
{ "type": "Feature", "properties": { "AADT": 13200, "TR_pct_AADT": 5.0, "raw_name": "LANTMANNAGATAN", "raw_oneway": false, "osm_name": "Lantmannagatan", "osm_type": "tertiary", "osm_lanes": 4.0, "osm_oneway": null, "osm_distance": 1.8383105035225131, "osmid": 226873730.0 }, "geometry": { "type": "Point", "coordinates": [ 13.01975331355, 55.580627380199999 ] } },
{ "type": "Feature", "properties": { "AADT": 7300, "TR_pct_AADT": 10.0, "raw_name": "LUNDAVÄGEN", "raw_oneway": false, "osm_name": "Lundavägen", "osm_type": "secondary", "osm_lanes": 2.0, "osm_oneway": "True", "osm_distance": 3.9383564899091552, "osmid": 308624559.0 }, "geometry": { "type": "Point", "coordinates": [ 13.066459581549999, 55.628014835149997 ] } },
{ "type": "Feature", "properties": { "AADT": 2200, "TR_pct_AADT": 10.0, "raw_name": "GALGEBACKSVÄGEN", "raw_oneway": false, "osm_name": "Galgebacksvägen", "osm_type": "tertiary", "osm_lanes": null, "osm_oneway": null, "osm_distance": 0.25599015262156355, "osmid": 1221232395.0 }, "geometry": { "type": "Point", "coordinates": [ 13.087892998499999, 55.545105018699999 ] } },
{ "type": "Feature", "properties": { "AADT": 17100, "TR_pct_AADT": 9.0, "raw_name": "SALLERUPSVÄGEN", "raw_oneway": false, "osm_name": "Sallerupsvägen", "osm_type": "secondary", "osm_lanes": 3.0, "osm_oneway": "True", "osm_distance": 2.5868802416881569, "osmid": 232075236.0 }, "geometry": { "type": "Point", "coordinates": [ 13.037469745694263, 55.601378102510033 ] } },
{ "type": "Feature", "properties": { "AADT": 100, "TR_pct_AADT": 6.0, "raw_name": "ÅKERÖGATAN", "raw_oneway": false, "osm_name": "Åkerögatan", "osm_type": "residential", "osm_lanes": null, "osm_oneway": null, "osm_distance": 0.13121263102330114, "osmid": 28191797.0 }, "geometry": { "type": "Point", "coordinates": [ 13.0431607869, 55.612865030649999 ] } },
{ "type": "Feature", "properties": { "AADT": 47600, "TR_pct_AADT": 15.0, "raw_name": "YTTRE RINGVÄGEN", "raw_oneway": false, "osm_name": "Yttre Ringvägen", "osm_type": "motorway", "osm_lanes": 2.0, "osm_oneway": "True", "osm_distance": 12.268343136982619, "osmid": 28612816.0 }, "geometry": { "type": "Point", "coordinates": [ 13.114413296857755, 55.586358117125336 ] } },
{ "type": "Feature", "properties": { "AADT": 2900, "TR_pct_AADT": 5.0, "raw_name": "HUSIEVÄGEN", "raw_oneway": false, "osm_name": "Husievägen", "osm_type": "tertiary", "osm_lanes": null, "osm_oneway": null, "osm_distance": 0.49057852262074053, "osmid": 1141987965.0 }, "geometry": { "type": "Point", "coordinates": [ 13.085084266900001, 55.576249686950007 ] } },
{ "type": "Feature", "properties": { "AADT": 100, "TR_pct_AADT": 7.0, "raw_name": "ÅKERÖGATAN", "raw_oneway": false, "osm_name": "Åkerögatan", "osm_type": "residential", "osm_lanes": null, "osm_oneway": null, "osm_distance": 0.14472160402391371, "osmid": 28191797.0 }, "geometry": { "type": "Point", "coordinates": [ 13.045211973600001, 55.611374449500005 ] } },
{ "type": "Feature", "properties": { "AADT": 11100, "TR_pct_AADT": 13.0, "raw_name": "LUNDAVÄGEN", "raw_oneway": false, "osm_name": "Lundavägen", "osm_type": "secondary", "osm_lanes": 2.0, "osm_oneway": "True", "osm_distance": 3.3158161662741588, "osmid": 28460433.0 }, "geometry": { "type": "Point", "coordinates": [ 13.041492205725447, 55.613997871061216 ] } },
{ "type": "Feature", "properties": { "AADT": 14600, "TR_pct_AADT": 7.0, "raw_name": "DROTTNINGGATAN", "raw_oneway": false, "osm_name": "Drottninggatan", "osm_type": "secondary", "osm_lanes": 2.0, "osm_oneway": "True", "osm_distance": 5.4880556083625232, "osmid": 136773633.0 }, "geometry": { "type": "Point", "coordinates": [ 13.020677006460412, 55.607038804149894 ] } },
{ "type": "Feature", "properties": { "AADT": 100, "TR_pct_AADT": 21.0, "raw_name": "KÄRLEKSGATAN", "raw_oneway": false, "osm_name": "Kärleksgatan", "osm_type": "residential", "osm_lanes": null, "osm_oneway": null, "osm_distance": 0.27935889007249648, "osmid": 29067890.0 }, "geometry": { "type": "Point", "coordinates": [ 13.000171553400001, 55.599058412700003 ] } },
{ "type": "Feature", "properties": { "AADT": 3300, "TR_pct_AADT": 23.0, "raw_name": "LODGATAN", "raw_oneway": false, "osm_name": "Lodgatan", "osm_type": "unclassified", "osm_lanes": null, "osm_oneway": null, "osm_distance": 0.60487999690220329, "osmid": 126738605.0 }, "geometry": { "type": "Point", "coordinates": [ 13.020386048800001, 55.615849133099999 ] } },
{ "type": "Feature", "properties": { "AADT": 500, "TR_pct_AADT": 9.0, "raw_name": "SORGENFRIVÄGEN", "raw_oneway": false, "osm_name": "Sorgenfrivägen", "osm_type": "residential", "osm_lanes": null, "osm_oneway": "True", "osm_distance": 1.4419651893583008, "osmid": 37183737.0 }, "geometry": { "type": "Point", "coordinates": [ 13.022197461299999, 55.596324141650001 ] } },
{ "type": "Feature", "properties": { "AADT": 11800, "TR_pct_AADT": 8.0, "raw_name": "JÄGERSROVÄGEN", "raw_oneway": false, "osm_name": "Jägersrovägen", "osm_type": "tertiary", "osm_lanes": 2.0, "osm_oneway": null, "osm_distance": 0.66913917385466959, "osmid": 25045193.0 }, "geometry": { "type": "Point", "coordinates": [ 13.055333731699999, 55.572130247049998 ] } },
{ "type": "Feature", "properties": { "AADT": 900, "TR_pct_AADT": 7.0, "raw_name": "SOFIELUNDSVÄGEN", "raw_oneway": false, "osm_name": "Sofielundsvägen", "osm_type": "residential", "osm_lanes": null, "osm_oneway": null, "osm_distance": 0.031956414129989757, "osmid": 1279609441.0 }, "geometry": { "type": "Point", "coordinates": [ 13.0139446185, 55.589516811300001 ] } },
{ "type": "Feature", "properties": { "AADT": 10800, "TR_pct_AADT": 22.0, "raw_name": "CARL GUSTAFS VÄG", "raw_oneway": false, "osm_name": "Carl Gustavs väg", "osm_type": "tertiary", "osm_lanes": 2.0, "osm_oneway": "True", "osm_distance": 3.2086427755891211, "osmid": 992016363.0 }, "geometry": { "type": "Point", "coordinates": [ 13.000086406468794, 55.59131965741134 ] } },
{ "type": "Feature", "properties": { "AADT": 9300, "TR_pct_AADT": 7.0, "raw_name": "PILDAMMSVÄGEN", "raw_oneway": false, "osm_name": "Pildammsvägen", "osm_type": "secondary", "osm_lanes": 4.0, "osm_oneway": "True", "osm_distance": 3.018405863435706, "osmid": 39108310.0 }, "geometry": { "type": "Point", "coordinates": [ 12.982568451053282, 55.549861658874555 ] } },
{ "type": "Feature", "properties": { "AADT": 7000, "TR_pct_AADT": 37.0, "raw_name": "BELLEVUEVÄGEN", "raw_oneway": false, "osm_name": "Bellevuevägen", "osm_type": "tertiary", "osm_lanes": 2.0, "osm_oneway": null, "osm_distance": 0.80585198683814363, "osmid": 586404109.0 }, "geometry": { "type": "Point", "coordinates": [ 12.97220861155, 55.592076266399999 ] } },
{ "type": "Feature", "properties": { "AADT": 11300, "TR_pct_AADT": 6.0, "raw_name": "JOHN ERICSSONS VÄG", "raw_oneway": false, "osm_name": "John Ericssons väg", "osm_type": "secondary", "osm_lanes": 2.0, "osm_oneway": "True", "osm_distance": 2.6360363731499481, "osmid": 28552877.0 }, "geometry": { "type": "Point", "coordinates": [ 12.997246507166697, 55.586467247599302 ] } },
{ "type": "Feature", "properties": { "AADT": 12300, "TR_pct_AADT": 6.0, "raw_name": "GOTTORPSVÄGEN", "raw_oneway": false, "osm_name": "Gottorpsvägen", "osm_type": "tertiary", "osm_lanes": null, "osm_oneway": null, "osm_distance": 0.0059518216014169383, "osmid": 25046574.0 }, "geometry": { "type": "Point", "coordinates": [ 12.943134171250001, 55.557169984950008 ] } },
{ "type": "Feature", "properties": { "AADT": 6800, "TR_pct_AADT": 6.0, "raw_name": "GEIJERSGATAN", "raw_oneway": false, "osm_name": "Geijersgatan", "osm_type": "tertiary", "osm_lanes": 2.0, "osm_oneway": "False", "osm_distance": 0.05693796497691693, "osmid": 24557264.0 }, "geometry": { "type": "Point", "coordinates": [ 12.960238876150001, 55.584168124249992 ] } },
{ "type": "Feature", "properties": { "AADT": 13900, "TR_pct_AADT": 11.0, "raw_name": "LUNDAVÄGEN", "raw_oneway": false, "osm_name": "Lundavägen", "osm_type": "secondary", "osm_lanes": 1.0, "osm_oneway": "True", "osm_distance": 6.231256491183383, "osmid": 139768835.0 }, "geometry": { "type": "Point", "coordinates": [ 13.028807952511345, 55.607861285990296 ] } },
{ "type": "Feature", "properties": { "AADT": 9100, "TR_pct_AADT": 7.0, "raw_name": "SALLERUPSVÄGEN", "raw_oneway": false, "osm_name": "Malmövägen", "osm_type": "secondary", "osm_lanes": null, "osm_oneway": null, "osm_distance": 0.22645895062451635, "osmid": 549045807.0 }, "geometry": { "type": "Point", "coordinates": [ 13.147005260899999, 55.5800435855 ] } },
{ "type": "Feature", "properties": { "AADT": 2000, "TR_pct_AADT": 11.0, "raw_name": "BORREBACKEVÄGEN", "raw_oneway": false, "osm_name": "Borrebackevägen", "osm_type": "tertiary", "osm_lanes": null, "osm_oneway": null, "osm_distance": 0.10631937598737169, "osmid": 174377631.0 }, "geometry": { "type": "Point", "coordinates": [ 12.929640920050002, 55.529968875549997 ] } },
{ "type": "Feature", "properties": { "AADT": 3800, "TR_pct_AADT": 6.0, "raw_name": "GALGEBACKSVÄGEN", "raw_oneway": false, "osm_name": "Galgebacksvägen", "osm_type": "tertiary", "osm_lanes": null, "osm_oneway": null, "osm_distance": 1.717331512053333, "osmid": 139648144.0 }, "geometry": { "type": "Point", "coordinates": [ 13.0853348636, 55.538147220349998 ] } },
{ "type": "Feature", "properties": { "AADT": 6700, "TR_pct_AADT": 8.0, "raw_name": "KÄGLINGEVÄGEN", "raw_oneway": false, "osm_name": "Käglingevägen", "osm_type": "secondary", "osm_lanes": 2.0, "osm_oneway": null, "osm_distance": 0.65252778308984172, "osmid": 250647367.0 }, "geometry": { "type": "Point", "coordinates": [ 13.074486342250001, 55.537892102550003 ] } },
{ "type": "Feature", "properties": { "AADT": 16500, "TR_pct_AADT": 5.0, "raw_name": "PILDAMMSVÄGEN", "raw_oneway": false, "osm_name": "Pildammsvägen", "osm_type": "secondary", "osm_lanes": 2.0, "osm_oneway": "True", "osm_distance": 7.7028593305126742, "osmid": 28562024.0 }, "geometry": { "type": "Point", "coordinates": [ 12.999146654194556, 55.585623403928714 ] } },
{ "type": "Feature", "properties": { "AADT": 9600, "TR_pct_AADT": 7.0, "raw_name": "AGNESFRIDSVÄGEN", "raw_oneway": false, "osm_name": "Agnesfridsvägen", "osm_type": "tertiary", "osm_lanes": 2.0, "osm_oneway": null, "osm_distance": 2.3864420460909681, "osmid": 46126953.0 }, "geometry": { "type": "Point", "coordinates": [ 13.0639822819, 55.580403098749997 ] } },
{ "type": "Feature", "properties": { "AADT": 12200, "TR_pct_AADT": 11.0, "raw_name": "BERGSGATAN", "raw_oneway": false, "osm_name": "Bergsgatan", "osm_type": "tertiary", "osm_lanes": 2.0, "osm_oneway": "True", "osm_distance": 6.4710266424291509, "osmid": 148522106.0 }, "geometry": { "type": "Point", "coordinates": [ 13.008064433644407, 55.593737744594748 ] } },
{ "type": "Feature", "properties": { "AADT": 6600, "TR_pct_AADT": 5.0, "raw_name": "PILDAMMSVÄGEN", "raw_oneway": false, "osm_name": "Pildammsvägen", "osm_type": "secondary", "osm_lanes": 2.0, "osm_oneway": null, "osm_distance": 0.011078495886968506, "osmid": 187979417.0 }, "geometry": { "type": "Point", "coordinates": [ 12.9809864377, 55.544314720599999 ] } },
{ "type": "Feature", "properties": { "AADT": 4700, "TR_pct_AADT": 15.0, "raw_name": "MÄLARBRON", "raw_oneway": false, "osm_name": "Skeppsbron", "osm_type": "tertiary", "osm_lanes": 4.0, "osm_oneway": null, "osm_distance": 0.20615562514072944, "osmid": 28290415.0 }, "geometry": { "type": "Point", "coordinates": [ 12.999360296, 55.608082043799996 ] } },
{ "type": "Feature", "properties": { "AADT": 4500, "TR_pct_AADT": 7.0, "raw_name": "TRELLEBORGSVÄGEN", "raw_oneway": false, "osm_name": null, "osm_type": "motorway_link", "osm_lanes": 2.0, "osm_oneway": "True", "osm_distance": 0.87312134488222315, "osmid": 301817678.0 }, "geometry": { "type": "Point", "coordinates": [ 13.0018300887, 55.56638588 ] } },
{ "type": "Feature", "properties": { "AADT": 16700, "TR_pct_AADT": 12.0, "raw_name": "AMIRALSGATAN", "raw_oneway": false, "osm_name": "Amiralsgatan", "osm_type": "secondary", "osm_lanes": 2.0, "osm_oneway": "True", "osm_distance": 3.4216932437061285, "osmid": 36986968.0 }, "geometry": { "type": "Point", "coordinates": [ 13.03064080415, 55.590040923899998 ] } },
{ "type": "Feature", "properties": { "AADT": 7800, "TR_pct_AADT": 6.0, "raw_name": "BLÅSEBERGAVÄGEN", "raw_oneway": false, "osm_name": "Blåsebergavägen", "osm_type": "residential", "osm_lanes": null, "osm_oneway": "True", "osm_distance": 0.49715951433741901, "osmid": 648577869.0 }, "geometry": { "type": "Point", "coordinates": [ 12.945933483299999, 55.56955063545 ] } },
{ "type": "Feature", "properties": { "AADT": 11000, "TR_pct_AADT": 7.0, "raw_name": "JÄGERSROVÄGEN", "raw_oneway": false, "osm_name": "Jägersrovägen", "osm_type": "tertiary", "osm_lanes": 2.0, "osm_oneway": null, "osm_distance": 0.41587226786065223, "osmid": 25045193.0 }, "geometry": { "type": "Point", "coordinates": [ 13.047697796550001, 55.574766537400009 ] } },
{ "type": "Feature", "properties": { "AADT": 7200, "TR_pct_AADT": 6.0, "raw_name": "ERIKSLUSTVÄGEN", "raw_oneway": false, "osm_name": "Erikslustvägen", "osm_type": "tertiary", "osm_lanes": null, "osm_oneway": "True", "osm_distance": 3.4612534177504299, "osmid": 30626843.0 }, "geometry": { "type": "Point", "coordinates": [ 12.966757991958355, 55.59454994422066 ] } },
{ "type": "Feature", "properties": { "AADT": 30400, "TR_pct_AADT": 7.0, "raw_name": "STOCKHOLMSVÄGEN", "raw_oneway": false, "osm_name": "Stockholmsvägen", "osm_type": "motorway", "osm_lanes": 2.0, "osm_oneway": "True", "osm_distance": 2.8037964857883688, "osmid": 4453820.0 }, "geometry": { "type": "Point", "coordinates": [ 13.029035116199999, 55.609709006249993 ] } },
{ "type": "Feature", "properties": { "AADT": 4200, "TR_pct_AADT": 5.0, "raw_name": "BORREBACKEVÄGEN", "raw_oneway": false, "osm_name": "Borrebackevägen", "osm_type": "tertiary", "osm_lanes": null, "osm_oneway": null, "osm_distance": 0.13270702973608409, "osmid": 964735283.0 }, "geometry": { "type": "Point", "coordinates": [ 12.94890917795, 55.529467288199996 ] } },
{ "type": "Feature", "properties": { "AADT": 17400, "TR_pct_AADT": 11.0, "raw_name": "VÄSTKUSTVÄGEN", "raw_oneway": false, "osm_name": "Västkustvägen", "osm_type": "secondary", "osm_lanes": 2.0, "osm_oneway": "True", "osm_distance": 3.344949338362901, "osmid": 223889269.0 }, "geometry": { "type": "Point", "coordinates": [ 13.037833911762377, 55.615673999394957 ] } },
{ "type": "Feature", "properties": { "AADT": 6500, "TR_pct_AADT": 10.0, "raw_name": "FLYGFÄLTSVÄGEN", "raw_oneway": false, "osm_name": "Flygfältsvägen", "osm_type": "tertiary", "osm_lanes": 2.0, "osm_oneway": null, "osm_distance": 1.2106496253339016, "osmid": 23618417.0 }, "geometry": { "type": "Point", "coordinates": [ 13.058232652, 55.598156389899998 ] } },
{ "type": "Feature", "properties": { "AADT": 15400, "TR_pct_AADT": 7.0, "raw_name": "NOBELVÄGEN", "raw_oneway": false, "osm_name": "Nobelvägen", "osm_type": "secondary", "osm_lanes": 2.0, "osm_oneway": "True", "osm_distance": 4.3796143982067877, "osmid": 660269331.0 }, "geometry": { "type": "Point", "coordinates": [ 13.014123545429984, 55.589128743878469 ] } },
{ "type": "Feature", "properties": { "AADT": 14600, "TR_pct_AADT": 4.0, "raw_name": "STADIONGATAN", "raw_oneway": false, "osm_name": "Stadiongatan", "osm_type": "secondary", "osm_lanes": 2.0, "osm_oneway": null, "osm_distance": 0.15830637858281571, "osmid": 35261314.0 }, "geometry": { "type": "Point", "coordinates": [ 12.99450962615, 55.580313251450001 ] } },
{ "type": "Feature", "properties": { "AADT": 3400, "TR_pct_AADT": 5.0, "raw_name": "YSTADSGATAN", "raw_oneway": false, "osm_name": "Ystadsgatan", "osm_type": "residential", "osm_lanes": null, "osm_oneway": null, "osm_distance": 1.0489299655494171, "osmid": 1304052748.0 }, "geometry": { "type": "Point", "coordinates": [ 13.015906138950001, 55.589752031550006 ] } },
{ "type": "Feature", "properties": { "AADT": 3900, "TR_pct_AADT": 8.0, "raw_name": "OSHÖGAVÄGEN", "raw_oneway": false, "osm_name": "Oshögavägen", "osm_type": "tertiary", "osm_lanes": null, "osm_oneway": null, "osm_distance": 1.7913133726468882, "osmid": 27409181.0 }, "geometry": { "type": "Point", "coordinates": [ 13.106133262249999, 55.547061782750006 ] } },
{ "type": "Feature", "properties": { "AADT": 5900, "TR_pct_AADT": 3.0, "raw_name": "HANDELSGATAN", "raw_oneway": false, "osm_name": "Handelsgatan", "osm_type": "unclassified", "osm_lanes": null, "osm_oneway": null, "osm_distance": 0.81377903574903288, "osmid": 28757570.0 }, "geometry": { "type": "Point", "coordinates": [ 13.05505209685, 55.569817238100008 ] } },
{ "type": "Feature", "properties": { "AADT": 8600, "TR_pct_AADT": 15.0, "raw_name": "PER ALBIN HANSSONS VÄG", "raw_oneway": false, "osm_name": "Per Albin Hanssons väg", "osm_type": "tertiary", "osm_lanes": 2.0, "osm_oneway": "True", "osm_distance": 5.774223111207208, "osmid": 140044904.0 }, "geometry": { "type": "Point", "coordinates": [ 13.002395806919322, 55.581141149240004 ] } },
{ "type": "Feature", "properties": { "AADT": 9900, "TR_pct_AADT": 23.0, "raw_name": "TRELLEBORGSVÄGEN", "raw_oneway": false, "osm_name": null, "osm_type": "motorway_link", "osm_lanes": 2.0, "osm_oneway": "True", "osm_distance": 3.2728870325325694, "osmid": 28274462.0 }, "geometry": { "type": "Point", "coordinates": [ 13.000516801699998, 55.563654804450003 ] } },
{ "type": "Feature", "properties": { "AADT": 3800, "TR_pct_AADT": 11.0, "raw_name": "SEGEVÄGEN", "raw_oneway": false, "osm_name": "Segevägen", "osm_type": "tertiary", "osm_lanes": 2.0, "osm_oneway": null, "osm_distance": 0.064693498682542497, "osmid": 139768831.0 }, "geometry": { "type": "Point", "coordinates": [ 13.08305565185, 55.611516815200005 ] } },
{ "type": "Feature", "properties": { "AADT": 7400, "TR_pct_AADT": 24.0, "raw_name": "FLINTRÄNNEGATAN", "raw_oneway": false, "osm_name": "Flintrännegatan", "osm_type": "tertiary", "osm_lanes": 4.0, "osm_oneway": null, "osm_distance": 0.16194689385382005, "osmid": 223889261.0 }, "geometry": { "type": "Point", "coordinates": [ 13.039002970249999, 55.61801402215 ] } },
{ "type": "Feature", "properties": { "AADT": 1500, "TR_pct_AADT": 20.0, "raw_name": "HYLLIEVÅNGSVÄGEN", "raw_oneway": false, "osm_name": "Hyllievångsvägen", "osm_type": "residential", "osm_lanes": null, "osm_oneway": null, "osm_distance": 0.39670060940768592, "osmid": 92892588.0 }, "geometry": { "type": "Point", "coordinates": [ 12.980557638800001, 55.568977425450008 ] } },
{ "type": "Feature", "properties": { "AADT": 16000, "TR_pct_AADT": 5.0, "raw_name": "MARIEDALSVÄGEN", "raw_oneway": false, "osm_name": "Mariedalsvägen", "osm_type": "secondary", "osm_lanes": 2.0, "osm_oneway": null, "osm_distance": 1.1812181958161918, "osmid": 23654581.0 }, "geometry": { "type": "Point", "coordinates": [ 12.983536191900001, 55.589639782299997 ] } },
{ "type": "Feature", "properties": { "AADT": 200, "TR_pct_AADT": 47.0, "raw_name": "UTÖGATAN", "raw_oneway": false, "osm_name": "Utögatan", "osm_type": "unclassified", "osm_lanes": null, "osm_oneway": null, "osm_distance": 1.2305987454482872, "osmid": 1125363358.0 }, "geometry": { "type": "Point", "coordinates": [ 13.0141640553, 55.632029504649992 ] } },
{ "type": "Feature", "properties": { "AADT": 13000, "TR_pct_AADT": 4.0, "raw_name": "VARVSBRON", "raw_oneway": false, "osm_name": "Västra Varvsgatan", "osm_type": "tertiary", "osm_lanes": 2.0, "osm_oneway": null, "osm_distance": 0.23975715187069732, "osmid": 28289463.0 }, "geometry": { "type": "Point", "coordinates": [ 12.9789920839, 55.605873356849997 ] } },
{ "type": "Feature", "properties": { "AADT": 7500, "TR_pct_AADT": 5.0, "raw_name": "CARL GUSTAFS VÄG", "raw_oneway": false, "osm_name": "Carl Gustafs väg", "osm_type": "tertiary", "osm_lanes": 2.0, "osm_oneway": null, "osm_distance": 0.51037265495547801, "osmid": 139667349.0 }, "geometry": { "type": "Point", "coordinates": [ 12.996703211749999, 55.592663209400001 ] } }
]
}
