{
"type": "FeatureCollection",
"name": "Birmingham_AADT_2017",
"crs": { "type": "name", "properties": { "name": "urn:ogc:def:crs:OGC:1.3:CRS84" } },
"features": [
{ "type": "Feature", "properties": { "AADT": 20433, "TR_AADT": 176, "2W_AADT": 94, "raw_name": "A34", "raw_oneway": true, "raw_direction": "A4040-->B4217", "raw_techno": "Estimated using previous year's AADF on this link", "osm_name": "Stratford Road", "osm_type": "trunk", "osm_lanes": 3.0, "osm_oneway": null, "osm_distance": 4.8734880248253702, "osm_maxspeed": 48.2802, "osmid": 429870895.0 }, "geometry": { "type": "Point", "coordinates": [ -1.846684113, 52.435876842 ] } },
{ "type": "Feature", "properties": { "AADT": 23596, "TR_AADT": 989, "2W_AADT": 108, "raw_name": "A38", "raw_oneway": true, "raw_direction": "B4148-->A452", "raw_techno": "Manual count", "osm_name": "Kingsbury Road", "osm_type": "trunk", "osm_lanes": 2.0, "osm_oneway": "True", "osm_distance": 4.88196072310852, "osm_maxspeed": 64.3736, "osmid": 25695360.0 }, "geometry": { "type": "Point", "coordinates": [ -1.809857066, 52.516733232 ] } },
{ "type": "Feature", "properties": { "AADT": 29892, "TR_AADT": 539, "2W_AADT": 267, "raw_name": "A38", "raw_oneway": true, "raw_direction": "A4029-->B4217", "raw_techno": "Manual count", "osm_name": null, "osm_type": "service", "osm_lanes": null, "osm_oneway": null, "osm_distance": 4.5232519937971958, "osm_maxspeed": null, "osmid": 942630881.0 }, "geometry": { "type": "Point", "coordinates": [ -1.911663665, 52.45392311 ] } },
{ "type": "Feature", "properties": { "AADT": 21155, "TR_AADT": 629, "2W_AADT": 79, "raw_name": "A41", "raw_oneway": true, "raw_direction": "A4040 Handsworth-->LA Boundary", "raw_techno": "Estimated using previous year's AADF on this link", "osm_name": "Holyhead Road", "osm_type": "trunk", "osm_lanes": 4.0, "osm_oneway": null, "osm_distance": 1.9289135153473722, "osm_maxspeed": 48.2802, "osmid": 136914618.0 }, "geometry": { "type": "Point", "coordinates": [ -1.957227961, 52.509416285 ] } },
{ "type": "Feature", "properties": { "AADT": 11700, "TR_AADT": 180, "2W_AADT": 57, "raw_name": "A41", "raw_oneway": true, "raw_direction": "LA Boundary-->A4040 Acocks Green", "raw_techno": "Estimated using previous year's AADF on this link", "osm_name": "Warwick Road", "osm_type": "trunk", "osm_lanes": 1.0, "osm_oneway": "True", "osm_distance": 0.82148780409889344, "osm_maxspeed": 48.2802, "osmid": 42159274.0 }, "geometry": { "type": "Point", "coordinates": [ -1.824870187, 52.446994234 ] } },
{ "type": "Feature", "properties": { "AADT": 14779, "TR_AADT": 318, "2W_AADT": 76, "raw_name": "A435", "raw_oneway": true, "raw_direction": "A4040-->B4217", "raw_techno": "Estimated using previous year's AADF on this link", "osm_name": "High Street", "osm_type": "trunk", "osm_lanes": 2.0, "osm_oneway": null, "osm_distance": 9.3994668590500794, "osm_maxspeed": 32.1868, "osmid": 4017637.0 }, "geometry": { "type": "Point", "coordinates": [ -1.892577312, 52.435927329 ] } },
{ "type": "Feature", "properties": { "AADT": 19649, "TR_AADT": 415, "2W_AADT": 142, "raw_name": "A441", "raw_oneway": true, "raw_direction": "A4040-->A4040", "raw_techno": "Estimated using previous year's AADF on this link", "osm_name": "Pershore Road", "osm_type": "primary", "osm_lanes": 2.0, "osm_oneway": null, "osm_distance": 13.906172992892269, "osm_maxspeed": 32.1868, "osmid": 23639331.0 }, "geometry": { "type": "Point", "coordinates": [ -1.924968398, 52.41797216 ] } },
{ "type": "Feature", "properties": { "AADT": 16401, "TR_AADT": 219, "2W_AADT": 124, "raw_name": "A452", "raw_oneway": true, "raw_direction": "A5127-->A453", "raw_techno": "Manual count", "osm_name": "Chester Road", "osm_type": "trunk", "osm_lanes": 2.0, "osm_oneway": null, "osm_distance": 6.1559635423459298, "osm_maxspeed": 48.2802, "osmid": 843.0 }, "geometry": { "type": "Point", "coordinates": [ -1.853970814, 52.545563419 ] } },
{ "type": "Feature", "properties": { "AADT": 9589, "TR_AADT": 102, "2W_AADT": 26, "raw_name": "A453", "raw_oneway": true, "raw_direction": "A452-->A5127", "raw_techno": "Estimated using previous year's AADF on this link", "osm_name": null, "osm_type": null, "osm_lanes": null, "osm_oneway": null, "osm_distance": null, "osm_maxspeed": null, "osmid": null }, "geometry": { "type": "Point", "coordinates": [ -1.853964858, 52.547361384 ] } },
{ "type": "Feature", "properties": { "AADT": 37375, "TR_AADT": 564, "2W_AADT": 244, "raw_name": "A456", "raw_oneway": true, "raw_direction": "A4040-->A4540", "raw_techno": "Estimated using previous year's AADF on this link", "osm_name": "Hagley Road", "osm_type": "trunk", "osm_lanes": 2.0, "osm_oneway": "True", "osm_distance": 3.1843029861956476, "osm_maxspeed": 48.2802, "osmid": 212469362.0 }, "geometry": { "type": "Point", "coordinates": [ -1.927821299, 52.471914007 ] } },
{ "type": "Feature", "properties": { "AADT": 13193, "TR_AADT": 296, "2W_AADT": 44, "raw_name": "A4040", "raw_oneway": true, "raw_direction": "A4040 Rookery Rd-->A34", "raw_techno": "Manual count", "osm_name": "Church Lane", "osm_type": "primary", "osm_lanes": 2.0, "osm_oneway": null, "osm_distance": 3.681865719431705, "osm_maxspeed": 48.2802, "osmid": 22724035.0 }, "geometry": { "type": "Point", "coordinates": [ -1.927753811, 52.51326769 ] } },
{ "type": "Feature", "properties": { "AADT": 12817, "TR_AADT": 401, "2W_AADT": 64, "raw_name": "A4040", "raw_oneway": true, "raw_direction": "A47-->B4128", "raw_techno": "Manual count", "osm_name": "Station Road", "osm_type": "primary", "osm_lanes": 2.0, "osm_oneway": null, "osm_distance": 12.705878355784959, "osm_maxspeed": 48.2802, "osmid": 74187695.0 }, "geometry": { "type": "Point", "coordinates": [ -1.809049706, 52.481958843 ] } },
{ "type": "Feature", "properties": { "AADT": 45436, "TR_AADT": 2382, "2W_AADT": 339, "raw_name": "A4540", "raw_oneway": true, "raw_direction": "A38(M)-->B4133", "raw_techno": "Manual count", "osm_name": "Dartmouth Middleway", "osm_type": "trunk", "osm_lanes": 2.0, "osm_oneway": "True", "osm_distance": 6.0438452533699261, "osm_maxspeed": 64.3736, "osmid": 23425211.0 }, "geometry": { "type": "Point", "coordinates": [ -1.886920673, 52.49096776 ] } },
{ "type": "Feature", "properties": { "AADT": 26625, "TR_AADT": 434, "2W_AADT": 144, "raw_name": "A4540", "raw_oneway": true, "raw_direction": "A456-->B4126", "raw_techno": "Estimated using previous year's AADF on this link", "osm_name": "Ladywood Middleway", "osm_type": "trunk", "osm_lanes": 2.0, "osm_oneway": "True", "osm_distance": 6.2994056391840694, "osm_maxspeed": 64.3736, "osmid": 142516884.0 }, "geometry": { "type": "Point", "coordinates": [ -1.923398661, 52.475507224 ] } },
{ "type": "Feature", "properties": { "AADT": 10608, "TR_AADT": 126, "2W_AADT": 27, "raw_name": "A4040", "raw_oneway": true, "raw_direction": "A4123-->A4030/A456", "raw_techno": "Estimated using previous year's AADF on this link", "osm_name": "Lordswood Road", "osm_type": "primary", "osm_lanes": 2.0, "osm_oneway": null, "osm_distance": 16.567095420210375, "osm_maxspeed": 48.2802, "osmid": 431114249.0 }, "geometry": { "type": "Point", "coordinates": [ -1.964631943, 52.462940679 ] } },
{ "type": "Feature", "properties": { "AADT": 18936, "TR_AADT": 344, "2W_AADT": 158, "raw_name": "A4540", "raw_oneway": true, "raw_direction": "A435-->A41", "raw_techno": "Estimated using previous year's AADF on this link", "osm_name": "Highgate Road", "osm_type": "trunk", "osm_lanes": 2.0, "osm_oneway": null, "osm_distance": 1.4580609321794495, "osm_maxspeed": 48.2802, "osmid": 8022989.0 }, "geometry": { "type": "Point", "coordinates": [ -1.876330945, 52.459555224 ] } },
{ "type": "Feature", "properties": { "AADT": 14070, "TR_AADT": 81, "2W_AADT": 83, "raw_name": "A4040", "raw_oneway": true, "raw_direction": "A435-->A34", "raw_techno": "Manual count", "osm_name": "Robin Hood Lane", "osm_type": "primary", "osm_lanes": 2.0, "osm_oneway": null, "osm_distance": 3.0932065773792345, "osm_maxspeed": 48.2802, "osmid": 450065055.0 }, "geometry": { "type": "Point", "coordinates": [ -1.854356636, 52.428694492 ] } },
{ "type": "Feature", "properties": { "AADT": 9259, "TR_AADT": 65, "2W_AADT": 18, "raw_name": "A4040", "raw_oneway": true, "raw_direction": "A41-->A4040 Oxhill Rd", "raw_techno": "Estimated using previous year's AADF on this link", "osm_name": "Rookery Road", "osm_type": "primary", "osm_lanes": 2.0, "osm_oneway": null, "osm_distance": 11.41585515275276, "osm_maxspeed": 48.2802, "osmid": 8001716.0 }, "geometry": { "type": "Point", "coordinates": [ -1.940433349, 52.507880775 ] } },
{ "type": "Feature", "properties": { "AADT": 143330, "TR_AADT": 23162, "2W_AADT": 354, "raw_name": "M6", "raw_oneway": true, "raw_direction": "6-->LA Boundary", "raw_techno": "Manual count", "osm_name": null, "osm_type": "motorway", "osm_lanes": 3.0, "osm_oneway": "True", "osm_distance": 9.2934025752280842, "osm_maxspeed": 112.6538, "osmid": 22569019.0 }, "geometry": { "type": "Point", "coordinates": [ -1.898244065, 52.530326868 ] } },
{ "type": "Feature", "properties": { "AADT": 40849, "TR_AADT": 2684, "2W_AADT": 264, "raw_name": "A38", "raw_oneway": true, "raw_direction": "A38(M) mid-junction-->A4040 Wheelwright Road", "raw_techno": "Estimated using previous year's AADF on this link", "osm_name": "Tyburn Road", "osm_type": "trunk", "osm_lanes": 2.0, "osm_oneway": "True", "osm_distance": 2.7531223427360847, "osm_maxspeed": 64.3736, "osmid": 381239351.0 }, "geometry": { "type": "Point", "coordinates": [ -1.852622721, 52.507714299 ] } },
{ "type": "Feature", "properties": { "AADT": 23519, "TR_AADT": 286, "2W_AADT": 189, "raw_name": "A38", "raw_oneway": true, "raw_direction": "B4121-->A4040", "raw_techno": "Estimated using previous year's AADF on this link", "osm_name": "Bristol Road South", "osm_type": "trunk", "osm_lanes": 2.0, "osm_oneway": "True", "osm_distance": 0.7158418431097302, "osm_maxspeed": 48.2802, "osmid": 31993209.0 }, "geometry": { "type": "Point", "coordinates": [ -1.967608335, 52.417991434 ] } },
{ "type": "Feature", "properties": { "AADT": 14210, "TR_AADT": 279, "2W_AADT": 57, "raw_name": "A41", "raw_oneway": true, "raw_direction": "A4540 Triangle-->A4040S", "raw_techno": "Manual count", "osm_name": "Soho Road", "osm_type": "trunk", "osm_lanes": 2.0, "osm_oneway": null, "osm_distance": 1.1223971374610611, "osm_maxspeed": 48.2802, "osmid": 382252785.0 }, "geometry": { "type": "Point", "coordinates": [ -1.927772313, 52.501940406 ] } },
{ "type": "Feature", "properties": { "AADT": 24260, "TR_AADT": 392, "2W_AADT": 201, "raw_name": "A452", "raw_oneway": true, "raw_direction": "A38-->B4148", "raw_techno": "Manual count", "osm_name": "Chester Road", "osm_type": "trunk", "osm_lanes": 2.0, "osm_oneway": "True", "osm_distance": 5.3203992617016587, "osm_maxspeed": 48.2802, "osmid": 28422232.0 }, "geometry": { "type": "Point", "coordinates": [ -1.80394257, 52.521218551 ] } },
{ "type": "Feature", "properties": { "AADT": 27892, "TR_AADT": 588, "2W_AADT": 198, "raw_name": "A453", "raw_oneway": true, "raw_direction": "A34 spur-->M6", "raw_techno": "Estimated using previous year's AADF on this link", "osm_name": "Aldridge Road", "osm_type": "primary", "osm_lanes": 2.0, "osm_oneway": "True", "osm_distance": 3.9871223840166934, "osm_maxspeed": 48.2802, "osmid": 376533108.0 }, "geometry": { "type": "Point", "coordinates": [ -1.896780486, 52.52583066 ] } },
{ "type": "Feature", "properties": { "AADT": 12660, "TR_AADT": 174, "2W_AADT": 69, "raw_name": "A453", "raw_oneway": true, "raw_direction": "A5127-->B4148 Whitehouse Common", "raw_techno": "Estimated using previous year's AADF on this link", "osm_name": null, "osm_type": null, "osm_lanes": null, "osm_oneway": null, "osm_distance": null, "osm_maxspeed": null, "osmid": null }, "geometry": { "type": "Point", "coordinates": [ -1.80960085, 52.576065954 ] } },
{ "type": "Feature", "properties": { "AADT": 36023, "TR_AADT": 521, "2W_AADT": 257, "raw_name": "A456", "raw_oneway": true, "raw_direction": "A458-->A458", "raw_techno": "Estimated using previous year's AADF on this link", "osm_name": "Hagley Road West", "osm_type": "trunk", "osm_lanes": 2.0, "osm_oneway": "True", "osm_distance": 5.4511595241515964, "osm_maxspeed": 64.3736, "osmid": 8132218.0 }, "geometry": { "type": "Point", "coordinates": [ -2.001427973, 52.463305475 ] } },
{ "type": "Feature", "properties": { "AADT": 23733, "TR_AADT": 995, "2W_AADT": 132, "raw_name": "A4040", "raw_oneway": true, "raw_direction": "A41-->A45", "raw_techno": "Estimated using previous year's AADF on this link", "osm_name": "Stockfield Road", "osm_type": "primary", "osm_lanes": 2.0, "osm_oneway": "True", "osm_distance": 0.8045976958718094, "osm_maxspeed": 48.2802, "osmid": 31906871.0 }, "geometry": { "type": "Point", "coordinates": [ -1.824832441, 52.45652359 ] } },
{ "type": "Feature", "properties": { "AADT": 19242, "TR_AADT": 336, "2W_AADT": 108, "raw_name": "A4123", "raw_oneway": true, "raw_direction": "A456-->A4040", "raw_techno": "Manual count", "osm_name": "Wolverhampton Road South", "osm_type": "primary", "osm_lanes": 2.0, "osm_oneway": "True", "osm_distance": 5.6223606748246562, "osm_maxspeed": 64.3736, "osmid": 4363947.0 }, "geometry": { "type": "Point", "coordinates": [ -1.984207422, 52.462944868 ] } },
{ "type": "Feature", "properties": { "AADT": 26967, "TR_AADT": 909, "2W_AADT": 181, "raw_name": "A4540", "raw_oneway": true, "raw_direction": "A4540 link to Icknield St-->A34", "raw_techno": "Estimated using previous year's AADF on this link", "osm_name": "New John Street West", "osm_type": "trunk", "osm_lanes": 3.0, "osm_oneway": "True", "osm_distance": 3.2374755123315007, "osm_maxspeed": 48.2802, "osmid": 366498144.0 }, "geometry": { "type": "Point", "coordinates": [ -1.89833101, 52.492569308 ] } },
{ "type": "Feature", "properties": { "AADT": 15439, "TR_AADT": 176, "2W_AADT": 46, "raw_name": "A5127", "raw_oneway": true, "raw_direction": "A452-->A453", "raw_techno": "Manual count", "osm_name": "Birmingham Road", "osm_type": "primary", "osm_lanes": 3.0, "osm_oneway": null, "osm_distance": 7.8956529652679421, "osm_maxspeed": 48.2802, "osmid": 431502840.0 }, "geometry": { "type": "Point", "coordinates": [ -1.826312712, 52.551657221 ] } },
{ "type": "Feature", "properties": { "AADT": 71643, "TR_AADT": 1880, "2W_AADT": 405, "raw_name": "A4540", "raw_oneway": true, "raw_direction": "A441-->A38", "raw_techno": "Estimated using previous year's AADF on this link", "osm_name": "Belgrave Middleway", "osm_type": "trunk", "osm_lanes": 2.0, "osm_oneway": "True", "osm_distance": 0.63001125468037944, "osm_maxspeed": 64.3736, "osmid": 202263900.0 }, "geometry": { "type": "Point", "coordinates": [ -1.89986187, 52.46694922 ] } },
{ "type": "Feature", "properties": { "AADT": 18607, "TR_AADT": 241, "2W_AADT": 65, "raw_name": "A452", "raw_oneway": true, "raw_direction": "B4149-->B4138 Western route", "raw_techno": "Estimated using previous year's AADF on this link", "osm_name": "Chester Road North", "osm_type": "trunk", "osm_lanes": 2.0, "osm_oneway": null, "osm_distance": 4.9306120699360729, "osm_maxspeed": 48.2802, "osmid": 694363799.0 }, "geometry": { "type": "Point", "coordinates": [ -1.864860798, 52.552768213 ] } },
{ "type": "Feature", "properties": { "AADT": 11901, "TR_AADT": 204, "2W_AADT": 85, "raw_name": "A34", "raw_oneway": true, "raw_direction": "B4217-->A41", "raw_techno": "Manual count", "osm_name": null, "osm_type": null, "osm_lanes": null, "osm_oneway": null, "osm_distance": null, "osm_maxspeed": null, "osmid": null }, "geometry": { "type": "Point", "coordinates": [ -1.866046032, 52.453880348 ] } },
{ "type": "Feature", "properties": { "AADT": 24977, "TR_AADT": 1630, "2W_AADT": 118, "raw_name": "A38", "raw_oneway": true, "raw_direction": "A452-->A4097", "raw_techno": "Manual count", "osm_name": "Kingsbury Road", "osm_type": "trunk", "osm_lanes": 2.0, "osm_oneway": "True", "osm_distance": 11.38184195429195, "osm_maxspeed": 64.3736, "osmid": 924.0 }, "geometry": { "type": "Point", "coordinates": [ -1.782540876, 52.527653946 ] } },
{ "type": "Feature", "properties": { "AADT": 36047, "TR_AADT": 563, "2W_AADT": 196, "raw_name": "A38", "raw_oneway": true, "raw_direction": "B4217-->A4540", "raw_techno": "Estimated using previous year's AADF on this link", "osm_name": null, "osm_type": null, "osm_lanes": null, "osm_oneway": null, "osm_distance": null, "osm_maxspeed": null, "osmid": null }, "geometry": { "type": "Point", "coordinates": [ -1.904286537, 52.462907381 ] } },
{ "type": "Feature", "properties": { "AADT": 21857, "TR_AADT": 463, "2W_AADT": 145, "raw_name": "A38", "raw_oneway": true, "raw_direction": "LA Boundary-->Lickey Road roundabout", "raw_techno": "Estimated using previous year's AADF on this link", "osm_name": "Bristol Road South", "osm_type": "trunk", "osm_lanes": 2.0, "osm_oneway": "True", "osm_distance": 4.568539086817367, "osm_maxspeed": 48.2802, "osmid": 553095836.0 }, "geometry": { "type": "Point", "coordinates": [ -2.001425393, 52.395880216 ] } },
{ "type": "Feature", "properties": { "AADT": 25195, "TR_AADT": 452, "2W_AADT": 144, "raw_name": "A41", "raw_oneway": true, "raw_direction": "A34-->A4040 Stockfield", "raw_techno": "Manual count", "osm_name": "Warwick Road", "osm_type": "trunk", "osm_lanes": 2.0, "osm_oneway": "True", "osm_distance": 0.3595102891412314, "osm_maxspeed": 48.2802, "osmid": 1361563785.0 }, "geometry": { "type": "Point", "coordinates": [ -1.854276722, 52.45296746 ] } },
{ "type": "Feature", "properties": { "AADT": 15726, "TR_AADT": 302, "2W_AADT": 54, "raw_name": "A435", "raw_oneway": true, "raw_direction": "B4217-->A4540", "raw_techno": "Estimated using previous year's AADF on this link", "osm_name": "Alcester Road", "osm_type": "trunk", "osm_lanes": 3.0, "osm_oneway": null, "osm_distance": 1.5108099487210687, "osm_maxspeed": 48.2802, "osmid": 430145485.0 }, "geometry": { "type": "Point", "coordinates": [ -1.886941836, 52.453902119 ] } },
{ "type": "Feature", "properties": { "AADT": 15418, "TR_AADT": 390, "2W_AADT": 117, "raw_name": "A441", "raw_oneway": true, "raw_direction": "A4040-->A4029", "raw_techno": "Estimated using previous year's AADF on this link", "osm_name": "Pershore Road", "osm_type": "primary", "osm_lanes": 2.0, "osm_oneway": null, "osm_distance": 19.045543418043906, "osm_maxspeed": 32.1868, "osmid": 34754138.0 }, "geometry": { "type": "Point", "coordinates": [ -1.922011907, 52.426960302 ] } },
{ "type": "Feature", "properties": { "AADT": 18077, "TR_AADT": 247, "2W_AADT": 68, "raw_name": "A452", "raw_oneway": true, "raw_direction": "A453-->B4149", "raw_techno": "Estimated using previous year's AADF on this link", "osm_name": null, "osm_type": "service", "osm_lanes": null, "osm_oneway": null, "osm_distance": 3.6685041037742918, "osm_maxspeed": null, "osmid": 8123702.0 }, "geometry": { "type": "Point", "coordinates": [ -1.858388256, 52.547546545 ] } },
{ "type": "Feature", "properties": { "AADT": 17391, "TR_AADT": 192, "2W_AADT": 65, "raw_name": "A453", "raw_oneway": true, "raw_direction": "B4138-->A452", "raw_techno": "Manual count", "osm_name": "College Road", "osm_type": "primary", "osm_lanes": 2.0, "osm_oneway": "True", "osm_distance": 3.5867472614919742, "osm_maxspeed": 48.2802, "osmid": 8002998.0 }, "geometry": { "type": "Point", "coordinates": [ -1.883496049, 52.533010269 ] } },
{ "type": "Feature", "properties": { "AADT": 19996, "TR_AADT": 203, "2W_AADT": 49, "raw_name": "A5127", "raw_oneway": true, "raw_direction": "A453-->A454", "raw_techno": "Manual count", "osm_name": null, "osm_type": null, "osm_lanes": null, "osm_oneway": null, "osm_distance": null, "osm_maxspeed": null, "osmid": null }, "geometry": { "type": "Point", "coordinates": [ -1.824371384, 52.572492818 ] } },
{ "type": "Feature", "properties": { "AADT": 31029, "TR_AADT": 1223, "2W_AADT": 167, "raw_name": "A4040", "raw_oneway": true, "raw_direction": "A4040 Wheelwright Road-->A47", "raw_techno": "Manual count", "osm_name": "Bromford Gate", "osm_type": "unclassified", "osm_lanes": null, "osm_oneway": "True", "osm_distance": 1.8351503351284977, "osm_maxspeed": null, "osmid": 278339908.0 }, "geometry": { "type": "Point", "coordinates": [ -1.832883165, 52.506879022 ] } },
{ "type": "Feature", "properties": { "AADT": 22693, "TR_AADT": 342, "2W_AADT": 135, "raw_name": "A4040", "raw_oneway": true, "raw_direction": "A34-->B4514", "raw_techno": "Estimated using previous year's AADF on this link", "osm_name": "Fox Hollies Road", "osm_type": "primary", "osm_lanes": 2.0, "osm_oneway": "True", "osm_distance": 5.8178968800891067, "osm_maxspeed": 48.2802, "osmid": 382871220.0 }, "geometry": { "type": "Point", "coordinates": [ -1.837417235, 52.435864486 ] } },
{ "type": "Feature", "properties": { "AADT": 46226, "TR_AADT": 2865, "2W_AADT": 319, "raw_name": "A4540", "raw_oneway": true, "raw_direction": "A47-->A45", "raw_techno": "Estimated using previous year's AADF on this link", "osm_name": "Lawley Middleway", "osm_type": "trunk", "osm_lanes": 2.0, "osm_oneway": "True", "osm_distance": 11.545375507483191, "osm_maxspeed": 48.2802, "osmid": 4017670.0 }, "geometry": { "type": "Point", "coordinates": [ -1.877743775, 52.480862937 ] } },
{ "type": "Feature", "properties": { "AADT": 29934, "TR_AADT": 333, "2W_AADT": 168, "raw_name": "A4540", "raw_oneway": true, "raw_direction": "B4126-->A457", "raw_techno": "Estimated using previous year's AADF on this link", "osm_name": "Ladywood Middleway", "osm_type": "trunk", "osm_lanes": 2.0, "osm_oneway": "True", "osm_distance": 10.24216625092545, "osm_maxspeed": 64.3736, "osmid": 76370991.0 }, "geometry": { "type": "Point", "coordinates": [ -1.924861764, 52.480902136 ] } },
{ "type": "Feature", "properties": { "AADT": 32038, "TR_AADT": 439, "2W_AADT": 154, "raw_name": "A5127", "raw_oneway": true, "raw_direction": "A38(M)-->A4040", "raw_techno": "Estimated using previous year's AADF on this link", "osm_name": "Gravelly Hill", "osm_type": "primary", "osm_lanes": 2.0, "osm_oneway": null, "osm_distance": 1.5132717083591747, "osm_maxspeed": 48.2802, "osmid": 5082094.0 }, "geometry": { "type": "Point", "coordinates": [ -1.854083867, 52.511401973 ] } },
{ "type": "Feature", "properties": { "AADT": 17511, "TR_AADT": 426, "2W_AADT": 52, "raw_name": "A41", "raw_oneway": true, "raw_direction": "A4040 South Section-->A4040 / B4136 Handsworth", "raw_techno": "Estimated using previous year's AADF on this link", "osm_name": "Soho Road", "osm_type": "trunk", "osm_lanes": 4.0, "osm_oneway": null, "osm_distance": 0.80716564240421262, "osm_maxspeed": 48.2802, "osmid": 4830949.0 }, "geometry": { "type": "Point", "coordinates": [ -1.939554256, 52.504284364 ] } },
{ "type": "Feature", "properties": { "AADT": 33147, "TR_AADT": 1173, "2W_AADT": 267, "raw_name": "A4540", "raw_oneway": true, "raw_direction": "A41-->A45", "raw_techno": "Estimated using previous year's AADF on this link", "osm_name": "Bordesley Middleway", "osm_type": "trunk", "osm_lanes": 2.0, "osm_oneway": "True", "osm_distance": 13.444373119835452, "osm_maxspeed": 48.2802, "osmid": 4017651.0 }, "geometry": { "type": "Point", "coordinates": [ -1.875708403, 52.471601153 ] } },
{ "type": "Feature", "properties": { "AADT": 39440, "TR_AADT": 1411, "2W_AADT": 254, "raw_name": "A45", "raw_oneway": true, "raw_direction": "A4540-->A4040", "raw_techno": "Estimated using previous year's AADF on this link", "osm_name": "Small Heath Highway", "osm_type": "trunk", "osm_lanes": 3.0, "osm_oneway": "True", "osm_distance": 3.8507259385893766, "osm_maxspeed": 64.3736, "osmid": 141641178.0 }, "geometry": { "type": "Point", "coordinates": [ -1.854247095, 52.461957423 ] } },
{ "type": "Feature", "properties": { "AADT": 24757, "TR_AADT": 637, "2W_AADT": 147, "raw_name": "A41", "raw_oneway": true, "raw_direction": "A4040 Stockfield-->A4040 Acocks Green", "raw_techno": "Manual count", "osm_name": "Warwick Road", "osm_type": "trunk", "osm_lanes": 2.0, "osm_oneway": "True", "osm_distance": 3.3218096594215654, "osm_maxspeed": 48.2802, "osmid": 28934200.0 }, "geometry": { "type": "Point", "coordinates": [ -1.831107774, 52.451048798 ] } },
{ "type": "Feature", "properties": { "AADT": 135446, "TR_AADT": 24580, "2W_AADT": 333, "raw_name": "M6", "raw_oneway": true, "raw_direction": "6-->5", "raw_techno": "Automatic counter", "osm_name": null, "osm_type": "motorway", "osm_lanes": 3.0, "osm_oneway": "True", "osm_distance": 0.052308471717851412, "osm_maxspeed": 112.6538, "osmid": 2282.0 }, "geometry": { "type": "Point", "coordinates": [ -1.798101781, 52.509342054 ] } },
{ "type": "Feature", "properties": { "AADT": 110405, "TR_AADT": 5459, "2W_AADT": 380, "raw_name": "A38M", "raw_oneway": true, "raw_direction": "Park Circus B4132 Waterlinks Boulevard-->A38  M6(J6)", "raw_techno": "Manual count", "osm_name": "Aston Expressway", "osm_type": "motorway", "osm_lanes": 7.0, "osm_oneway": "False", "osm_distance": 2.1067554692249697, "osm_maxspeed": 80.467, "osmid": 2287.0 }, "geometry": { "type": "Point", "coordinates": [ -1.876197295, 52.507291759 ] } },
{ "type": "Feature", "properties": { "AADT": 21075, "TR_AADT": 337, "2W_AADT": 134, "raw_name": "A34", "raw_oneway": true, "raw_direction": "B4025 roundabout-->A4040", "raw_techno": "Estimated using previous year's AADF on this link", "osm_name": "Stratford Road", "osm_type": "trunk", "osm_lanes": 2.0, "osm_oneway": "True", "osm_distance": 4.9981141112126695, "osm_maxspeed": 48.2802, "osmid": 23940729.0 }, "geometry": { "type": "Point", "coordinates": [ -1.839665977, 52.424180496 ] } },
{ "type": "Feature", "properties": { "AADT": 12895, "TR_AADT": 214, "2W_AADT": 30, "raw_name": "A41", "raw_oneway": true, "raw_direction": "A4040 Handsworth / B4136-->A4040 Handsworth", "raw_techno": "Estimated using previous year's AADF on this link", "osm_name": "Holyhead Road", "osm_type": "trunk", "osm_lanes": 2.0, "osm_oneway": null, "osm_distance": 2.101588460836334, "osm_maxspeed": 48.2802, "osmid": 382257186.0 }, "geometry": { "type": "Point", "coordinates": [ -1.94456208, 52.505185797 ] } },
{ "type": "Feature", "properties": { "AADT": 17274, "TR_AADT": 322, "2W_AADT": 88, "raw_name": "A435", "raw_oneway": true, "raw_direction": "Maypole Lane/Druids Lane roundabout-->A4040", "raw_techno": "Manual count", "osm_name": "Alcester Road South", "osm_type": "trunk", "osm_lanes": 2.0, "osm_oneway": null, "osm_distance": 5.4137670681659538, "osm_maxspeed": 48.2802, "osmid": 4017635.0 }, "geometry": { "type": "Point", "coordinates": [ -1.891150563, 52.417945942 ] } },
{ "type": "Feature", "properties": { "AADT": 23067, "TR_AADT": 499, "2W_AADT": 168, "raw_name": "A441", "raw_oneway": true, "raw_direction": "Wharf Road roundabout-->A4040", "raw_techno": "Estimated using previous year's AADF on this link", "osm_name": "Pershore Road South", "osm_type": "trunk", "osm_lanes": 2.0, "osm_oneway": null, "osm_distance": 1.202735782385159, "osm_maxspeed": 48.2802, "osmid": 42833791.0 }, "geometry": { "type": "Point", "coordinates": [ -1.927923685, 52.408983931 ] } },
{ "type": "Feature", "properties": { "AADT": 23422, "TR_AADT": 346, "2W_AADT": 168, "raw_name": "A452", "raw_oneway": true, "raw_direction": "B4148-->A5127", "raw_techno": "Estimated using previous year's AADF on this link", "osm_name": "Chester Road", "osm_type": "trunk", "osm_lanes": 2.0, "osm_oneway": "True", "osm_distance": 2.917627485430148, "osm_maxspeed": 48.2802, "osmid": 356076582.0 }, "geometry": { "type": "Point", "coordinates": [ -1.824536153, 52.531139712 ] } },
{ "type": "Feature", "properties": { "AADT": 17193, "TR_AADT": 387, "2W_AADT": 53, "raw_name": "A5127", "raw_oneway": true, "raw_direction": "A453-->A5127 Queen St", "raw_techno": "Estimated using previous year's AADF on this link", "osm_name": "Birmingham Road", "osm_type": "primary", "osm_lanes": 2.0, "osm_oneway": null, "osm_distance": 3.8874929479355624, "osm_maxspeed": 48.2802, "osmid": 3212671.0 }, "geometry": { "type": "Point", "coordinates": [ -1.826644804, 52.557213437 ] } },
{ "type": "Feature", "properties": { "AADT": 38022, "TR_AADT": 511, "2W_AADT": 257, "raw_name": "A456", "raw_oneway": true, "raw_direction": "A456-->A4030/A4040", "raw_techno": "Manual count", "osm_name": "Hagley Road West", "osm_type": "trunk", "osm_lanes": 3.0, "osm_oneway": "True", "osm_distance": 4.3301339983855067, "osm_maxspeed": 64.3736, "osmid": 4323060.0 }, "geometry": { "type": "Point", "coordinates": [ -1.971986623, 52.470134616 ] } },
{ "type": "Feature", "properties": { "AADT": 18122, "TR_AADT": 317, "2W_AADT": 84, "raw_name": "A457", "raw_oneway": true, "raw_direction": "A4040-->A4540", "raw_techno": "Estimated using previous year's AADF on this link", "osm_name": "Spring Hill Bridge", "osm_type": "primary", "osm_lanes": 4.0, "osm_oneway": null, "osm_distance": 6.0510040870588284, "osm_maxspeed": 48.2802, "osmid": 28067436.0 }, "geometry": { "type": "Point", "coordinates": [ -1.927797404, 52.486567628 ] } },
{ "type": "Feature", "properties": { "AADT": 9431, "TR_AADT": 132, "2W_AADT": 69, "raw_name": "A4040", "raw_oneway": true, "raw_direction": "A441-->A435", "raw_techno": "Estimated using previous year's AADF on this link", "osm_name": "Fordhouse Lane", "osm_type": "primary", "osm_lanes": 2.0, "osm_oneway": null, "osm_distance": 0.81103814893926796, "osm_maxspeed": 48.2802, "osmid": 27380245.0 }, "geometry": { "type": "Point", "coordinates": [ -1.913192818, 52.424526865 ] } },
{ "type": "Feature", "properties": { "AADT": 34070, "TR_AADT": 1725, "2W_AADT": 198, "raw_name": "A4540", "raw_oneway": true, "raw_direction": "A34-->A38(M)", "raw_techno": "Estimated using previous year's AADF on this link", "osm_name": "Newtown Middleway", "osm_type": "trunk", "osm_lanes": 3.0, "osm_oneway": "True", "osm_distance": 4.6459569835201293, "osm_maxspeed": 64.3736, "osmid": 454926413.0 }, "geometry": { "type": "Point", "coordinates": [ -1.892440358, 52.492294415 ] } },
{ "type": "Feature", "properties": { "AADT": 45725, "TR_AADT": 785, "2W_AADT": 233, "raw_name": "A4540", "raw_oneway": true, "raw_direction": "A38-->A456", "raw_techno": "Estimated using previous year's AADF on this link", "osm_name": "Islington Row Middleway", "osm_type": "trunk", "osm_lanes": 3.0, "osm_oneway": "True", "osm_distance": 3.3573723902848136, "osm_maxspeed": 64.3736, "osmid": 33686689.0 }, "geometry": { "type": "Point", "coordinates": [ -1.913100621, 52.471544544 ] } },
{ "type": "Feature", "properties": { "AADT": 7988, "TR_AADT": 72, "2W_AADT": 29, "raw_name": "A5127", "raw_oneway": true, "raw_direction": "A454-->A4026", "raw_techno": "Estimated using previous year's AADF on this link", "osm_name": "Lichfield Road", "osm_type": "primary", "osm_lanes": 2.0, "osm_oneway": null, "osm_distance": 5.6625270541377635, "osm_maxspeed": 48.2802, "osmid": 2616.0 }, "geometry": { "type": "Point", "coordinates": [ -1.839329618, 52.597685481 ] } },
{ "type": "Feature", "properties": { "AADT": 9985, "TR_AADT": 51, "2W_AADT": 56, "raw_name": "A4040", "raw_oneway": true, "raw_direction": "LA Boundary-->A457", "raw_techno": "Estimated using previous year's AADF on this link", "osm_name": null, "osm_type": null, "osm_lanes": null, "osm_oneway": null, "osm_distance": null, "osm_maxspeed": null, "osmid": null }, "geometry": { "type": "Point", "coordinates": [ -1.942525203, 52.485406972 ] } },
{ "type": "Feature", "properties": { "AADT": 23579, "TR_AADT": 3067, "2W_AADT": 48, "raw_name": "M6", "raw_oneway": true, "raw_direction": "A47-->5", "raw_techno": "Estimated using previous year's AADF on this link", "osm_name": null, "osm_type": "motorway_link", "osm_lanes": 2.0, "osm_oneway": "True", "osm_distance": 0.78546094397160315, "osm_maxspeed": 112.6538, "osmid": 356076597.0 }, "geometry": { "type": "Point", "coordinates": [ -1.794274345, 52.508616277 ] } },
{ "type": "Feature", "properties": { "AADT": 149420, "TR_AADT": 22304, "2W_AADT": 246, "raw_name": "M6", "raw_oneway": true, "raw_direction": "5-->LA Boundary", "raw_techno": "Manual count", "osm_name": null, "osm_type": "motorway", "osm_lanes": 3.0, "osm_oneway": "True", "osm_distance": 0.82763937460567139, "osm_maxspeed": 112.6538, "osmid": 2333.0 }, "geometry": { "type": "Point", "coordinates": [ -1.760209083, 52.51421589 ] } },
{ "type": "Feature", "properties": { "AADT": 36457, "TR_AADT": 486, "2W_AADT": 211, "raw_name": "A456", "raw_oneway": true, "raw_direction": "A4030/A4040-->A4040", "raw_techno": "Estimated using previous year's AADF on this link", "osm_name": "Hagley Road", "osm_type": "trunk", "osm_lanes": 4.0, "osm_oneway": null, "osm_distance": 3.2118595835383412, "osm_maxspeed": 48.2802, "osmid": 4323061.0 }, "geometry": { "type": "Point", "coordinates": [ -1.966979614, 52.472740427 ] } },
{ "type": "Feature", "properties": { "AADT": 21933, "TR_AADT": 590, "2W_AADT": 147, "raw_name": "A34", "raw_oneway": true, "raw_direction": "A34 spur-->A4041", "raw_techno": "Estimated using previous year's AADF on this link", "osm_name": "Walsall Road", "osm_type": "trunk", "osm_lanes": 2.0, "osm_oneway": "True", "osm_distance": 3.0432074243725387, "osm_maxspeed": 64.3736, "osmid": 122660003.0 }, "geometry": { "type": "Point", "coordinates": [ -1.927706765, 52.542035298 ] } },
{ "type": "Feature", "properties": { "AADT": 20499, "TR_AADT": 1298, "2W_AADT": 73, "raw_name": "A38", "raw_oneway": true, "raw_direction": "A4097-->LA Boundary", "raw_techno": "Estimated using previous year's AADF on this link", "osm_name": "Sutton Coldfield Bypass", "osm_type": "trunk", "osm_lanes": 2.0, "osm_oneway": "True", "osm_distance": 6.6190450153852725, "osm_maxspeed": 112.6538, "osmid": 189597802.0 }, "geometry": { "type": "Point", "coordinates": [ -1.774600912, 52.552630987 ] } },
{ "type": "Feature", "properties": { "AADT": 25924, "TR_AADT": 1809, "2W_AADT": 164, "raw_name": "A5127", "raw_oneway": true, "raw_direction": "A38(M)/A4540-->A38(M)", "raw_techno": "Manual count", "osm_name": "Lichfield Road", "osm_type": "primary", "osm_lanes": 2.0, "osm_oneway": "True", "osm_distance": 4.8370754119417603, "osm_maxspeed": 48.2802, "osmid": 38181403.0 }, "geometry": { "type": "Point", "coordinates": [ -1.863377762, 52.507817078 ] } },
{ "type": "Feature", "properties": { "AADT": 32122, "TR_AADT": 453, "2W_AADT": 351, "raw_name": "A38", "raw_oneway": true, "raw_direction": "B4120-->B4121", "raw_techno": "Estimated using previous year's AADF on this link", "osm_name": "Bristol Road South", "osm_type": "trunk", "osm_lanes": 2.0, "osm_oneway": "True", "osm_distance": 6.5786574026356295, "osm_maxspeed": 48.2802, "osmid": 692138358.0 }, "geometry": { "type": "Point", "coordinates": [ -1.983788599, 52.40001459 ] } },
{ "type": "Feature", "properties": { "AADT": 38471, "TR_AADT": 945, "2W_AADT": 276, "raw_name": "A4540", "raw_oneway": true, "raw_direction": "A4540 Belgrave Middleway-->A41", "raw_techno": "Manual count", "osm_name": "Highgate Middleway", "osm_type": "trunk", "osm_lanes": 2.0, "osm_oneway": "True", "osm_distance": 3.1907111285985374, "osm_maxspeed": 64.3736, "osmid": 37339015.0 }, "geometry": { "type": "Point", "coordinates": [ -1.88367373, 52.465585949 ] } },
{ "type": "Feature", "properties": { "AADT": 23711, "TR_AADT": 513, "2W_AADT": 224, "raw_name": "A441", "raw_oneway": true, "raw_direction": "A4029-->A4540", "raw_techno": "Manual count", "osm_name": "Pershore Road", "osm_type": "primary", "osm_lanes": 3.0, "osm_oneway": null, "osm_distance": 3.6990668169354697, "osm_maxspeed": 48.2802, "osmid": 488194164.0 }, "geometry": { "type": "Point", "coordinates": [ -1.901506645, 52.462060046 ] } },
{ "type": "Feature", "properties": { "AADT": 37497, "TR_AADT": 1120, "2W_AADT": 204, "raw_name": "A452", "raw_oneway": true, "raw_direction": "A47-->A38", "raw_techno": "Estimated using previous year's AADF on this link", "osm_name": null, "osm_type": "service", "osm_lanes": null, "osm_oneway": null, "osm_distance": 7.9669058837212914, "osm_maxspeed": null, "osmid": 142616467.0 }, "geometry": { "type": "Point", "coordinates": [ -1.799541666, 52.516716233 ] } },
{ "type": "Feature", "properties": { "AADT": 28936, "TR_AADT": 409, "2W_AADT": 147, "raw_name": "A453", "raw_oneway": true, "raw_direction": "M6-->B4138", "raw_techno": "Manual count", "osm_name": "College Road", "osm_type": "primary", "osm_lanes": 2.0, "osm_oneway": "True", "osm_distance": 2.2293511557008356, "osm_maxspeed": 48.2802, "osmid": 9556110.0 }, "geometry": { "type": "Point", "coordinates": [ -1.893823958, 52.529424007 ] } },
{ "type": "Feature", "properties": { "AADT": 22559, "TR_AADT": 243, "2W_AADT": 115, "raw_name": "A456", "raw_oneway": true, "raw_direction": "M5-->A458", "raw_techno": "Estimated using previous year's AADF on this link", "osm_name": "Quinton Expressway", "osm_type": "trunk", "osm_lanes": 2.0, "osm_oneway": "True", "osm_distance": 7.3657683897094888, "osm_maxspeed": 112.6538, "osmid": 4242590.0 }, "geometry": { "type": "Point", "coordinates": [ -2.007902313, 52.453506115 ] } },
{ "type": "Feature", "properties": { "AADT": 13551, "TR_AADT": 216, "2W_AADT": 27, "raw_name": "A4040", "raw_oneway": true, "raw_direction": "A457-->A41", "raw_techno": "Estimated using previous year's AADF on this link", "osm_name": "Aberdeen Street", "osm_type": "unclassified", "osm_lanes": null, "osm_oneway": null, "osm_distance": 2.0689415031689853, "osm_maxspeed": null, "osmid": 54276856.0 }, "geometry": { "type": "Point", "coordinates": [ -1.938101152, 52.489899724 ] } },
{ "type": "Feature", "properties": { "AADT": 14454, "TR_AADT": 110, "2W_AADT": 52, "raw_name": "A4040", "raw_oneway": true, "raw_direction": "A5127-->A38", "raw_techno": "Estimated using previous year's AADF on this link", "osm_name": "Woodend Road", "osm_type": "primary", "osm_lanes": 2.0, "osm_oneway": null, "osm_distance": 11.45872741206521, "osm_maxspeed": 48.2802, "osmid": 71213135.0 }, "geometry": { "type": "Point", "coordinates": [ -1.839327073, 52.517496034 ] } },
{ "type": "Feature", "properties": { "AADT": 13972, "TR_AADT": 310, "2W_AADT": 82, "raw_name": "A4040", "raw_oneway": true, "raw_direction": "B4514-->A41", "raw_techno": "Manual count", "osm_name": null, "osm_type": null, "osm_lanes": null, "osm_oneway": null, "osm_distance": null, "osm_maxspeed": null, "osmid": null }, "geometry": { "type": "Point", "coordinates": [ -1.830999748, 52.44851346 ] } },
{ "type": "Feature", "properties": { "AADT": 13323, "TR_AADT": 193, "2W_AADT": 73, "raw_name": "A4040", "raw_oneway": true, "raw_direction": "A441-->A38", "raw_techno": "Manual count", "osm_name": "Watford Road", "osm_type": "trunk", "osm_lanes": 2.0, "osm_oneway": null, "osm_distance": 3.0174262043540612, "osm_maxspeed": 48.2802, "osmid": 71298966.0 }, "geometry": { "type": "Point", "coordinates": [ -1.931437902, 52.417976074 ] } },
{ "type": "Feature", "properties": { "AADT": 34822, "TR_AADT": 756, "2W_AADT": 175, "raw_name": "A4540", "raw_oneway": true, "raw_direction": "A457-->A4540 Heaton St", "raw_techno": "Estimated using previous year's AADF on this link", "osm_name": "Icknield Street", "osm_type": "trunk", "osm_lanes": 2.0, "osm_oneway": "True", "osm_distance": 4.0107766594311469, "osm_maxspeed": 48.2802, "osmid": 424159849.0 }, "geometry": { "type": "Point", "coordinates": [ -1.916008189, 52.490875048 ] } },
{ "type": "Feature", "properties": { "AADT": 21130, "TR_AADT": 260, "2W_AADT": 97, "raw_name": "A5127", "raw_oneway": true, "raw_direction": "A4040-->A452", "raw_techno": "Estimated using previous year's AADF on this link", "osm_name": "Sutton New Road", "osm_type": "primary", "osm_lanes": 2.0, "osm_oneway": "True", "osm_distance": 2.8173544168717108, "osm_maxspeed": 48.2802, "osmid": 755.0 }, "geometry": { "type": "Point", "coordinates": [ -1.838589458, 52.525765742 ] } },
{ "type": "Feature", "properties": { "AADT": 22571, "TR_AADT": 447, "2W_AADT": 100, "raw_name": "A41", "raw_oneway": true, "raw_direction": "A34-->A4167", "raw_techno": "Estimated using previous year's AADF on this link", "osm_name": "Stratford Road", "osm_type": "trunk", "osm_lanes": 4.0, "osm_oneway": null, "osm_distance": 3.8265719449733617, "osm_maxspeed": 32.1868, "osmid": 376541392.0 }, "geometry": { "type": "Point", "coordinates": [ -1.870301095, 52.458110381 ] } },
{ "type": "Feature", "properties": { "AADT": 138007, "TR_AADT": 6824, "2W_AADT": 475, "raw_name": "A38(M)", "raw_oneway": true, "raw_direction": "M6-->A38", "raw_techno": "Estimated from nearby links", "osm_name": "Aston Expressway", "osm_type": "motorway", "osm_lanes": 2.0, "osm_oneway": "True", "osm_distance": 1.9065422401350023, "osm_maxspeed": 80.467, "osmid": 23058350.0 }, "geometry": { "type": "Point", "coordinates": [ -1.861706783, 52.509765954 ] } },
{ "type": "Feature", "properties": { "AADT": 55827, "TR_AADT": 1008, "2W_AADT": 225, "raw_name": "A34", "raw_oneway": true, "raw_direction": "A4540-->A4040", "raw_techno": "Manual count", "osm_name": null, "osm_type": "trunk", "osm_lanes": 2.0, "osm_oneway": "True", "osm_distance": 2.387418289504311, "osm_maxspeed": 64.3736, "osmid": 352661985.0 }, "geometry": { "type": "Point", "coordinates": [ -1.903305191, 52.507856347 ] } },
{ "type": "Feature", "properties": { "AADT": 21137, "TR_AADT": 359, "2W_AADT": 67, "raw_name": "A41", "raw_oneway": true, "raw_direction": "A4167-->A4540 / A435", "raw_techno": "Estimated using previous year's AADF on this link", "osm_name": "Stratford Road", "osm_type": "trunk", "osm_lanes": 1.0, "osm_oneway": "True", "osm_distance": 1.4122234004045666, "osm_maxspeed": 48.2802, "osmid": 194197028.0 }, "geometry": { "type": "Point", "coordinates": [ -1.875732911, 52.462880896 ] } },
{ "type": "Feature", "properties": { "AADT": 37200, "TR_AADT": 1350, "2W_AADT": 232, "raw_name": "A45", "raw_oneway": true, "raw_direction": "B425-->LA Boundary", "raw_techno": "Manual count", "osm_name": "Coventry Road", "osm_type": "trunk", "osm_lanes": 2.0, "osm_oneway": "True", "osm_distance": 8.3422751798858332, "osm_maxspeed": 64.3736, "osmid": 1104646707.0 }, "geometry": { "type": "Point", "coordinates": [ -1.765994471, 52.45138755 ] } },
{ "type": "Feature", "properties": { "AADT": 78157, "TR_AADT": 1855, "2W_AADT": 499, "raw_name": "A38", "raw_oneway": true, "raw_direction": "A4400-->A38(M)", "raw_techno": "Manual count", "osm_name": "Lancaster Circus Flyover", "osm_type": "trunk", "osm_lanes": 2.0, "osm_oneway": "True", "osm_distance": 4.8999068279985911, "osm_maxspeed": 48.2802, "osmid": 145232647.0 }, "geometry": { "type": "Point", "coordinates": [ -1.890977963, 52.488067806 ] } },
{ "type": "Feature", "properties": { "AADT": 27794, "TR_AADT": 1325, "2W_AADT": 178, "raw_name": "A38", "raw_oneway": true, "raw_direction": "A4040-->B4148", "raw_techno": "Manual count", "osm_name": "Tyburn Road", "osm_type": "trunk", "osm_lanes": 2.0, "osm_oneway": "True", "osm_distance": 6.0966531579419403, "osm_maxspeed": 64.3736, "osmid": 381239356.0 }, "geometry": { "type": "Point", "coordinates": [ -1.824603021, 52.514328693 ] } },
{ "type": "Feature", "properties": { "AADT": 49959, "TR_AADT": 1253, "2W_AADT": 197, "raw_name": "A45", "raw_oneway": true, "raw_direction": "A4040-->B425", "raw_techno": "Manual count", "osm_name": "Coventry Road", "osm_type": "trunk", "osm_lanes": 2.0, "osm_oneway": "True", "osm_distance": 7.6617446253730126, "osm_maxspeed": 64.3736, "osmid": 37047002.0 }, "geometry": { "type": "Point", "coordinates": [ -1.789526466, 52.453769115 ] } },
{ "type": "Feature", "properties": { "AADT": 16340, "TR_AADT": 576, "2W_AADT": 72, "raw_name": "A4040", "raw_oneway": true, "raw_direction": "A34-->A5127", "raw_techno": "Manual count", "osm_name": "Nobel Way", "osm_type": "unclassified", "osm_lanes": 2.0, "osm_oneway": "True", "osm_distance": 8.4489007644451597, "osm_maxspeed": null, "osmid": 441468265.0 }, "geometry": { "type": "Point", "coordinates": [ -1.883547815, 52.513394367 ] } },
{ "type": "Feature", "properties": { "AADT": 13554, "TR_AADT": 425, "2W_AADT": 97, "raw_name": "A441", "raw_oneway": true, "raw_direction": "LA Boundary-->Wharf Road roundabout", "raw_techno": "Estimated using previous year's AADF on this link", "osm_name": "Redditch Road", "osm_type": "trunk", "osm_lanes": 2.0, "osm_oneway": null, "osm_distance": 6.6891736109988003, "osm_maxspeed": 48.2802, "osmid": 4020808.0 }, "geometry": { "type": "Point", "coordinates": [ -1.927927189, 52.406826317 ] } },
{ "type": "Feature", "properties": { "AADT": 40056, "TR_AADT": 3500, "2W_AADT": 242, "raw_name": "A4540", "raw_oneway": true, "raw_direction": "B4133-->A47", "raw_techno": "Estimated using previous year's AADF on this link", "osm_name": "Heneage Street West", "osm_type": "unclassified", "osm_lanes": null, "osm_oneway": "True", "osm_distance": 0.98901165948752601, "osm_maxspeed": null, "osmid": 37735476.0 }, "geometry": { "type": "Point", "coordinates": [ -1.884395923, 52.487746924 ] } },
{ "type": "Feature", "properties": { "AADT": 54919, "TR_AADT": 1051, "2W_AADT": 358, "raw_name": "A4540", "raw_oneway": true, "raw_direction": "A4540 Highgate Middleway-->A441", "raw_techno": "Estimated using previous year's AADF on this link", "osm_name": null, "osm_type": null, "osm_lanes": null, "osm_oneway": null, "osm_distance": null, "osm_maxspeed": null, "osmid": null }, "geometry": { "type": "Point", "coordinates": [ -1.892831463, 52.464623661 ] } },
{ "type": "Feature", "properties": { "AADT": 7502, "TR_AADT": 90, "2W_AADT": 12, "raw_name": "A454", "raw_oneway": true, "raw_direction": "LA Boundary-->A5127", "raw_techno": "Estimated using previous year's AADF on this link", "osm_name": "Walsall Road", "osm_type": "primary", "osm_lanes": 2.0, "osm_oneway": null, "osm_distance": 4.8536963263873698, "osm_maxspeed": 48.2802, "osmid": 2627.0 }, "geometry": { "type": "Point", "coordinates": [ -1.853811859, 52.593479007 ] } },
{ "type": "Feature", "properties": { "AADT": 87463, "TR_AADT": 4846, "2W_AADT": 277, "raw_name": "A38M", "raw_oneway": true, "raw_direction": "Dartmouth Circus A4540-->Park Circus B4132 Waterlinks Boulevard", "raw_techno": "Manual count", "osm_name": "Aston Expressway", "osm_type": "motorway", "osm_lanes": 7.0, "osm_oneway": "False", "osm_distance": 0.12396666530941883, "osm_maxspeed": 80.467, "osmid": 2285.0 }, "geometry": { "type": "Point", "coordinates": [ -1.885943021, 52.498851 ] } },
{ "type": "Feature", "properties": { "AADT": 11724, "TR_AADT": 162, "2W_AADT": 33, "raw_name": "A457", "raw_oneway": true, "raw_direction": "LA Boundary-->A4040", "raw_techno": "Manual count", "osm_name": "Dudley Road", "osm_type": "primary", "osm_lanes": 4.0, "osm_oneway": null, "osm_distance": 2.0674302185404048, "osm_maxspeed": 48.2802, "osmid": 34752237.0 }, "geometry": { "type": "Point", "coordinates": [ -1.942523804, 52.486485766 ] } },
{ "type": "Feature", "properties": { "AADT": 19260, "TR_AADT": 256, "2W_AADT": 49, "raw_name": "A4040", "raw_oneway": true, "raw_direction": "A41-->A4040 Rookery rd", "raw_techno": "Estimated using previous year's AADF on this link", "osm_name": "Oxhill Road", "osm_type": "primary", "osm_lanes": 2.0, "osm_oneway": null, "osm_distance": 3.291684885224444, "osm_maxspeed": 48.2802, "osmid": 24512403.0 }, "geometry": { "type": "Point", "coordinates": [ -1.942486798, 52.514983816 ] } },
{ "type": "Feature", "properties": { "AADT": 14608, "TR_AADT": 946, "2W_AADT": 83, "raw_name": "A4097", "raw_oneway": true, "raw_direction": "A38-->LA Boundary", "raw_techno": "Estimated using previous year's AADF on this link", "osm_name": "Kingsbury Road", "osm_type": "primary", "osm_lanes": 2.0, "osm_oneway": "True", "osm_distance": 6.5758549342462018, "osm_maxspeed": 48.2802, "osmid": 10969229.0 }, "geometry": { "type": "Point", "coordinates": [ -1.765581375, 52.529239795 ] } },
{ "type": "Feature", "properties": { "AADT": 16578, "TR_AADT": 340, "2W_AADT": 95, "raw_name": "A4040", "raw_oneway": true, "raw_direction": "A45-->B4128", "raw_techno": "Estimated using previous year's AADF on this link", "osm_name": "Stoney Lane", "osm_type": "primary", "osm_lanes": 2.0, "osm_oneway": null, "osm_distance": 10.974031104892701, "osm_maxspeed": 48.2802, "osmid": 31963406.0 }, "geometry": { "type": "Point", "coordinates": [ -1.810046136, 52.469392457 ] } },
{ "type": "Feature", "properties": { "AADT": 18780, "TR_AADT": 243, "2W_AADT": 61, "raw_name": "A457", "raw_oneway": true, "raw_direction": "A4040-->A4040", "raw_techno": "Estimated using previous year's AADF on this link", "osm_name": "Dudley Road", "osm_type": "primary", "osm_lanes": 4.0, "osm_oneway": null, "osm_distance": 3.3184183017714468, "osm_maxspeed": 48.2802, "osmid": 38182643.0 }, "geometry": { "type": "Point", "coordinates": [ -1.939063195, 52.486439092 ] } },
{ "type": "Feature", "properties": { "AADT": 27581, "TR_AADT": 714, "2W_AADT": 132, "raw_name": "A4540", "raw_oneway": true, "raw_direction": "Icknield St-->New John St West", "raw_techno": "Manual count", "osm_name": "Boulton Middleway", "osm_type": "trunk", "osm_lanes": 2.0, "osm_oneway": "True", "osm_distance": 3.1200946698720804, "osm_maxspeed": 48.2802, "osmid": 4017707.0 }, "geometry": { "type": "Point", "coordinates": [ -1.910420539, 52.493756733 ] } },
{ "type": "Feature", "properties": { "AADT": 13075, "TR_AADT": 220, "2W_AADT": 19, "raw_name": "A4540", "raw_oneway": true, "raw_direction": "Icknield St-->A41", "raw_techno": "Estimated using previous year's AADF on this link", "osm_name": "Heaton Street", "osm_type": "trunk", "osm_lanes": 2.0, "osm_oneway": "True", "osm_distance": 1.5113556376676491, "osm_maxspeed": 48.2802, "osmid": 22819036.0 }, "geometry": { "type": "Point", "coordinates": [ -1.916445095, 52.493482439 ] } },
{ "type": "Feature", "properties": { "AADT": 13962, "TR_AADT": 410, "2W_AADT": 35, "raw_name": "A4540", "raw_oneway": true, "raw_direction": "A41-->Great King St roundabout", "raw_techno": "Estimated using previous year's AADF on this link", "osm_name": "New John Street West", "osm_type": "trunk", "osm_lanes": 2.0, "osm_oneway": null, "osm_distance": 1.5806311028041047, "osm_maxspeed": 48.2802, "osmid": 44450584.0 }, "geometry": { "type": "Point", "coordinates": [ -1.91231913, 52.494468356 ] } },
{ "type": "Feature", "properties": { "AADT": 12018, "TR_AADT": 161, "2W_AADT": 38, "raw_name": "A5127", "raw_oneway": true, "raw_direction": "Birmingham Rd-->Mill St", "raw_techno": "Estimated using previous year's AADF on this link", "osm_name": null, "osm_type": "service", "osm_lanes": null, "osm_oneway": "True", "osm_distance": 0.83096611421727484, "osm_maxspeed": null, "osmid": 96102896.0 }, "geometry": { "type": "Point", "coordinates": [ -1.8258867, 52.562426437 ] } },
{ "type": "Feature", "properties": { "AADT": 10386, "TR_AADT": 90, "2W_AADT": 45, "raw_name": "A5127", "raw_oneway": true, "raw_direction": "Birmingham Rd-->Mill St", "raw_techno": "Manual count", "osm_name": "Victoria Road", "osm_type": "primary", "osm_lanes": 2.0, "osm_oneway": "True", "osm_distance": 3.5050895708040199, "osm_maxspeed": 48.2802, "osmid": 104796908.0 }, "geometry": { "type": "Point", "coordinates": [ -1.821461946, 52.562240061 ] } },
{ "type": "Feature", "properties": { "AADT": 18185, "TR_AADT": 182, "2W_AADT": 80, "raw_name": "A5127", "raw_oneway": true, "raw_direction": "Victoria Rd-->A453", "raw_techno": "Estimated using previous year's AADF on this link", "osm_name": "Lichfield Road", "osm_type": "primary", "osm_lanes": 2.0, "osm_oneway": null, "osm_distance": 3.4568757736402489, "osm_maxspeed": 48.2802, "osmid": 71589679.0 }, "geometry": { "type": "Point", "coordinates": [ -1.822914689, 52.56781594 ] } },
{ "type": "Feature", "properties": { "AADT": 62525, "TR_AADT": 1484, "2W_AADT": 399, "raw_name": "A38M", "raw_oneway": true, "raw_direction": "A38(M)-->A4540", "raw_techno": "Estimated from nearby links", "osm_name": "Aston Expressway", "osm_type": "motorway", "osm_lanes": 2.0, "osm_oneway": "True", "osm_distance": 3.9668181183001452, "osm_maxspeed": 80.467, "osmid": 237213387.0 }, "geometry": { "type": "Point", "coordinates": [ -1.88920399, 52.490763146 ] } },
{ "type": "Feature", "properties": { "AADT": 143330, "TR_AADT": 23162, "2W_AADT": 354, "raw_name": "M6", "raw_oneway": true, "raw_direction": "M6 spur-->M6 spur", "raw_techno": "Dependent on a neighbouring counted link", "osm_name": null, "osm_type": "motorway", "osm_lanes": 3.0, "osm_oneway": "True", "osm_distance": 1.6466565004513187, "osm_maxspeed": 112.6538, "osmid": 22924827.0 }, "geometry": { "type": "Point", "coordinates": [ -1.865869595, 52.512045185 ] } },
{ "type": "Feature", "properties": { "AADT": 21500, "TR_AADT": 3474, "2W_AADT": 53, "raw_name": "M6", "raw_oneway": true, "raw_direction": "M6 main route-->Salford Circus", "raw_techno": "Estimated from nearby links", "osm_name": null, "osm_type": "motorway_link", "osm_lanes": 2.0, "osm_oneway": "True", "osm_distance": 3.9178226740533311, "osm_maxspeed": 112.6538, "osmid": 22569835.0 }, "geometry": { "type": "Point", "coordinates": [ -1.861454527, 52.510332024 ] } },
{ "type": "Feature", "properties": { "AADT": 21500, "TR_AADT": 3474, "2W_AADT": 53, "raw_name": "M6", "raw_oneway": true, "raw_direction": "A38(M)-->M6 main route", "raw_techno": "Estimated from nearby links", "osm_name": null, "osm_type": null, "osm_lanes": null, "osm_oneway": null, "osm_distance": null, "osm_maxspeed": null, "osmid": null }, "geometry": { "type": "Point", "coordinates": [ -1.867347664, 52.510518562 ] } },
{ "type": "Feature", "properties": { "AADT": 24289, "TR_AADT": 1201, "2W_AADT": 84, "raw_name": "M6", "raw_oneway": true, "raw_direction": "A38(M)-->M6 main route", "raw_techno": "Estimated from nearby links", "osm_name": null, "osm_type": "motorway", "osm_lanes": 3.0, "osm_oneway": "True", "osm_distance": 14.169938918670951, "osm_maxspeed": 112.6538, "osmid": 22924827.0 }, "geometry": { "type": "Point", "coordinates": [ -1.864401089, 52.51042533 ] } },
{ "type": "Feature", "properties": { "AADT": 21500, "TR_AADT": 3474, "2W_AADT": 53, "raw_name": "M6", "raw_oneway": true, "raw_direction": "M6 main route-->Salford Circus", "raw_techno": "Estimated from nearby links", "osm_name": null, "osm_type": "motorway_link", "osm_lanes": 2.0, "osm_oneway": "True", "osm_distance": 0.36616356747842488, "osm_maxspeed": 112.6538, "osmid": 2146.0 }, "geometry": { "type": "Point", "coordinates": [ -1.862043333, 52.510512509 ] } },
{ "type": "Feature", "properties": { "AADT": 25630, "TR_AADT": 351, "2W_AADT": 123, "raw_name": "A38(M)", "raw_oneway": true, "raw_direction": "A5127-->A5127", "raw_techno": "Estimated from nearby links", "osm_name": "Aston Expressway", "osm_type": "motorway", "osm_lanes": 2.0, "osm_oneway": "True", "osm_distance": 0.55549580760380501, "osm_maxspeed": 80.467, "osmid": 2302.0 }, "geometry": { "type": "Point", "coordinates": [ -1.857771849, 52.510057967 ] } },
{ "type": "Feature", "properties": { "AADT": 32679, "TR_AADT": 2147, "2W_AADT": 211, "raw_name": "A38M", "raw_oneway": true, "raw_direction": "A38(M)-->A38(M)", "raw_techno": "Estimated from nearby links", "osm_name": "Tyburn Road", "osm_type": "trunk", "osm_lanes": 2.0, "osm_oneway": "True", "osm_distance": 1.5476867612002414, "osm_maxspeed": 64.3736, "osmid": 3240938.0 }, "geometry": { "type": "Point", "coordinates": [ -1.857776194, 52.508709484 ] } },
{ "type": "Feature", "properties": { "AADT": 26431, "TR_AADT": 295, "2W_AADT": 98, "raw_name": "A34", "raw_oneway": true, "raw_direction": "LA Boundary-->B4025", "raw_techno": "Estimated using previous year's AADF on this link", "osm_name": "Stratford Road", "osm_type": "trunk", "osm_lanes": 2.0, "osm_oneway": "True", "osm_distance": 4.1496115483003724, "osm_maxspeed": 48.2802, "osmid": 623181325.0 }, "geometry": { "type": "Point", "coordinates": [ -1.834840635, 52.420757645 ] } },
{ "type": "Feature", "properties": { "AADT": 18677, "TR_AADT": 214, "2W_AADT": 126, "raw_name": "A458", "raw_oneway": true, "raw_direction": "LA Boundary-->A456", "raw_techno": "Estimated using previous year's AADF on this link", "osm_name": "Hagley Road West", "osm_type": "trunk", "osm_lanes": 2.0, "osm_oneway": null, "osm_distance": 1.7681741209702644, "osm_maxspeed": 48.2802, "osmid": 135529890.0 }, "geometry": { "type": "Point", "coordinates": [ -2.01064147, 52.462082346 ] } },
{ "type": "Feature", "properties": { "AADT": 8170, "TR_AADT": 537, "2W_AADT": 53, "raw_name": "A38", "raw_oneway": true, "raw_direction": "A5127-->A38M", "raw_techno": "Estimated from nearby links", "osm_name": "Tyburn Road", "osm_type": "trunk", "osm_lanes": 2.0, "osm_oneway": "True", "osm_distance": 2.6847529894582487, "osm_maxspeed": 64.3736, "osmid": 3240938.0 }, "geometry": { "type": "Point", "coordinates": [ -1.857334475, 52.508619054 ] } },
{ "type": "Feature", "properties": { "AADT": 6408, "TR_AADT": 88, "2W_AADT": 31, "raw_name": "A5127", "raw_oneway": true, "raw_direction": "A38-->A38M", "raw_techno": "Estimated from nearby links", "osm_name": "Gravelly Hill", "osm_type": "primary", "osm_lanes": 2.0, "osm_oneway": "True", "osm_distance": 2.5684444615991442, "osm_maxspeed": 48.2802, "osmid": 5080722.0 }, "geometry": { "type": "Point", "coordinates": [ -1.857550838, 52.510057701 ] } },
{ "type": "Feature", "properties": { "AADT": 15631, "TR_AADT": 371, "2W_AADT": 100, "raw_name": "A38", "raw_oneway": true, "raw_direction": "A38M-->A4540", "raw_techno": "Estimated from nearby links", "osm_name": "Aston Road", "osm_type": "trunk_link", "osm_lanes": 2.0, "osm_oneway": "True", "osm_distance": 0.23222920368424399, "osm_maxspeed": 48.2802, "osmid": 454926181.0 }, "geometry": { "type": "Point", "coordinates": [ -1.889173205, 52.491293524 ] } },
{ "type": "Feature", "properties": { "AADT": 15151, "TR_AADT": 237, "2W_AADT": 87, "raw_name": "A4040", "raw_oneway": true, "raw_direction": "A38-->A4040 Wheelwright Road", "raw_techno": "Manual count", "osm_name": "Bromford Lane", "osm_type": "primary", "osm_lanes": 4.0, "osm_oneway": null, "osm_distance": 5.0645464842988837, "osm_maxspeed": 48.2802, "osmid": 202265641.0 }, "geometry": { "type": "Point", "coordinates": [ -1.833608969, 52.509756818 ] } },
{ "type": "Feature", "properties": { "AADT": 14725, "TR_AADT": 721, "2W_AADT": 49, "raw_name": "A4040", "raw_oneway": true, "raw_direction": "A4040 Bromford Lane-->A38", "raw_techno": "Estimated using previous year's AADF on this link", "osm_name": "Wheelwright Road", "osm_type": "tertiary", "osm_lanes": 3.0, "osm_oneway": null, "osm_distance": 1.7507302744125048, "osm_maxspeed": null, "osmid": 23494779.0 }, "geometry": { "type": "Point", "coordinates": [ -1.834936373, 52.509399077 ] } },
{ "type": "Feature", "properties": { "AADT": 27159, "TR_AADT": 1309, "2W_AADT": 176, "raw_name": "A38", "raw_oneway": true, "raw_direction": "A4040 Wheelwright Road-->A4040 Bromford Lane", "raw_techno": "Manual count", "osm_name": "Tyburn Road", "osm_type": "trunk", "osm_lanes": 3.0, "osm_oneway": "True", "osm_distance": 0.72920117745395086, "osm_maxspeed": 64.3736, "osmid": 430790565.0 }, "geometry": { "type": "Point", "coordinates": [ -1.835081696, 52.509938675 ] } },
{ "type": "Feature", "properties": { "AADT": 11590, "TR_AADT": 234, "2W_AADT": 25, "raw_name": "A34", "raw_oneway": true, "raw_direction": "A4040-->A34 spur", "raw_techno": "Estimated using previous year's AADF on this link", "osm_name": null, "osm_type": null, "osm_lanes": null, "osm_oneway": null, "osm_distance": null, "osm_maxspeed": null, "osmid": null }, "geometry": { "type": "Point", "coordinates": [ -1.900998086, 52.51830971 ] } },
{ "type": "Feature", "properties": { "AADT": 11523, "TR_AADT": 184, "2W_AADT": 22, "raw_name": "A34", "raw_oneway": true, "raw_direction": "A34 main route-->A453", "raw_techno": "Estimated using previous year's AADF on this link", "osm_name": null, "osm_type": "primary", "osm_lanes": 2.0, "osm_oneway": "True", "osm_distance": 1.1408619566781291, "osm_maxspeed": null, "osmid": 1086956501.0 }, "geometry": { "type": "Point", "coordinates": [ -1.899302587, 52.51864091 ] } },
{ "type": "Feature", "properties": { "AADT": 31720, "TR_AADT": 528, "2W_AADT": 141, "raw_name": "A453", "raw_oneway": true, "raw_direction": "A4040-->A34 spur", "raw_techno": "Estimated using previous year's AADF on this link", "osm_name": null, "osm_type": "service", "osm_lanes": null, "osm_oneway": "True", "osm_distance": 1.3319071040626511, "osm_maxspeed": null, "osmid": 628141399.0 }, "geometry": { "type": "Point", "coordinates": [ -1.899304022, 52.518011618 ] } },
{ "type": "Feature", "properties": { "AADT": 14424, "TR_AADT": 865, "2W_AADT": 64, "raw_name": "A47", "raw_oneway": true, "raw_direction": "A4540-->A4040", "raw_techno": "Estimated using previous year's AADF on this link", "osm_name": "Heartlands Parkway", "osm_type": "primary", "osm_lanes": 2.0, "osm_oneway": "True", "osm_distance": 1.2325495338182875, "osm_maxspeed": 64.3736, "osmid": 3981513.0 }, "geometry": { "type": "Point", "coordinates": [ -1.861496834, 52.496847182 ] } },
{ "type": "Feature", "properties": { "AADT": 18577, "TR_AADT": 219, "2W_AADT": 65, "raw_name": "A453", "raw_oneway": true, "raw_direction": "B4148 Whitehouse Common-->LA Boundary", "raw_techno": "Dependent on a neighbouring counted link", "osm_name": "Tamworth Road", "osm_type": "primary", "osm_lanes": 2.0, "osm_oneway": null, "osm_distance": 0.60755601781122215, "osm_maxspeed": 96.5604, "osmid": 177724782.0 }, "geometry": { "type": "Point", "coordinates": [ -1.794811569, 52.583143243 ] } },
{ "type": "Feature", "properties": { "AADT": 18607, "TR_AADT": 241, "2W_AADT": 65, "raw_name": "A452", "raw_oneway": true, "raw_direction": "B4138 W-->B4138 E", "raw_techno": "Estimated using previous year's AADF on this link", "osm_name": null, "osm_type": null, "osm_lanes": null, "osm_oneway": null, "osm_distance": null, "osm_maxspeed": null, "osmid": null }, "geometry": { "type": "Point", "coordinates": [ -1.878977314, 52.568066179 ] } },
{ "type": "Feature", "properties": { "AADT": 48079, "TR_AADT": 1376, "2W_AADT": 119, "raw_name": "M6(T)", "raw_oneway": true, "raw_direction": "A446-->LA Boundary", "raw_techno": "Estimated using previous year's AADF on this link", "osm_name": null, "osm_type": "motorway", "osm_lanes": 3.0, "osm_oneway": "True", "osm_distance": 4.8565673543155858, "osm_maxspeed": 112.6538, "osmid": 29499675.0 }, "geometry": { "type": "Point", "coordinates": [ -1.79228649, 52.586554976 ] } },
{ "type": "Feature", "properties": { "AADT": 27112, "TR_AADT": 2393, "2W_AADT": 141, "raw_name": "M6(T)", "raw_oneway": true, "raw_direction": "T3-->LA Boundary", "raw_techno": "Estimated using previous year's AADF on this link", "osm_name": null, "osm_type": "motorway", "osm_lanes": 3.0, "osm_oneway": "True", "osm_distance": 16.86285842770193, "osm_maxspeed": 112.6538, "osmid": 74810791.0 }, "geometry": { "type": "Point", "coordinates": [ -1.774210071, 52.571329131 ] } },
{ "type": "Feature", "properties": { "AADT": 386, "TR_AADT": 2, "2W_AADT": 0, "raw_name": "M6(T)", "raw_oneway": true, "raw_direction": "LA (Warwickshire) boundary-->A38", "raw_techno": "Estimated using previous year's AADF on this link", "osm_name": null, "osm_type": "motorway_link", "osm_lanes": 1.0, "osm_oneway": "True", "osm_distance": 1.8961204438618073, "osm_maxspeed": 112.6538, "osmid": 144373632.0 }, "geometry": { "type": "Point", "coordinates": [ -1.770384206, 52.569344019 ] } },
{ "type": "Feature", "properties": { "AADT": 21770, "TR_AADT": 1212, "2W_AADT": 88, "raw_name": "A38", "raw_oneway": true, "raw_direction": "M6 Toll slip road-->LA (Warwickshire) Boundary", "raw_techno": "Estimated using previous year's AADF on this link", "osm_name": "Sutton Coldfield Bypass", "osm_type": "trunk", "osm_lanes": 2.0, "osm_oneway": "True", "osm_distance": 3.4552028081695565, "osm_maxspeed": 112.6538, "osmid": 189598285.0 }, "geometry": { "type": "Point", "coordinates": [ -1.772580102, 52.572674491 ] } },
{ "type": "Feature", "properties": { "AADT": 18580, "TR_AADT": 1301, "2W_AADT": 91, "raw_name": "A38", "raw_oneway": true, "raw_direction": "LA (Warwickshire)-->M6 Toll slip road", "raw_techno": "Estimated using previous year's AADF on this link", "osm_name": "Sutton Coldfield Bypass", "osm_type": "trunk", "osm_lanes": 2.0, "osm_oneway": "True", "osm_distance": 1.0420175131401037, "osm_maxspeed": 112.6538, "osmid": 460.0 }, "geometry": { "type": "Point", "coordinates": [ -1.770826822, 52.569344875 ] } },
{ "type": "Feature", "properties": { "AADT": 13015, "TR_AADT": 237, "2W_AADT": 34, "raw_name": "A4041", "raw_oneway": true, "raw_direction": "LA Boundary-->A452", "raw_techno": "Estimated using previous year's AADF on this link", "osm_name": "Queslett Road", "osm_type": "trunk", "osm_lanes": 2.0, "osm_oneway": "True", "osm_distance": 3.7284875167230185, "osm_maxspeed": 64.3736, "osmid": 4209921.0 }, "geometry": { "type": "Point", "coordinates": [ -1.899957343, 52.554870657 ] } },
{ "type": "Feature", "properties": { "AADT": 50762, "TR_AADT": 1196, "2W_AADT": 284, "raw_name": "A38", "raw_oneway": true, "raw_direction": "A456/A457 roundabout-->A38", "raw_techno": "Manual count", "osm_name": "Suffolk Street Queensway", "osm_type": "trunk", "osm_lanes": 4.0, "osm_oneway": "True", "osm_distance": 2.9979753496508978, "osm_maxspeed": 48.2802, "osmid": 688146297.0 }, "geometry": { "type": "Point", "coordinates": [ -1.902725194, 52.476840574 ] } },
{ "type": "Feature", "properties": { "AADT": 28347, "TR_AADT": 512, "2W_AADT": 205, "raw_name": "A4400", "raw_oneway": true, "raw_direction": "A456/A457 roundabout-->A38", "raw_techno": "Manual count", "osm_name": "Suffolk Street Queensway", "osm_type": "trunk", "osm_lanes": 4.0, "osm_oneway": "True", "osm_distance": 2.9979753496508978, "osm_maxspeed": 48.2802, "osmid": 688146297.0 }, "geometry": { "type": "Point", "coordinates": [ -1.902725194, 52.476840574 ] } },
{ "type": "Feature", "properties": { "AADT": 49285, "TR_AADT": 1149, "2W_AADT": 350, "raw_name": "A38", "raw_oneway": true, "raw_direction": "A4540-->A4400", "raw_techno": "Manual count", "osm_name": "Bristol Street", "osm_type": "trunk", "osm_lanes": 3.0, "osm_oneway": "True", "osm_distance": 7.7475185336680923, "osm_maxspeed": 48.2802, "osmid": 376544182.0 }, "geometry": { "type": "Point", "coordinates": [ -1.899523029, 52.473556566 ] } },
{ "type": "Feature", "properties": { "AADT": 22897, "TR_AADT": 599, "2W_AADT": 143, "raw_name": "A38", "raw_oneway": true, "raw_direction": "A456/A457 rooundabout-->B4100", "raw_techno": "Estimated using previous year's AADF on this link", "osm_name": "Queensway", "osm_type": "trunk", "osm_lanes": 2.0, "osm_oneway": "True", "osm_distance": 0.031834705427910157, "osm_maxspeed": 48.2802, "osmid": 52026803.0 }, "geometry": { "type": "Point", "coordinates": [ -1.902151359, 52.483330853 ] } },
{ "type": "Feature", "properties": { "AADT": 29313, "TR_AADT": 539, "2W_AADT": 145, "raw_name": "A4400", "raw_oneway": true, "raw_direction": "A456/A457 rooundabout-->B4100", "raw_techno": "Estimated using previous year's AADF on this link", "osm_name": "Queensway", "osm_type": "trunk", "osm_lanes": 2.0, "osm_oneway": "True", "osm_distance": 0.031834705427910157, "osm_maxspeed": 48.2802, "osmid": 52026803.0 }, "geometry": { "type": "Point", "coordinates": [ -1.902637587, 52.483196404 ] } },
{ "type": "Feature", "properties": { "AADT": 65211, "TR_AADT": 1745, "2W_AADT": 417, "raw_name": "A38", "raw_oneway": true, "raw_direction": "A41-->A38", "raw_techno": "Manual count", "osm_name": "St Chads Queensway", "osm_type": "trunk", "osm_lanes": 2.0, "osm_oneway": "True", "osm_distance": 3.0384643750044695, "osm_maxspeed": 48.2802, "osmid": 23172499.0 }, "geometry": { "type": "Point", "coordinates": [ -1.896475911, 52.485996053 ] } },
{ "type": "Feature", "properties": { "AADT": 19211, "TR_AADT": 427, "2W_AADT": 123, "raw_name": "A4400", "raw_oneway": true, "raw_direction": "A41-->A38", "raw_techno": "Estimated using previous year's AADF on this link", "osm_name": "St Chads Queensway", "osm_type": "trunk", "osm_lanes": 2.0, "osm_oneway": "True", "osm_distance": 3.0384643750044695, "osm_maxspeed": 48.2802, "osmid": 23172499.0 }, "geometry": { "type": "Point", "coordinates": [ -1.896476205, 52.485870194 ] } },
{ "type": "Feature", "properties": { "AADT": 21853, "TR_AADT": 262, "2W_AADT": 92, "raw_name": "A4040", "raw_oneway": true, "raw_direction": "A38 Aston Webb Boulevard-->A4123", "raw_techno": "Manual count", "osm_name": "Harborne Lane", "osm_type": "primary", "osm_lanes": 2.0, "osm_oneway": null, "osm_distance": 4.062572220296623, "osm_maxspeed": 48.2802, "osmid": 28150505.0 }, "geometry": { "type": "Point", "coordinates": [ -1.945855782, 52.447174153 ] } },
{ "type": "Feature", "properties": { "AADT": 31181, "TR_AADT": 291, "2W_AADT": 192, "raw_name": "A38", "raw_oneway": true, "raw_direction": "A38-->A38 Aston Webb", "raw_techno": "Manual count", "osm_name": "Harborne Lane", "osm_type": "trunk", "osm_lanes": 2.0, "osm_oneway": "True", "osm_distance": 3.336831597497032, "osm_maxspeed": null, "osmid": 635762590.0 }, "geometry": { "type": "Point", "coordinates": [ -1.941830841, 52.442245724 ] } },
{ "type": "Feature", "properties": { "AADT": 28529, "TR_AADT": 403, "2W_AADT": 205, "raw_name": "A38", "raw_oneway": true, "raw_direction": "A4040-->A4029", "raw_techno": "Estimated using previous year's AADF on this link", "osm_name": "Bristol Road", "osm_type": "trunk", "osm_lanes": 3.0, "osm_oneway": "True", "osm_distance": 2.5635931060796233, "osm_maxspeed": 48.2802, "osmid": 3869312.0 }, "geometry": { "type": "Point", "coordinates": [ -1.92734646, 52.447281144 ] } },
{ "type": "Feature", "properties": { "AADT": 21317, "TR_AADT": 523, "2W_AADT": 136, "raw_name": "A452", "raw_oneway": true, "raw_direction": "M6 roundabout-->A47 Fort Parkway", "raw_techno": "Estimated from nearby links", "osm_name": "Newport Road", "osm_type": "secondary", "osm_lanes": 2.0, "osm_oneway": null, "osm_distance": 0.73110833367085315, "osm_maxspeed": 64.3736, "osmid": 3365269.0 }, "geometry": { "type": "Point", "coordinates": [ -1.79963994, 52.504813739 ] } },
{ "type": "Feature", "properties": { "AADT": 1542, "TR_AADT": 39, "2W_AADT": 12, "raw_name": "A4029", "raw_oneway": true, "raw_direction": "A4029-->B4217", "raw_techno": "Estimated from nearby links", "osm_name": "Pebble Mill Road", "osm_type": "primary", "osm_lanes": 2.0, "osm_oneway": "True", "osm_distance": 3.171370406651437, "osm_maxspeed": 48.2802, "osmid": 37902117.0 }, "geometry": { "type": "Point", "coordinates": [ -1.912521703, 52.451622305 ] } },
{ "type": "Feature", "properties": { "AADT": 22543, "TR_AADT": 1341, "2W_AADT": 147, "raw_name": "A47", "raw_oneway": true, "raw_direction": "A452-->A457", "raw_techno": "Estimated using previous year's AADF on this link", "osm_name": "Fort Parkway", "osm_type": "primary", "osm_lanes": 2.0, "osm_oneway": "True", "osm_distance": 4.0506663723154874, "osm_maxspeed": 80.467, "osmid": 205652884.0 }, "geometry": { "type": "Point", "coordinates": [ -1.821684261, 52.507312199 ] } },
{ "type": "Feature", "properties": { "AADT": 51742, "TR_AADT": 2196, "2W_AADT": 330, "raw_name": "A452", "raw_oneway": true, "raw_direction": "M6 roundabout-->A47 Fort Parkway", "raw_techno": "Estimated using previous year's AADF on this link", "osm_name": "Chester Road", "osm_type": "trunk", "osm_lanes": 3.0, "osm_oneway": "True", "osm_distance": 3.4547593409687209, "osm_maxspeed": 64.3736, "osmid": 23561961.0 }, "geometry": { "type": "Point", "coordinates": [ -1.796918111, 52.510418822 ] } },
{ "type": "Feature", "properties": { "AADT": 17992, "TR_AADT": 214, "2W_AADT": 112, "raw_name": "B4121", "raw_oneway": true, "raw_direction": null, "raw_techno": "Estimated using previous year's AADF on this link", "osm_name": "West Boulevard", "osm_type": "secondary", "osm_lanes": 2.0, "osm_oneway": "True", "osm_distance": 1.095777680245972, "osm_maxspeed": 64.3736, "osmid": 739302885.0 }, "geometry": { "type": "Point", "coordinates": [ -1.981237269, 52.45586932 ] } },
{ "type": "Feature", "properties": { "AADT": 10576, "TR_AADT": 87, "2W_AADT": 46, "raw_name": "B4515", "raw_oneway": true, "raw_direction": null, "raw_techno": "Manual count", "osm_name": "Wheeler Street", "osm_type": "secondary", "osm_lanes": 2.0, "osm_oneway": null, "osm_distance": 1.1311367814644453, "osm_maxspeed": null, "osmid": 1353237246.0 }, "geometry": { "type": "Point", "coordinates": [ -1.90261079, 52.502048289 ] } },
{ "type": "Feature", "properties": { "AADT": 13188, "TR_AADT": 84, "2W_AADT": 79, "raw_name": "B4124", "raw_oneway": true, "raw_direction": null, "raw_techno": "Manual count", "osm_name": "High Street", "osm_type": "secondary", "osm_lanes": 2.0, "osm_oneway": null, "osm_distance": 0.34263192452130087, "osm_maxspeed": 32.1868, "osmid": 145401189.0 }, "geometry": { "type": "Point", "coordinates": [ -1.95620306, 52.458110254 ] } },
{ "type": "Feature", "properties": { "AADT": 10499, "TR_AADT": 95, "2W_AADT": 42, "raw_name": "B4217", "raw_oneway": true, "raw_direction": null, "raw_techno": "Manual count", "osm_name": "Church Road", "osm_type": "secondary", "osm_lanes": 2.0, "osm_oneway": null, "osm_distance": 0.2765661973216757, "osm_maxspeed": null, "osmid": 1024252835.0 }, "geometry": { "type": "Point", "coordinates": [ -1.921213842, 52.462263558 ] } },
{ "type": "Feature", "properties": { "AADT": 11753, "TR_AADT": 75, "2W_AADT": 56, "raw_name": "B4217", "raw_oneway": true, "raw_direction": null, "raw_techno": "Manual count", "osm_name": "Salisbury Road", "osm_type": "secondary", "osm_lanes": 2.0, "osm_oneway": null, "osm_distance": 1.0573995642786491, "osm_maxspeed": 48.2802, "osmid": 143715981.0 }, "geometry": { "type": "Point", "coordinates": [ -1.892094464, 52.446948655 ] } },
{ "type": "Feature", "properties": { "AADT": 16005, "TR_AADT": 260, "2W_AADT": 122, "raw_name": "B4121", "raw_oneway": true, "raw_direction": null, "raw_techno": "Manual count", "osm_name": "Bell Hill", "osm_type": "secondary", "osm_lanes": 2.0, "osm_oneway": "True", "osm_distance": 0.85600388683397155, "osm_maxspeed": 48.2802, "osmid": 640284574.0 }, "geometry": { "type": "Point", "coordinates": [ -1.968621258, 52.420284167 ] } },
{ "type": "Feature", "properties": { "AADT": 3868, "TR_AADT": 41, "2W_AADT": 31, "raw_name": "B4126", "raw_oneway": true, "raw_direction": null, "raw_techno": "Manual count", "osm_name": "Gooch Street", "osm_type": "tertiary", "osm_lanes": 2.0, "osm_oneway": null, "osm_distance": 0.19257969553749754, "osm_maxspeed": 32.1868, "osmid": 24847097.0 }, "geometry": { "type": "Point", "coordinates": [ -1.891828245, 52.465575688 ] } },
{ "type": "Feature", "properties": { "AADT": 11744, "TR_AADT": 76, "2W_AADT": 33, "raw_name": "B4148", "raw_oneway": true, "raw_direction": null, "raw_techno": "Manual count", "osm_name": null, "osm_type": "secondary_link", "osm_lanes": null, "osm_oneway": null, "osm_distance": 0.12708154742235739, "osm_maxspeed": null, "osmid": 103214160.0 }, "geometry": { "type": "Point", "coordinates": [ -1.800035468, 52.534562022 ] } },
{ "type": "Feature", "properties": { "AADT": 9210, "TR_AADT": 57, "2W_AADT": 42, "raw_name": "B4514", "raw_oneway": true, "raw_direction": null, "raw_techno": "Manual count", "osm_name": "Olton Boulevard East", "osm_type": "residential", "osm_lanes": 2.0, "osm_oneway": "False", "osm_distance": 0.082550804052006113, "osm_maxspeed": 48.2802, "osmid": 7972512.0 }, "geometry": { "type": "Point", "coordinates": [ -1.822916424, 52.442550258 ] } },
{ "type": "Feature", "properties": { "AADT": 10948, "TR_AADT": 102, "2W_AADT": 72, "raw_name": "B4142", "raw_oneway": true, "raw_direction": null, "raw_techno": "Estimated using previous year's AADF on this link", "osm_name": "Gravelly Lane", "osm_type": "secondary", "osm_lanes": 2.0, "osm_oneway": null, "osm_distance": 0.11744440171449889, "osm_maxspeed": null, "osmid": 4565266.0 }, "geometry": { "type": "Point", "coordinates": [ -1.842239894, 52.52714611 ] } },
{ "type": "Feature", "properties": { "AADT": 8918, "TR_AADT": 58, "2W_AADT": 51, "raw_name": "B4146", "raw_oneway": true, "raw_direction": null, "raw_techno": "Manual count", "osm_name": "Dudley Park Road", "osm_type": "secondary", "osm_lanes": 2.0, "osm_oneway": null, "osm_distance": 0.0048286535680102313, "osm_maxspeed": 48.2802, "osmid": 143455633.0 }, "geometry": { "type": "Point", "coordinates": [ -1.82352628, 52.448250842 ] } },
{ "type": "Feature", "properties": { "AADT": 7301, "TR_AADT": 618, "2W_AADT": 38, "raw_name": "B4132", "raw_oneway": true, "raw_direction": null, "raw_techno": "Manual count", "osm_name": "Lynton Road", "osm_type": "secondary", "osm_lanes": 2.0, "osm_oneway": "True", "osm_distance": 0.21645539145250289, "osm_maxspeed": null, "osmid": 4763713.0 }, "geometry": { "type": "Point", "coordinates": [ -1.876642589, 52.500837457 ] } },
{ "type": "Feature", "properties": { "AADT": 15796, "TR_AADT": 200, "2W_AADT": 56, "raw_name": "B4128", "raw_oneway": true, "raw_direction": null, "raw_techno": "Estimated using previous year's AADF on this link", "osm_name": "Coventry Road", "osm_type": "secondary", "osm_lanes": 3.0, "osm_oneway": null, "osm_distance": 0.73274700654507474, "osm_maxspeed": 48.2802, "osmid": 43377534.0 }, "geometry": { "type": "Point", "coordinates": [ -1.869944748, 52.474193073 ] } },
{ "type": "Feature", "properties": { "AADT": 12565, "TR_AADT": 101, "2W_AADT": 156, "raw_name": "B4120", "raw_oneway": true, "raw_direction": null, "raw_techno": "Estimated using previous year's AADF on this link", "osm_name": "Lickey Road", "osm_type": "secondary", "osm_lanes": 2.0, "osm_oneway": "True", "osm_distance": 0.85741451645344291, "osm_maxspeed": 48.2802, "osmid": 625981328.0 }, "geometry": { "type": "Point", "coordinates": [ -1.997516589, 52.388805005 ] } },
{ "type": "Feature", "properties": { "AADT": 6373, "TR_AADT": 25, "2W_AADT": 34, "raw_name": "B4129", "raw_oneway": true, "raw_direction": null, "raw_techno": "Manual count", "osm_name": "Norfolk Road", "osm_type": "secondary", "osm_lanes": 2.0, "osm_oneway": null, "osm_distance": 0.93577472193118849, "osm_maxspeed": null, "osmid": 375921254.0 }, "geometry": { "type": "Point", "coordinates": [ -1.9437283, 52.465701544 ] } },
{ "type": "Feature", "properties": { "AADT": 10132, "TR_AADT": 64, "2W_AADT": 43, "raw_name": "B4148", "raw_oneway": true, "raw_direction": null, "raw_techno": "Manual count", "osm_name": "Penns Lane", "osm_type": "secondary", "osm_lanes": 2.0, "osm_oneway": null, "osm_distance": 0.53435291479703484, "osm_maxspeed": null, "osmid": 218846951.0 }, "geometry": { "type": "Point", "coordinates": [ -1.80729837, 52.535724757 ] } },
{ "type": "Feature", "properties": { "AADT": 250, "TR_AADT": 1, "2W_AADT": 0, "raw_name": "C", "raw_oneway": true, "raw_direction": null, "raw_techno": "Manual count", "osm_name": "Summer Lane", "osm_type": "residential", "osm_lanes": null, "osm_oneway": null, "osm_distance": 0.055142452611527504, "osm_maxspeed": null, "osmid": 1177.0 }, "geometry": { "type": "Point", "coordinates": [ -1.767697317, 52.530511538 ] } },
{ "type": "Feature", "properties": { "AADT": 8699, "TR_AADT": 92, "2W_AADT": 42, "raw_name": "C", "raw_oneway": true, "raw_direction": null, "raw_techno": "Manual count", "osm_name": "Streetly Road", "osm_type": "residential", "osm_lanes": 2.0, "osm_oneway": "True", "osm_distance": 2.5567958979631715, "osm_maxspeed": 48.2802, "osmid": 4930243.0 }, "geometry": { "type": "Point", "coordinates": [ -1.858641878, 52.528236594 ] } },
{ "type": "Feature", "properties": { "AADT": 14352, "TR_AADT": 239, "2W_AADT": 85, "raw_name": "C", "raw_oneway": true, "raw_direction": null, "raw_techno": "Manual count", "osm_name": "Carters Lane", "osm_type": "tertiary", "osm_lanes": null, "osm_oneway": null, "osm_distance": 0.70953165585232236, "osm_maxspeed": null, "osmid": 48144595.0 }, "geometry": { "type": "Point", "coordinates": [ -2.014727681, 52.446106674 ] } },
{ "type": "Feature", "properties": { "AADT": 5353, "TR_AADT": 25, "2W_AADT": 33, "raw_name": "C", "raw_oneway": true, "raw_direction": null, "raw_techno": "Manual count", "osm_name": "Grove Road", "osm_type": "tertiary", "osm_lanes": 2.0, "osm_oneway": null, "osm_distance": 0.18294119506670961, "osm_maxspeed": null, "osmid": 145095344.0 }, "geometry": { "type": "Point", "coordinates": [ -1.902332108, 52.428141405 ] } },
{ "type": "Feature", "properties": { "AADT": 3958, "TR_AADT": 21, "2W_AADT": 23, "raw_name": "C", "raw_oneway": true, "raw_direction": null, "raw_techno": "Manual count", "osm_name": "Grange Road", "osm_type": "tertiary", "osm_lanes": 2.0, "osm_oneway": null, "osm_distance": 0.6806393958899899, "osm_maxspeed": 32.1868, "osmid": 12955182.0 }, "geometry": { "type": "Point", "coordinates": [ -1.860146218, 52.472159173 ] } },
{ "type": "Feature", "properties": { "AADT": 5059, "TR_AADT": 49, "2W_AADT": 21, "raw_name": "C", "raw_oneway": true, "raw_direction": null, "raw_techno": "Manual count", "osm_name": "Holt Street", "osm_type": "unclassified", "osm_lanes": null, "osm_oneway": null, "osm_distance": 0.5097564098575379, "osm_maxspeed": 32.1868, "osmid": 8002318.0 }, "geometry": { "type": "Point", "coordinates": [ -1.887928748, 52.488370622 ] } },
{ "type": "Feature", "properties": { "AADT": 8697, "TR_AADT": 59, "2W_AADT": 47, "raw_name": "C", "raw_oneway": true, "raw_direction": null, "raw_techno": "Estimated using previous year's AADF on this link", "osm_name": "Ridgacre Road", "osm_type": "tertiary", "osm_lanes": 2.0, "osm_oneway": "True", "osm_distance": 1.3192819543897523, "osm_maxspeed": null, "osmid": 27550113.0 }, "geometry": { "type": "Point", "coordinates": [ -1.992317676, 52.460500379 ] } },
{ "type": "Feature", "properties": { "AADT": 1687, "TR_AADT": 9, "2W_AADT": 7, "raw_name": "C", "raw_oneway": true, "raw_direction": null, "raw_techno": "Manual count", "osm_name": "Yatesbury Avenue", "osm_type": "tertiary", "osm_lanes": null, "osm_oneway": null, "osm_distance": 0.53474814947944826, "osm_maxspeed": null, "osmid": 29069400.0 }, "geometry": { "type": "Point", "coordinates": [ -1.791848327, 52.520038229 ] } },
{ "type": "Feature", "properties": { "AADT": 4187, "TR_AADT": 27, "2W_AADT": 9, "raw_name": "C", "raw_oneway": true, "raw_direction": null, "raw_techno": "Manual count", "osm_name": "Heeley Road", "osm_type": "residential", "osm_lanes": null, "osm_oneway": null, "osm_distance": 0.45552689482578207, "osm_maxspeed": 32.1868, "osmid": 627573927.0 }, "geometry": { "type": "Point", "coordinates": [ -1.933653089, 52.441009806 ] } },
{ "type": "Feature", "properties": { "AADT": 5811, "TR_AADT": 15, "2W_AADT": 27, "raw_name": "C", "raw_oneway": true, "raw_direction": null, "raw_techno": "Manual count", "osm_name": "Warren Road", "osm_type": "residential", "osm_lanes": null, "osm_oneway": null, "osm_distance": 1.1016511252433754, "osm_maxspeed": 48.2802, "osmid": 8003008.0 }, "geometry": { "type": "Point", "coordinates": [ -1.880433121, 52.537205495 ] } },
{ "type": "Feature", "properties": { "AADT": 6764, "TR_AADT": 80, "2W_AADT": 46, "raw_name": "C", "raw_oneway": true, "raw_direction": null, "raw_techno": "Estimated using previous year's AADF on this link", "osm_name": "Moat Lane", "osm_type": "residential", "osm_lanes": 2.0, "osm_oneway": null, "osm_distance": 0.73471072326093745, "osm_maxspeed": null, "osmid": 31963581.0 }, "geometry": { "type": "Point", "coordinates": [ -1.805000345, 52.465293814 ] } },
{ "type": "Feature", "properties": { "AADT": 5405, "TR_AADT": 21, "2W_AADT": 27, "raw_name": "C", "raw_oneway": true, "raw_direction": null, "raw_techno": "Estimated using previous year's AADF on this link", "osm_name": "Sedgemere Road", "osm_type": "unclassified", "osm_lanes": null, "osm_oneway": null, "osm_distance": 0.59586308376110497, "osm_maxspeed": null, "osmid": 4257884.0 }, "geometry": { "type": "Point", "coordinates": [ -1.796926406, 52.473398207 ] } },
{ "type": "Feature", "properties": { "AADT": 8856, "TR_AADT": 41, "2W_AADT": 32, "raw_name": "C", "raw_oneway": true, "raw_direction": null, "raw_techno": "Manual count", "osm_name": "Walkers Heath Road", "osm_type": "tertiary", "osm_lanes": null, "osm_oneway": null, "osm_distance": 1.5541037110948501, "osm_maxspeed": null, "osmid": 528438800.0 }, "geometry": { "type": "Point", "coordinates": [ -1.916495046, 52.404571302 ] } },
{ "type": "Feature", "properties": { "AADT": 1333, "TR_AADT": 4, "2W_AADT": 2, "raw_name": "C", "raw_oneway": true, "raw_direction": null, "raw_techno": "Manual count", "osm_name": "Green Lanes", "osm_type": "residential", "osm_lanes": null, "osm_oneway": null, "osm_distance": 1.4488714370048104, "osm_maxspeed": 48.2802, "osmid": 1098.0 }, "geometry": { "type": "Point", "coordinates": [ -1.829203923, 52.540091462 ] } },
{ "type": "Feature", "properties": { "AADT": 5537, "TR_AADT": 31, "2W_AADT": 13, "raw_name": "C", "raw_oneway": true, "raw_direction": null, "raw_techno": "Manual count", "osm_name": "Lindridge Road", "osm_type": "unclassified", "osm_lanes": null, "osm_oneway": null, "osm_distance": 0.27237241869531947, "osm_maxspeed": null, "osmid": 898.0 }, "geometry": { "type": "Point", "coordinates": [ -1.787770497, 52.56809087 ] } },
{ "type": "Feature", "properties": { "AADT": 8210, "TR_AADT": 44, "2W_AADT": 33, "raw_name": "C", "raw_oneway": true, "raw_direction": null, "raw_techno": "Manual count", "osm_name": "Witton Lodge Road", "osm_type": "unclassified", "osm_lanes": null, "osm_oneway": null, "osm_distance": 0.79810327442119899, "osm_maxspeed": null, "osmid": 39319454.0 }, "geometry": { "type": "Point", "coordinates": [ -1.852226852, 52.537937849 ] } },
{ "type": "Feature", "properties": { "AADT": 1968, "TR_AADT": 5, "2W_AADT": 3, "raw_name": "U", "raw_oneway": true, "raw_direction": null, "raw_techno": "Manual count", "osm_name": "Heath Croft Road", "osm_type": "residential", "osm_lanes": null, "osm_oneway": null, "osm_distance": 0.78060619553533939, "osm_maxspeed": null, "osmid": 4329488.0 }, "geometry": { "type": "Point", "coordinates": [ -1.813390417, 52.583686352 ] } },
{ "type": "Feature", "properties": { "AADT": 16177, "TR_AADT": 275, "2W_AADT": 98, "raw_name": "U", "raw_oneway": true, "raw_direction": null, "raw_techno": "Manual count", "osm_name": "Meadway", "osm_type": "residential", "osm_lanes": null, "osm_oneway": null, "osm_distance": 0.72504789062265795, "osm_maxspeed": null, "osmid": 24518134.0 }, "geometry": { "type": "Point", "coordinates": [ -1.793743379, 52.477213449 ] } },
{ "type": "Feature", "properties": { "AADT": 3245, "TR_AADT": 6, "2W_AADT": 3, "raw_name": "U", "raw_oneway": true, "raw_direction": null, "raw_techno": "Manual count", "osm_name": "Brownfield Road", "osm_type": "residential", "osm_lanes": null, "osm_oneway": null, "osm_distance": 0.39731101829910165, "osm_maxspeed": null, "osmid": 101211765.0 }, "geometry": { "type": "Point", "coordinates": [ -1.766561259, 52.500078417 ] } },
{ "type": "Feature", "properties": { "AADT": 2662, "TR_AADT": 5, "2W_AADT": 8, "raw_name": "U", "raw_oneway": true, "raw_direction": null, "raw_techno": "Manual count", "osm_name": "Dinmore Avenue", "osm_type": "residential", "osm_lanes": null, "osm_oneway": null, "osm_distance": 1.8134833189077895, "osm_maxspeed": null, "osmid": 24849698.0 }, "geometry": { "type": "Point", "coordinates": [ -1.961258651, 52.415463333 ] } },
{ "type": "Feature", "properties": { "AADT": 550, "TR_AADT": 0, "2W_AADT": 1, "raw_name": "U", "raw_oneway": true, "raw_direction": null, "raw_techno": "Manual count", "osm_name": "Stirling Road", "osm_type": "residential", "osm_lanes": null, "osm_oneway": null, "osm_distance": 2.1932624172301551, "osm_maxspeed": null, "osmid": 48277361.0 }, "geometry": { "type": "Point", "coordinates": [ -1.852510699, 52.550047553 ] } },
{ "type": "Feature", "properties": { "AADT": 3113, "TR_AADT": 7, "2W_AADT": 10, "raw_name": "U", "raw_oneway": true, "raw_direction": null, "raw_techno": "Manual count", "osm_name": "Brownfield Road", "osm_type": "residential", "osm_lanes": null, "osm_oneway": null, "osm_distance": 0.3413866189174331, "osm_maxspeed": null, "osmid": 24278718.0 }, "geometry": { "type": "Point", "coordinates": [ -1.775490756, 52.499565268 ] } },
{ "type": "Feature", "properties": { "AADT": 1202, "TR_AADT": 6, "2W_AADT": 2, "raw_name": "U", "raw_oneway": true, "raw_direction": null, "raw_techno": "Manual count", "osm_name": "Dora Road", "osm_type": "residential", "osm_lanes": null, "osm_oneway": null, "osm_distance": 0.93004155917149101, "osm_maxspeed": 32.1868, "osmid": 12652637.0 }, "geometry": { "type": "Point", "coordinates": [ -1.849661242, 52.468793075 ] } },
{ "type": "Feature", "properties": { "AADT": 1157, "TR_AADT": 5, "2W_AADT": 3, "raw_name": "U", "raw_oneway": true, "raw_direction": null, "raw_techno": "Manual count", "osm_name": "Park View Road", "osm_type": "residential", "osm_lanes": null, "osm_oneway": null, "osm_distance": 0.3876335733274226, "osm_maxspeed": null, "osmid": 4365213.0 }, "geometry": { "type": "Point", "coordinates": [ -1.858497475, 52.59160582 ] } },
{ "type": "Feature", "properties": { "AADT": 485, "TR_AADT": 0, "2W_AADT": 0, "raw_name": "U", "raw_oneway": true, "raw_direction": null, "raw_techno": "Manual count", "osm_name": "Allcroft Road", "osm_type": "residential", "osm_lanes": null, "osm_oneway": null, "osm_distance": 1.5958840250707025, "osm_maxspeed": null, "osmid": 4870320.0 }, "geometry": { "type": "Point", "coordinates": [ -1.843859965, 52.444197918 ] } },
{ "type": "Feature", "properties": { "AADT": 403, "TR_AADT": 34, "2W_AADT": 1, "raw_name": "U", "raw_oneway": true, "raw_direction": null, "raw_techno": "Manual count", "osm_name": "Garrison Street", "osm_type": "unclassified", "osm_lanes": null, "osm_oneway": null, "osm_distance": 0.20819537440751906, "osm_maxspeed": 48.2802, "osmid": 20182438.0 }, "geometry": { "type": "Point", "coordinates": [ -1.872118527, 52.481045792 ] } },
{ "type": "Feature", "properties": { "AADT": 375, "TR_AADT": 6, "2W_AADT": 9, "raw_name": "U", "raw_oneway": true, "raw_direction": null, "raw_techno": "Manual count", "osm_name": "Pound Road", "osm_type": "unclassified", "osm_lanes": null, "osm_oneway": null, "osm_distance": 0.10770409632280042, "osm_maxspeed": null, "osmid": 23756983.0 }, "geometry": { "type": "Point", "coordinates": [ -1.897913976, 52.405248996 ] } },
{ "type": "Feature", "properties": { "AADT": 335, "TR_AADT": 2, "2W_AADT": 0, "raw_name": "U", "raw_oneway": true, "raw_direction": null, "raw_techno": "Manual count", "osm_name": "Bryony Road", "osm_type": "residential", "osm_lanes": null, "osm_oneway": null, "osm_distance": 3.1722146503493298, "osm_maxspeed": 48.2802, "osmid": 25077408.0 }, "geometry": { "type": "Point", "coordinates": [ -1.958259364, 52.431087016 ] } },
{ "type": "Feature", "properties": { "AADT": 921, "TR_AADT": 22, "2W_AADT": 20, "raw_name": "U", "raw_oneway": true, "raw_direction": null, "raw_techno": "Manual count", "osm_name": "Lower Essex Street", "osm_type": "unclassified", "osm_lanes": null, "osm_oneway": "True", "osm_distance": 0.91084389135462773, "osm_maxspeed": 32.1868, "osmid": 872985267.0 }, "geometry": { "type": "Point", "coordinates": [ -1.896610001, 52.472735975 ] } },
{ "type": "Feature", "properties": { "AADT": 2259, "TR_AADT": 15, "2W_AADT": 5, "raw_name": "U", "raw_oneway": true, "raw_direction": null, "raw_techno": "Manual count", "osm_name": "Wright Street", "osm_type": "residential", "osm_lanes": null, "osm_oneway": null, "osm_distance": 0.95773651672560423, "osm_maxspeed": 32.1868, "osmid": 12655640.0 }, "geometry": { "type": "Point", "coordinates": [ -1.860839823, 52.471620591 ] } },
{ "type": "Feature", "properties": { "AADT": 768, "TR_AADT": 5, "2W_AADT": 8, "raw_name": "U", "raw_oneway": true, "raw_direction": null, "raw_techno": "Manual count", "osm_name": "Old Farm Grove", "osm_type": "residential", "osm_lanes": null, "osm_oneway": null, "osm_distance": 0.8012285249435499, "osm_maxspeed": null, "osmid": 25344739.0 }, "geometry": { "type": "Point", "coordinates": [ -1.859654355, 52.418407278 ] } },
{ "type": "Feature", "properties": { "AADT": 1992, "TR_AADT": 9, "2W_AADT": 11, "raw_name": "U", "raw_oneway": true, "raw_direction": null, "raw_techno": "Manual count", "osm_name": "Deakins Road", "osm_type": "tertiary", "osm_lanes": 2.0, "osm_oneway": null, "osm_distance": 0.57982767510784772, "osm_maxspeed": null, "osmid": 72187425.0 }, "geometry": { "type": "Point", "coordinates": [ -1.82615303, 52.464994113 ] } },
{ "type": "Feature", "properties": { "AADT": 1134, "TR_AADT": 6, "2W_AADT": 5, "raw_name": "U", "raw_oneway": true, "raw_direction": null, "raw_techno": "Manual count", "osm_name": "Colonial Road", "osm_type": "residential", "osm_lanes": null, "osm_oneway": null, "osm_distance": 0.30818691602367887, "osm_maxspeed": 32.1868, "osmid": 23598383.0 }, "geometry": { "type": "Point", "coordinates": [ -1.845129683, 52.480734915 ] } },
{ "type": "Feature", "properties": { "AADT": 1078, "TR_AADT": 8, "2W_AADT": 3, "raw_name": "U", "raw_oneway": true, "raw_direction": null, "raw_techno": "Manual count", "osm_name": "Jarvis Road", "osm_type": "residential", "osm_lanes": null, "osm_oneway": null, "osm_distance": 0.82088120238989837, "osm_maxspeed": null, "osmid": 4573750.0 }, "geometry": { "type": "Point", "coordinates": [ -1.84556877, 52.532023013 ] } },
{ "type": "Feature", "properties": { "AADT": 807, "TR_AADT": 2, "2W_AADT": 0, "raw_name": "U", "raw_oneway": true, "raw_direction": null, "raw_techno": "Manual count", "osm_name": "Pinewood Drive", "osm_type": "residential", "osm_lanes": null, "osm_oneway": null, "osm_distance": 0.80802506889217496, "osm_maxspeed": null, "osmid": 28194015.0 }, "geometry": { "type": "Point", "coordinates": [ -2.013047098, 52.435076123 ] } },
{ "type": "Feature", "properties": { "AADT": 2463, "TR_AADT": 7, "2W_AADT": 0, "raw_name": "U", "raw_oneway": true, "raw_direction": null, "raw_techno": "Manual count", "osm_name": "Cooksey Road", "osm_type": "residential", "osm_lanes": null, "osm_oneway": null, "osm_distance": 0.083617124043545085, "osm_maxspeed": 32.1868, "osmid": 12664576.0 }, "geometry": { "type": "Point", "coordinates": [ -1.859472315, 52.466494688 ] } },
{ "type": "Feature", "properties": { "AADT": 529, "TR_AADT": 2, "2W_AADT": 3, "raw_name": "U", "raw_oneway": true, "raw_direction": null, "raw_techno": "Manual count", "osm_name": "Doversley Road", "osm_type": "residential", "osm_lanes": null, "osm_oneway": null, "osm_distance": 2.2848452035535383, "osm_maxspeed": null, "osmid": 23769467.0 }, "geometry": { "type": "Point", "coordinates": [ -1.908059381, 52.41800521 ] } },
{ "type": "Feature", "properties": { "AADT": 13428, "TR_AADT": 58, "2W_AADT": 30, "raw_name": "U", "raw_oneway": true, "raw_direction": null, "raw_techno": "Manual count", "osm_name": "Princess Alice Drive", "osm_type": "service", "osm_lanes": null, "osm_oneway": "True", "osm_distance": 0.66169076078076372, "osm_maxspeed": null, "osmid": 101564933.0 }, "geometry": { "type": "Point", "coordinates": [ -1.860459451, 52.55010212 ] } },
{ "type": "Feature", "properties": { "AADT": 276, "TR_AADT": 4, "2W_AADT": 0, "raw_name": "U", "raw_oneway": true, "raw_direction": null, "raw_techno": "Manual count", "osm_name": "Hockley Close", "osm_type": "residential", "osm_lanes": null, "osm_oneway": null, "osm_distance": 1.0873852227803247, "osm_maxspeed": null, "osmid": 24019852.0 }, "geometry": { "type": "Point", "coordinates": [ -1.899676768, 52.496642896 ] } },
{ "type": "Feature", "properties": { "AADT": 827, "TR_AADT": 2, "2W_AADT": 7, "raw_name": "U", "raw_oneway": true, "raw_direction": null, "raw_techno": "Manual count", "osm_name": "Paget Road", "osm_type": "residential", "osm_lanes": null, "osm_oneway": null, "osm_distance": 0.8175727342516057, "osm_maxspeed": null, "osmid": 4477472.0 }, "geometry": { "type": "Point", "coordinates": [ -1.813652118, 52.52535159 ] } },
{ "type": "Feature", "properties": { "AADT": 1828, "TR_AADT": 16, "2W_AADT": 1, "raw_name": "U", "raw_oneway": true, "raw_direction": null, "raw_techno": "Manual count", "osm_name": "Baginton Road", "osm_type": "tertiary", "osm_lanes": null, "osm_oneway": null, "osm_distance": 0.92343693051175935, "osm_maxspeed": null, "osmid": 3368988.0 }, "geometry": { "type": "Point", "coordinates": [ -1.787524609, 52.524264803 ] } },
{ "type": "Feature", "properties": { "AADT": 764, "TR_AADT": 1, "2W_AADT": 1, "raw_name": "U", "raw_oneway": true, "raw_direction": null, "raw_techno": "Manual count", "osm_name": "Metchley Drive", "osm_type": "residential", "osm_lanes": null, "osm_oneway": null, "osm_distance": 0.25332094393245513, "osm_maxspeed": 32.1868, "osmid": 27744842.0 }, "geometry": { "type": "Point", "coordinates": [ -1.949923322, 52.454269049 ] } },
{ "type": "Feature", "properties": { "AADT": 9837, "TR_AADT": 65, "2W_AADT": 66, "raw_name": "U", "raw_oneway": true, "raw_direction": null, "raw_techno": "Manual count", "osm_name": "Lilley Lane", "osm_type": "residential", "osm_lanes": null, "osm_oneway": null, "osm_distance": 2.3616570645150086, "osm_maxspeed": 48.2802, "osmid": 28684591.0 }, "geometry": { "type": "Point", "coordinates": [ -1.959849352, 52.396781498 ] } },
{ "type": "Feature", "properties": { "AADT": 85, "TR_AADT": 0, "2W_AADT": 0, "raw_name": "U", "raw_oneway": true, "raw_direction": null, "raw_techno": "Manual count", "osm_name": "Nora Road", "osm_type": "residential", "osm_lanes": null, "osm_oneway": null, "osm_distance": 2.8860037198476007, "osm_maxspeed": 32.1868, "osmid": 23761419.0 }, "geometry": { "type": "Point", "coordinates": [ -1.867981133, 52.446474752 ] } },
{ "type": "Feature", "properties": { "AADT": 2323, "TR_AADT": 20, "2W_AADT": 6, "raw_name": "U", "raw_oneway": true, "raw_direction": null, "raw_techno": "Manual count", "osm_name": "Grove Lane", "osm_type": "residential", "osm_lanes": null, "osm_oneway": null, "osm_distance": 1.6978308849445154, "osm_maxspeed": null, "osmid": 680675558.0 }, "geometry": { "type": "Point", "coordinates": [ -1.956183214, 52.448392058 ] } },
{ "type": "Feature", "properties": { "AADT": 81, "TR_AADT": 4, "2W_AADT": 0, "raw_name": "U", "raw_oneway": true, "raw_direction": null, "raw_techno": "Manual count", "osm_name": null, "osm_type": "service", "osm_lanes": null, "osm_oneway": null, "osm_distance": 0.41798137788664913, "osm_maxspeed": null, "osmid": 24849709.0 }, "geometry": { "type": "Point", "coordinates": [ -1.960711957, 52.418519772 ] } },
{ "type": "Feature", "properties": { "AADT": 1199, "TR_AADT": 2, "2W_AADT": 3, "raw_name": "U", "raw_oneway": true, "raw_direction": null, "raw_techno": "Manual count", "osm_name": "Peel Street", "osm_type": "residential", "osm_lanes": null, "osm_oneway": null, "osm_distance": 0.14252893655047053, "osm_maxspeed": null, "osmid": 27758523.0 }, "geometry": { "type": "Point", "coordinates": [ -1.936039291, 52.489916612 ] } },
{ "type": "Feature", "properties": { "AADT": 226, "TR_AADT": 1, "2W_AADT": 0, "raw_name": "U", "raw_oneway": true, "raw_direction": null, "raw_techno": "Manual count", "osm_name": "Grayswood Park Road", "osm_type": "residential", "osm_lanes": null, "osm_oneway": null, "osm_distance": 0.98030473570518462, "osm_maxspeed": null, "osmid": 28152603.0 }, "geometry": { "type": "Point", "coordinates": [ -1.99963232, 52.460212932 ] } },
{ "type": "Feature", "properties": { "AADT": 66, "TR_AADT": 1, "2W_AADT": 0, "raw_name": "U", "raw_oneway": true, "raw_direction": null, "raw_techno": "Estimated using previous year's AADF on this link", "osm_name": "Woodstile Close", "osm_type": "residential", "osm_lanes": null, "osm_oneway": null, "osm_distance": 1.8055996431864993, "osm_maxspeed": null, "osmid": 4373359.0 }, "geometry": { "type": "Point", "coordinates": [ -1.81485821, 52.592624518 ] } },
{ "type": "Feature", "properties": { "AADT": 473, "TR_AADT": 1, "2W_AADT": 3, "raw_name": "U", "raw_oneway": true, "raw_direction": null, "raw_techno": "Manual count", "osm_name": "Anslow Road", "osm_type": "residential", "osm_lanes": null, "osm_oneway": null, "osm_distance": 0.12368596944090085, "osm_maxspeed": null, "osmid": 8600229.0 }, "geometry": { "type": "Point", "coordinates": [ -1.864748971, 52.526724425 ] } },