{
"type": "FeatureCollection",
"name": "Birmingham_AADT_2021",
"crs": { "type": "name", "properties": { "name": "urn:ogc:def:crs:OGC:1.3:CRS84" } },
"features": [
{ "type": "Feature", "properties": { "AADT": 19357, "TR_AADT": 305, "2W_AADT": 41, "raw_name": "A34", "raw_oneway": true, "raw_direction": "A4040-->B4217", "raw_techno": "Manual count", "osm_name": "Stratford Road", "osm_type": "trunk", "osm_lanes": 3.0, "osm_oneway": null, "osm_distance": 4.8734880248253702, "osmid": 429870895.0 }, "geometry": { "type": "Point", "coordinates": [ -1.8466841, 52.435875 ] } },
{ "type": "Feature", "properties": { "AADT": 22403, "TR_AADT": 1377, "2W_AADT": 155, "raw_name": "A38", "raw_oneway": true, "raw_direction": "B4148-->A452", "raw_techno": "Manual count", "osm_name": "Kingsbury Road", "osm_type": "trunk", "osm_lanes": 2.0, "osm_oneway": "True", "osm_distance": 4.88196072310852, "osmid": 25695360.0 }, "geometry": { "type": "Point", "coordinates": [ -1.8098571, 52.516732 ] } },
{ "type": "Feature", "properties": { "AADT": 25425, "TR_AADT": 513, "2W_AADT": 194, "raw_name": "A38", "raw_oneway": true, "raw_direction": "A4029-->B4217", "raw_techno": "Estimated using previous year's AADF on this link", "osm_name": null, "osm_type": "service", "osm_lanes": null, "osm_oneway": null, "osm_distance": 4.5232519937971958, "osmid": 942630881.0 }, "geometry": { "type": "Point", "coordinates": [ -1.9116637, 52.453921 ] } },
{ "type": "Feature", "properties": { "AADT": 18179, "TR_AADT": 599, "2W_AADT": 57, "raw_name": "A41", "raw_oneway": true, "raw_direction": "A4040 Handsworth-->LA Boundary", "raw_techno": "Estimated using previous year's AADF on this link", "osm_name": "Holyhead Road", "osm_type": "trunk", "osm_lanes": 4.0, "osm_oneway": null, "osm_distance": 1.9289135153473722, "osmid": 136914618.0 }, "geometry": { "type": "Point", "coordinates": [ -1.957228, 52.509415 ] } },
{ "type": "Feature", "properties": { "AADT": 9966, "TR_AADT": 170, "2W_AADT": 42, "raw_name": "A41", "raw_oneway": true, "raw_direction": "LA Boundary-->A4040 Acocks Green", "raw_techno": "Estimated using previous year's AADF on this link", "osm_name": "Warwick Road", "osm_type": "trunk", "osm_lanes": 1.0, "osm_oneway": "True", "osm_distance": 0.82148780409889344, "osmid": 42159274.0 }, "geometry": { "type": "Point", "coordinates": [ -1.8248702, 52.446993 ] } },
{ "type": "Feature", "properties": { "AADT": 11019, "TR_AADT": 235, "2W_AADT": 88, "raw_name": "A435", "raw_oneway": true, "raw_direction": "A4040-->B4217", "raw_techno": "Estimated using previous year's AADF on this link", "osm_name": "High Street", "osm_type": "trunk", "osm_lanes": 2.0, "osm_oneway": null, "osm_distance": 9.3994668590500794, "osmid": 4017637.0 }, "geometry": { "type": "Point", "coordinates": [ -1.8925773, 52.435926 ] } },
{ "type": "Feature", "properties": { "AADT": 13443, "TR_AADT": 406, "2W_AADT": 80, "raw_name": "A441", "raw_oneway": true, "raw_direction": "A4040-->A4040", "raw_techno": "Estimated using previous year's AADF on this link", "osm_name": "Pershore Road", "osm_type": "primary", "osm_lanes": 2.0, "osm_oneway": null, "osm_distance": 13.906172992892269, "osmid": 23639331.0 }, "geometry": { "type": "Point", "coordinates": [ -1.9249684, 52.417971 ] } },
{ "type": "Feature", "properties": { "AADT": 14019, "TR_AADT": 208, "2W_AADT": 90, "raw_name": "A452", "raw_oneway": true, "raw_direction": "A5127-->A453", "raw_techno": "Estimated using previous year's AADF on this link", "osm_name": "Chester Road", "osm_type": "trunk", "osm_lanes": 2.0, "osm_oneway": null, "osm_distance": 6.1559635423459298, "osmid": 843.0 }, "geometry": { "type": "Point", "coordinates": [ -1.8539708, 52.545562 ] } },
{ "type": "Feature", "properties": { "AADT": 8380, "TR_AADT": 167, "2W_AADT": 18, "raw_name": "A453", "raw_oneway": true, "raw_direction": "A452-->A5127", "raw_techno": "Manual count", "osm_name": null, "osm_type": null, "osm_lanes": null, "osm_oneway": null, "osm_distance": null, "osmid": null }, "geometry": { "type": "Point", "coordinates": [ -1.8540676, 52.547504 ] } },
{ "type": "Feature", "properties": { "AADT": 31815, "TR_AADT": 535, "2W_AADT": 177, "raw_name": "A456", "raw_oneway": true, "raw_direction": "A4040-->A4540", "raw_techno": "Estimated using previous year's AADF on this link", "osm_name": "Hagley Road", "osm_type": "trunk", "osm_lanes": 2.0, "osm_oneway": "True", "osm_distance": 3.1843029861956476, "osmid": 212469362.0 }, "geometry": { "type": "Point", "coordinates": [ -1.9278213, 52.471912 ] } },
{ "type": "Feature", "properties": { "AADT": 11238, "TR_AADT": 282, "2W_AADT": 32, "raw_name": "A4040", "raw_oneway": true, "raw_direction": "A4040 Rookery Rd-->A34", "raw_techno": "Estimated using previous year's AADF on this link", "osm_name": "Church Lane", "osm_type": "primary", "osm_lanes": 2.0, "osm_oneway": null, "osm_distance": 3.681865719431705, "osmid": 22724035.0 }, "geometry": { "type": "Point", "coordinates": [ -1.9277538, 52.513266 ] } },
{ "type": "Feature", "properties": { "AADT": 37326, "TR_AADT": 2438, "2W_AADT": 167, "raw_name": "A4540", "raw_oneway": true, "raw_direction": "A38(M)-->B4133", "raw_techno": "Manual count", "osm_name": "Dartmouth Middleway", "osm_type": "trunk", "osm_lanes": 2.0, "osm_oneway": "True", "osm_distance": 6.0438452533699261, "osmid": 23425211.0 }, "geometry": { "type": "Point", "coordinates": [ -1.8869207, 52.490966 ] } },
{ "type": "Feature", "properties": { "AADT": 25498, "TR_AADT": 519, "2W_AADT": 128, "raw_name": "A4540", "raw_oneway": true, "raw_direction": "A456-->B4126", "raw_techno": "Estimated using previous year's AADF on this link", "osm_name": "Ladywood Middleway", "osm_type": "trunk", "osm_lanes": 2.0, "osm_oneway": "True", "osm_distance": 6.2994056391840694, "osmid": 142516884.0 }, "geometry": { "type": "Point", "coordinates": [ -1.9233987, 52.475506 ] } },
{ "type": "Feature", "properties": { "AADT": 8317, "TR_AADT": 103, "2W_AADT": 27, "raw_name": "A4040", "raw_oneway": true, "raw_direction": "A4123-->A4030/A456", "raw_techno": "Estimated using previous year's AADF on this link", "osm_name": "Lordswood Road", "osm_type": "primary", "osm_lanes": 2.0, "osm_oneway": null, "osm_distance": 16.567095420210375, "osmid": 431114249.0 }, "geometry": { "type": "Point", "coordinates": [ -1.9646319, 52.462939 ] } },
{ "type": "Feature", "properties": { "AADT": 12642, "TR_AADT": 211, "2W_AADT": 52, "raw_name": "A4540", "raw_oneway": true, "raw_direction": "A435-->A41", "raw_techno": "Estimated using previous year's AADF on this link", "osm_name": "Highgate Road", "osm_type": "trunk", "osm_lanes": 2.0, "osm_oneway": null, "osm_distance": 1.4580609321794495, "osmid": 8022989.0 }, "geometry": { "type": "Point", "coordinates": [ -1.876331, 52.459554 ] } },
{ "type": "Feature", "properties": { "AADT": 11905, "TR_AADT": 76, "2W_AADT": 60, "raw_name": "A4040", "raw_oneway": true, "raw_direction": "A435-->A34", "raw_techno": "Estimated using previous year's AADF on this link", "osm_name": "Robin Hood Lane", "osm_type": "primary", "osm_lanes": 2.0, "osm_oneway": null, "osm_distance": 3.0932065773792345, "osmid": 450065055.0 }, "geometry": { "type": "Point", "coordinates": [ -1.8543566, 52.428693 ] } },
{ "type": "Feature", "properties": { "AADT": 7735, "TR_AADT": 69, "2W_AADT": 15, "raw_name": "A4040", "raw_oneway": true, "raw_direction": "A41-->A4040 Oxhill Rd", "raw_techno": "Estimated using previous year's AADF on this link", "osm_name": "Rookery Road", "osm_type": "primary", "osm_lanes": 2.0, "osm_oneway": null, "osm_distance": 11.41585515275276, "osmid": 8001716.0 }, "geometry": { "type": "Point", "coordinates": [ -1.9405368, 52.507672 ] } },
{ "type": "Feature", "properties": { "AADT": 142464, "TR_AADT": 22354, "2W_AADT": 151, "raw_name": "M6", "raw_oneway": true, "raw_direction": "6-->LA Boundary", "raw_techno": "Automatic counter", "osm_name": null, "osm_type": "motorway", "osm_lanes": 3.0, "osm_oneway": "True", "osm_distance": 9.2934025752280842, "osmid": 22569019.0 }, "geometry": { "type": "Point", "coordinates": [ -1.8982441, 52.530325 ] } },
{ "type": "Feature", "properties": { "AADT": 35247, "TR_AADT": 2405, "2W_AADT": 104, "raw_name": "A38", "raw_oneway": true, "raw_direction": "A38(M) mid-junction-->A4040 Wheelwright Road", "raw_techno": "Estimated using previous year's AADF on this link", "osm_name": "Tyburn Road", "osm_type": "trunk", "osm_lanes": 2.0, "osm_oneway": "True", "osm_distance": 2.7531223427360847, "osmid": 381239351.0 }, "geometry": { "type": "Point", "coordinates": [ -1.8526227, 52.507713 ] } },
{ "type": "Feature", "properties": { "AADT": 15697, "TR_AADT": 340, "2W_AADT": 47, "raw_name": "A41", "raw_oneway": true, "raw_direction": "A4540 Triangle-->A4040S", "raw_techno": "Manual count", "osm_name": "Soho Road", "osm_type": "trunk", "osm_lanes": 2.0, "osm_oneway": null, "osm_distance": 1.1223971374610611, "osmid": 382252785.0 }, "geometry": { "type": "Point", "coordinates": [ -1.9277723, 52.501939 ] } },
{ "type": "Feature", "properties": { "AADT": 27041, "TR_AADT": 551, "2W_AADT": 116, "raw_name": "A452", "raw_oneway": true, "raw_direction": "A38-->B4148", "raw_techno": "Manual count", "osm_name": "Chester Road", "osm_type": "trunk", "osm_lanes": 2.0, "osm_oneway": "True", "osm_distance": 5.3203992617016587, "osmid": 28422232.0 }, "geometry": { "type": "Point", "coordinates": [ -1.8039426, 52.521217 ] } },
{ "type": "Feature", "properties": { "AADT": 23832, "TR_AADT": 556, "2W_AADT": 144, "raw_name": "A453", "raw_oneway": true, "raw_direction": "A34 spur-->M6", "raw_techno": "Estimated using previous year's AADF on this link", "osm_name": "Aldridge Road", "osm_type": "primary", "osm_lanes": 2.0, "osm_oneway": "True", "osm_distance": 3.9871223840166934, "osmid": 376533108.0 }, "geometry": { "type": "Point", "coordinates": [ -1.8967805, 52.525829 ] } },
{ "type": "Feature", "properties": { "AADT": 11794, "TR_AADT": 149, "2W_AADT": 21, "raw_name": "A453", "raw_oneway": true, "raw_direction": "A5127-->B4148 Whitehouse Common", "raw_techno": "Estimated using previous year's AADF on this link", "osm_name": null, "osm_type": null, "osm_lanes": null, "osm_oneway": null, "osm_distance": null, "osmid": null }, "geometry": { "type": "Point", "coordinates": [ -1.8108418, 52.575734 ] } },
{ "type": "Feature", "properties": { "AADT": 32880, "TR_AADT": 604, "2W_AADT": 134, "raw_name": "A456", "raw_oneway": true, "raw_direction": "A458-->A458", "raw_techno": "Estimated using previous year's AADF on this link", "osm_name": "Hagley Road West", "osm_type": "trunk", "osm_lanes": 2.0, "osm_oneway": "True", "osm_distance": 5.7170582527943754, "osmid": 8132218.0 }, "geometry": { "type": "Point", "coordinates": [ -2.001428, 52.463304 ] } },
{ "type": "Feature", "properties": { "AADT": 24183, "TR_AADT": 880, "2W_AADT": 93, "raw_name": "A4040", "raw_oneway": true, "raw_direction": "A41-->A45", "raw_techno": "Estimated using previous year's AADF on this link", "osm_name": "Stockfield Road", "osm_type": "primary", "osm_lanes": 2.0, "osm_oneway": "True", "osm_distance": 0.8045976958718094, "osmid": 31906871.0 }, "geometry": { "type": "Point", "coordinates": [ -1.8248325, 52.456522 ] } },
{ "type": "Feature", "properties": { "AADT": 16449, "TR_AADT": 319, "2W_AADT": 79, "raw_name": "A4123", "raw_oneway": true, "raw_direction": "A456-->A4040", "raw_techno": "Estimated using previous year's AADF on this link", "osm_name": "Wolverhampton Road South", "osm_type": "primary", "osm_lanes": 2.0, "osm_oneway": "True", "osm_distance": 5.6223606748246562, "osmid": 4363947.0 }, "geometry": { "type": "Point", "coordinates": [ -1.9842074, 52.462943 ] } },
{ "type": "Feature", "properties": { "AADT": 24537, "TR_AADT": 836, "2W_AADT": 97, "raw_name": "A4540", "raw_oneway": true, "raw_direction": "A4540 link to Icknield St-->A34", "raw_techno": "Estimated using previous year's AADF on this link", "osm_name": "New John Street West", "osm_type": "trunk", "osm_lanes": 3.0, "osm_oneway": "True", "osm_distance": 3.2374755123315007, "osmid": 366498144.0 }, "geometry": { "type": "Point", "coordinates": [ -1.898331, 52.492568 ] } },
{ "type": "Feature", "properties": { "AADT": 13066, "TR_AADT": 167, "2W_AADT": 34, "raw_name": "A5127", "raw_oneway": true, "raw_direction": "A452-->A453", "raw_techno": "Estimated using previous year's AADF on this link", "osm_name": "Birmingham Road", "osm_type": "primary", "osm_lanes": 3.0, "osm_oneway": null, "osm_distance": 7.8956529652679421, "osmid": 431502840.0 }, "geometry": { "type": "Point", "coordinates": [ -1.8263127, 52.551656 ] } },
{ "type": "Feature", "properties": { "AADT": 57916, "TR_AADT": 1367, "2W_AADT": 328, "raw_name": "A4540", "raw_oneway": true, "raw_direction": "A441-->A38", "raw_techno": "Manual count", "osm_name": "Belgrave Middleway", "osm_type": "trunk", "osm_lanes": 2.0, "osm_oneway": "True", "osm_distance": 0.63001125468037944, "osmid": 202263900.0 }, "geometry": { "type": "Point", "coordinates": [ -1.8998619, 52.466948 ] } },
{ "type": "Feature", "properties": { "AADT": 16670, "TR_AADT": 264, "2W_AADT": 55, "raw_name": "A452", "raw_oneway": true, "raw_direction": "B4149-->B4138 Western route", "raw_techno": "Estimated using previous year's AADF on this link", "osm_name": "Chester Road North", "osm_type": "trunk", "osm_lanes": 2.0, "osm_oneway": null, "osm_distance": 4.9306120699360729, "osmid": 694363799.0 }, "geometry": { "type": "Point", "coordinates": [ -1.8648608, 52.552767 ] } },
{ "type": "Feature", "properties": { "AADT": 14471, "TR_AADT": 292, "2W_AADT": 66, "raw_name": "A34", "raw_oneway": true, "raw_direction": "B4217-->A41", "raw_techno": "Manual count", "osm_name": null, "osm_type": null, "osm_lanes": null, "osm_oneway": null, "osm_distance": null, "osmid": null }, "geometry": { "type": "Point", "coordinates": [ -1.866046, 52.453879 ] } },
{ "type": "Feature", "properties": { "AADT": 24844, "TR_AADT": 1775, "2W_AADT": 93, "raw_name": "A38", "raw_oneway": true, "raw_direction": "A452-->A4097", "raw_techno": "Manual count", "osm_name": "Kingsbury Road", "osm_type": "trunk", "osm_lanes": 2.0, "osm_oneway": "True", "osm_distance": 11.38184195429195, "osmid": 924.0 }, "geometry": { "type": "Point", "coordinates": [ -1.7825409, 52.527652 ] } },
{ "type": "Feature", "properties": { "AADT": 21639, "TR_AADT": 466, "2W_AADT": 94, "raw_name": "A38", "raw_oneway": true, "raw_direction": "B4217-->A4540", "raw_techno": "Estimated using previous year's AADF on this link", "osm_name": null, "osm_type": null, "osm_lanes": null, "osm_oneway": null, "osm_distance": null, "osmid": null }, "geometry": { "type": "Point", "coordinates": [ -1.9040812, 52.462591 ] } },
{ "type": "Feature", "properties": { "AADT": 23344, "TR_AADT": 661, "2W_AADT": 85, "raw_name": "A41", "raw_oneway": true, "raw_direction": "A34-->A4040 Stockfield", "raw_techno": "Manual count", "osm_name": "Warwick Road", "osm_type": "trunk", "osm_lanes": 2.0, "osm_oneway": "True", "osm_distance": 0.3595102891412314, "osmid": 1361563785.0 }, "geometry": { "type": "Point", "coordinates": [ -1.8542767, 52.452966 ] } },
{ "type": "Feature", "properties": { "AADT": 13370, "TR_AADT": 286, "2W_AADT": 39, "raw_name": "A435", "raw_oneway": true, "raw_direction": "B4217-->A4540", "raw_techno": "Estimated using previous year's AADF on this link", "osm_name": "Alcester Road", "osm_type": "trunk", "osm_lanes": 3.0, "osm_oneway": null, "osm_distance": 1.5108099487210687, "osmid": 430145485.0 }, "geometry": { "type": "Point", "coordinates": [ -1.8869418, 52.4539 ] } },
{ "type": "Feature", "properties": { "AADT": 13218, "TR_AADT": 370, "2W_AADT": 85, "raw_name": "A441", "raw_oneway": true, "raw_direction": "A4040-->A4029", "raw_techno": "Estimated using previous year's AADF on this link", "osm_name": "Pershore Road", "osm_type": "primary", "osm_lanes": 2.0, "osm_oneway": null, "osm_distance": 19.045543418043906, "osmid": 34754138.0 }, "geometry": { "type": "Point", "coordinates": [ -1.9220119, 52.426959 ] } },
{ "type": "Feature", "properties": { "AADT": 15348, "TR_AADT": 218, "2W_AADT": 62, "raw_name": "A452", "raw_oneway": true, "raw_direction": "A453-->B4149", "raw_techno": "Estimated using previous year's AADF on this link", "osm_name": null, "osm_type": "service", "osm_lanes": null, "osm_oneway": null, "osm_distance": 3.6685041037742918, "osmid": 8123702.0 }, "geometry": { "type": "Point", "coordinates": [ -1.8583883, 52.547545 ] } },
{ "type": "Feature", "properties": { "AADT": 14786, "TR_AADT": 183, "2W_AADT": 47, "raw_name": "A453", "raw_oneway": true, "raw_direction": "B4138-->A452", "raw_techno": "Estimated using previous year's AADF on this link", "osm_name": "College Road", "osm_type": "primary", "osm_lanes": 2.0, "osm_oneway": "True", "osm_distance": 3.5867472614919742, "osmid": 8002998.0 }, "geometry": { "type": "Point", "coordinates": [ -1.8834961, 52.533009 ] } },
{ "type": "Feature", "properties": { "AADT": 17205, "TR_AADT": 196, "2W_AADT": 36, "raw_name": "A5127", "raw_oneway": true, "raw_direction": "A453-->A454", "raw_techno": "Automatic counter", "osm_name": null, "osm_type": null, "osm_lanes": null, "osm_oneway": null, "osm_distance": null, "osmid": null }, "geometry": { "type": "Point", "coordinates": [ -1.8243714, 52.572491 ] } },
{ "type": "Feature", "properties": { "AADT": 26552, "TR_AADT": 1173, "2W_AADT": 121, "raw_name": "A4040", "raw_oneway": true, "raw_direction": "A4040 Wheelwright Road-->A47", "raw_techno": "Estimated using previous year's AADF on this link", "osm_name": "Bromford Gate", "osm_type": "unclassified", "osm_lanes": null, "osm_oneway": "True", "osm_distance": 1.8351503351284977, "osmid": 278339908.0 }, "geometry": { "type": "Point", "coordinates": [ -1.8328832, 52.506877 ] } },
{ "type": "Feature", "properties": { "AADT": 21398, "TR_AADT": 408, "2W_AADT": 72, "raw_name": "A4040", "raw_oneway": true, "raw_direction": "A34-->B4514", "raw_techno": "Estimated using previous year's AADF on this link", "osm_name": "Fox Hollies Road", "osm_type": "primary", "osm_lanes": 2.0, "osm_oneway": "True", "osm_distance": 5.8178968800891067, "osmid": 382871220.0 }, "geometry": { "type": "Point", "coordinates": [ -1.8374172, 52.435863 ] } },
{ "type": "Feature", "properties": { "AADT": 49850, "TR_AADT": 3124, "2W_AADT": 186, "raw_name": "A4540", "raw_oneway": true, "raw_direction": "A47-->A45", "raw_techno": "Manual count", "osm_name": "Lawley Middleway", "osm_type": "trunk", "osm_lanes": 2.0, "osm_oneway": "True", "osm_distance": 11.545375507483191, "osmid": 4017670.0 }, "geometry": { "type": "Point", "coordinates": [ -1.8777442, 52.480717 ] } },
{ "type": "Feature", "properties": { "AADT": 24137, "TR_AADT": 361, "2W_AADT": 68, "raw_name": "A4540", "raw_oneway": true, "raw_direction": "B4126-->A457", "raw_techno": "Estimated using previous year's AADF on this link", "osm_name": "Ladywood Middleway", "osm_type": "trunk", "osm_lanes": 2.0, "osm_oneway": "True", "osm_distance": 10.24216625092545, "osmid": 76370991.0 }, "geometry": { "type": "Point", "coordinates": [ -1.9248618, 52.4809 ] } },
{ "type": "Feature", "properties": { "AADT": 24312, "TR_AADT": 214, "2W_AADT": 71, "raw_name": "A5127", "raw_oneway": true, "raw_direction": "A38(M)-->A4040", "raw_techno": "Estimated using previous year's AADF on this link", "osm_name": "Gravelly Hill", "osm_type": "primary", "osm_lanes": 2.0, "osm_oneway": null, "osm_distance": 1.5132717083591747, "osmid": 5082094.0 }, "geometry": { "type": "Point", "coordinates": [ -1.8540839, 52.5114 ] } },
{ "type": "Feature", "properties": { "AADT": 14760, "TR_AADT": 342, "2W_AADT": 49, "raw_name": "A41", "raw_oneway": true, "raw_direction": "A4040 South Section-->A4040 / B4136 Handsworth", "raw_techno": "Manual count", "osm_name": "Soho Road", "osm_type": "trunk", "osm_lanes": 4.0, "osm_oneway": null, "osm_distance": 0.80716564240421262, "osmid": 4830949.0 }, "geometry": { "type": "Point", "coordinates": [ -1.9395543, 52.504283 ] } },
{ "type": "Feature", "properties": { "AADT": 35324, "TR_AADT": 939, "2W_AADT": 169, "raw_name": "A4540", "raw_oneway": true, "raw_direction": "A41-->A45", "raw_techno": "Estimated using previous year's AADF on this link", "osm_name": "Bordesley Middleway", "osm_type": "trunk", "osm_lanes": 2.0, "osm_oneway": "True", "osm_distance": 13.444373119835452, "osmid": 4017651.0 }, "geometry": { "type": "Point", "coordinates": [ -1.8757084, 52.4716 ] } },
{ "type": "Feature", "properties": { "AADT": 33801, "TR_AADT": 1345, "2W_AADT": 184, "raw_name": "A45", "raw_oneway": true, "raw_direction": "A4540-->A4040", "raw_techno": "Estimated using previous year's AADF on this link", "osm_name": "Small Heath Highway", "osm_type": "trunk", "osm_lanes": 3.0, "osm_oneway": "True", "osm_distance": 3.8507259385893766, "osmid": 141641178.0 }, "geometry": { "type": "Point", "coordinates": [ -1.8542471, 52.461956 ] } },
{ "type": "Feature", "properties": { "AADT": 21142, "TR_AADT": 602, "2W_AADT": 107, "raw_name": "A41", "raw_oneway": true, "raw_direction": "A4040 Stockfield-->A4040 Acocks Green", "raw_techno": "Estimated using previous year's AADF on this link", "osm_name": "Warwick Road", "osm_type": "trunk", "osm_lanes": 2.0, "osm_oneway": "True", "osm_distance": 3.3218096594215654, "osmid": 28934200.0 }, "geometry": { "type": "Point", "coordinates": [ -1.8311078, 52.451047 ] } },
{ "type": "Feature", "properties": { "AADT": 121565, "TR_AADT": 26786, "2W_AADT": 195, "raw_name": "M6", "raw_oneway": true, "raw_direction": "6-->5", "raw_techno": "Automatic counter", "osm_name": null, "osm_type": "motorway", "osm_lanes": 3.0, "osm_oneway": "True", "osm_distance": 0.052308471717851412, "osmid": 2282.0 }, "geometry": { "type": "Point", "coordinates": [ -1.7981018, 52.50934 ] } },
{ "type": "Feature", "properties": { "AADT": 86232, "TR_AADT": 5894, "2W_AADT": 162, "raw_name": "A38M", "raw_oneway": true, "raw_direction": "Park Circus B4132 Waterlinks Boulevard-->A38  M6(J6)", "raw_techno": "Manual count", "osm_name": "Aston Expressway", "osm_type": "motorway", "osm_lanes": 7.0, "osm_oneway": "False", "osm_distance": 2.1067554692249697, "osmid": 2287.0 }, "geometry": { "type": "Point", "coordinates": [ -1.8761973, 52.50729 ] } },
{ "type": "Feature", "properties": { "AADT": 16448, "TR_AADT": 268, "2W_AADT": 64, "raw_name": "A34", "raw_oneway": true, "raw_direction": "B4025 roundabout-->A4040", "raw_techno": "Estimated using previous year's AADF on this link", "osm_name": "Stratford Road", "osm_type": "trunk", "osm_lanes": 2.0, "osm_oneway": "True", "osm_distance": 4.9981141112126695, "osmid": 23940729.0 }, "geometry": { "type": "Point", "coordinates": [ -1.8401636, 52.424836 ] } },
{ "type": "Feature", "properties": { "AADT": 11248, "TR_AADT": 319, "2W_AADT": 22, "raw_name": "A41", "raw_oneway": true, "raw_direction": "A4040 Handsworth / B4136-->A4040 Handsworth", "raw_techno": "Manual count", "osm_name": "Holyhead Road", "osm_type": "trunk", "osm_lanes": 2.0, "osm_oneway": null, "osm_distance": 2.101588460836334, "osmid": 382257186.0 }, "geometry": { "type": "Point", "coordinates": [ -1.9445621, 52.505184 ] } },
{ "type": "Feature", "properties": { "AADT": 14609, "TR_AADT": 308, "2W_AADT": 64, "raw_name": "A435", "raw_oneway": true, "raw_direction": "Maypole Lane/Druids Lane roundabout-->A4040", "raw_techno": "Estimated using previous year's AADF on this link", "osm_name": "Alcester Road South", "osm_type": "trunk", "osm_lanes": 2.0, "osm_oneway": null, "osm_distance": 5.4137670681659538, "osmid": 4017635.0 }, "geometry": { "type": "Point", "coordinates": [ -1.8911506, 52.417944 ] } },
{ "type": "Feature", "properties": { "AADT": 17655, "TR_AADT": 388, "2W_AADT": 97, "raw_name": "A441", "raw_oneway": true, "raw_direction": "Wharf Road roundabout-->A4040", "raw_techno": "Estimated using previous year's AADF on this link", "osm_name": "Pershore Road South", "osm_type": "trunk", "osm_lanes": 2.0, "osm_oneway": null, "osm_distance": 1.202735782385159, "osmid": 42833791.0 }, "geometry": { "type": "Point", "coordinates": [ -1.9279237, 52.408982 ] } },
{ "type": "Feature", "properties": { "AADT": 21068, "TR_AADT": 235, "2W_AADT": 74, "raw_name": "A452", "raw_oneway": true, "raw_direction": "B4148-->A5127", "raw_techno": "Estimated using previous year's AADF on this link", "osm_name": "Chester Road", "osm_type": "trunk", "osm_lanes": 2.0, "osm_oneway": "True", "osm_distance": 2.917627485430148, "osmid": 356076582.0 }, "geometry": { "type": "Point", "coordinates": [ -1.8245362, 52.531138 ] } },
{ "type": "Feature", "properties": { "AADT": 12344, "TR_AADT": 161, "2W_AADT": 34, "raw_name": "A5127", "raw_oneway": true, "raw_direction": "A453-->A5127 Queen St", "raw_techno": "Estimated using previous year's AADF on this link", "osm_name": "Birmingham Road", "osm_type": "primary", "osm_lanes": 2.0, "osm_oneway": null, "osm_distance": 3.8874929479355624, "osmid": 3212671.0 }, "geometry": { "type": "Point", "coordinates": [ -1.8266448, 52.557212 ] } },
{ "type": "Feature", "properties": { "AADT": 32486, "TR_AADT": 646, "2W_AADT": 139, "raw_name": "A456", "raw_oneway": true, "raw_direction": "A456-->A4030/A4040", "raw_techno": "Estimated using previous year's AADF on this link", "osm_name": "Hagley Road West", "osm_type": "trunk", "osm_lanes": 3.0, "osm_oneway": "True", "osm_distance": 4.3301339983855067, "osmid": 4323060.0 }, "geometry": { "type": "Point", "coordinates": [ -1.9719866, 52.470133 ] } },
{ "type": "Feature", "properties": { "AADT": 16023, "TR_AADT": 383, "2W_AADT": 118, "raw_name": "A457", "raw_oneway": true, "raw_direction": "A4040-->A4540", "raw_techno": "Estimated using previous year's AADF on this link", "osm_name": "Spring Hill Bridge", "osm_type": "primary", "osm_lanes": 4.0, "osm_oneway": null, "osm_distance": 6.0510040870588284, "osmid": 28067436.0 }, "geometry": { "type": "Point", "coordinates": [ -1.9277974, 52.486566 ] } },
{ "type": "Feature", "properties": { "AADT": 8034, "TR_AADT": 125, "2W_AADT": 50, "raw_name": "A4040", "raw_oneway": true, "raw_direction": "A441-->A435", "raw_techno": "Estimated using previous year's AADF on this link", "osm_name": "Fordhouse Lane", "osm_type": "primary", "osm_lanes": 2.0, "osm_oneway": null, "osm_distance": 0.81103814893926796, "osmid": 27380245.0 }, "geometry": { "type": "Point", "coordinates": [ -1.9131928, 52.424525 ] } },
{ "type": "Feature", "properties": { "AADT": 29805, "TR_AADT": 1269, "2W_AADT": 124, "raw_name": "A4540", "raw_oneway": true, "raw_direction": "A34-->A38(M)", "raw_techno": "Estimated using previous year's AADF on this link", "osm_name": "Newtown Middleway", "osm_type": "trunk", "osm_lanes": 3.0, "osm_oneway": "True", "osm_distance": 4.6459569835201293, "osmid": 454926413.0 }, "geometry": { "type": "Point", "coordinates": [ -1.8924404, 52.492293 ] } },
{ "type": "Feature", "properties": { "AADT": 39002, "TR_AADT": 744, "2W_AADT": 169, "raw_name": "A4540", "raw_oneway": true, "raw_direction": "A38-->A456", "raw_techno": "Estimated using previous year's AADF on this link", "osm_name": "Islington Row Middleway", "osm_type": "trunk", "osm_lanes": 3.0, "osm_oneway": "True", "osm_distance": 3.3573723902848136, "osmid": 33686689.0 }, "geometry": { "type": "Point", "coordinates": [ -1.9131006, 52.471543 ] } },
{ "type": "Feature", "properties": { "AADT": 6439, "TR_AADT": 96, "2W_AADT": 27, "raw_name": "A5127", "raw_oneway": true, "raw_direction": "A454-->A4026", "raw_techno": "Manual count", "osm_name": "Lichfield Road", "osm_type": "primary", "osm_lanes": 2.0, "osm_oneway": null, "osm_distance": 5.6625270541377635, "osmid": 2616.0 }, "geometry": { "type": "Point", "coordinates": [ -1.8393296, 52.597684 ] } },
{ "type": "Feature", "properties": { "AADT": 8407, "TR_AADT": 49, "2W_AADT": 41, "raw_name": "A4040", "raw_oneway": true, "raw_direction": "LA Boundary-->A457", "raw_techno": "Estimated using previous year's AADF on this link", "osm_name": null, "osm_type": null, "osm_lanes": null, "osm_oneway": null, "osm_distance": null, "osmid": null }, "geometry": { "type": "Point", "coordinates": [ -1.9425252, 52.485405 ] } },
{ "type": "Feature", "properties": { "AADT": 19271, "TR_AADT": 3140, "2W_AADT": 26, "raw_name": "M6", "raw_oneway": true, "raw_direction": "A47-->5", "raw_techno": "Estimated using previous year's AADF on this link", "osm_name": null, "osm_type": "motorway_link", "osm_lanes": 2.0, "osm_oneway": "True", "osm_distance": 0.78546094397160315, "osmid": 356076597.0 }, "geometry": { "type": "Point", "coordinates": [ -1.7942744, 52.508615 ] } },
{ "type": "Feature", "properties": { "AADT": 155478, "TR_AADT": 26347, "2W_AADT": 218, "raw_name": "M6", "raw_oneway": true, "raw_direction": "5-->LA Boundary", "raw_techno": "Manual count", "osm_name": null, "osm_type": "motorway", "osm_lanes": 3.0, "osm_oneway": "True", "osm_distance": 0.82763937460567139, "osmid": 2333.0 }, "geometry": { "type": "Point", "coordinates": [ -1.7602091, 52.514214 ] } },
{ "type": "Feature", "properties": { "AADT": 29909, "TR_AADT": 666, "2W_AADT": 219, "raw_name": "A456", "raw_oneway": true, "raw_direction": "A4030/A4040-->A4040", "raw_techno": "Estimated using previous year's AADF on this link", "osm_name": "Hagley Road", "osm_type": "trunk", "osm_lanes": 4.0, "osm_oneway": null, "osm_distance": 3.2118595835383412, "osmid": 4323061.0 }, "geometry": { "type": "Point", "coordinates": [ -1.9669796, 52.472739 ] } },
{ "type": "Feature", "properties": { "AADT": 17246, "TR_AADT": 390, "2W_AADT": 89, "raw_name": "A34", "raw_oneway": true, "raw_direction": "A34 spur-->A4041", "raw_techno": "Estimated using previous year's AADF on this link", "osm_name": "Walsall Road", "osm_type": "trunk", "osm_lanes": 2.0, "osm_oneway": "True", "osm_distance": 3.0432074243725387, "osmid": 122660003.0 }, "geometry": { "type": "Point", "coordinates": [ -1.9277068, 52.542034 ] } },
{ "type": "Feature", "properties": { "AADT": 17922, "TR_AADT": 1394, "2W_AADT": 71, "raw_name": "A38", "raw_oneway": true, "raw_direction": "A4097-->LA Boundary", "raw_techno": "Estimated using previous year's AADF on this link", "osm_name": "Sutton Coldfield Bypass", "osm_type": "trunk", "osm_lanes": 2.0, "osm_oneway": "True", "osm_distance": 6.6190450153852725, "osmid": 189597802.0 }, "geometry": { "type": "Point", "coordinates": [ -1.7746009, 52.552629 ] } },
{ "type": "Feature", "properties": { "AADT": 23680, "TR_AADT": 1901, "2W_AADT": 127, "raw_name": "A5127", "raw_oneway": true, "raw_direction": "A38(M)/A4540-->A38(M)", "raw_techno": "Manual count", "osm_name": "Lichfield Road", "osm_type": "primary", "osm_lanes": 2.0, "osm_oneway": "True", "osm_distance": 4.8370754119417603, "osmid": 38181403.0 }, "geometry": { "type": "Point", "coordinates": [ -1.8633778, 52.507815 ] } },
{ "type": "Feature", "properties": { "AADT": 34865, "TR_AADT": 1000, "2W_AADT": 230, "raw_name": "A4540", "raw_oneway": true, "raw_direction": "A4540 Belgrave Middleway-->A41", "raw_techno": "Estimated using previous year's AADF on this link", "osm_name": "Highgate Middleway", "osm_type": "trunk", "osm_lanes": 2.0, "osm_oneway": "True", "osm_distance": 3.1907111285985374, "osmid": 37339015.0 }, "geometry": { "type": "Point", "coordinates": [ -1.8836737, 52.465584 ] } },
{ "type": "Feature", "properties": { "AADT": 20179, "TR_AADT": 488, "2W_AADT": 162, "raw_name": "A441", "raw_oneway": true, "raw_direction": "A4029-->A4540", "raw_techno": "Estimated using previous year's AADF on this link", "osm_name": "Pershore Road", "osm_type": "primary", "osm_lanes": 3.0, "osm_oneway": null, "osm_distance": 3.6990668169354697, "osmid": 488194164.0 }, "geometry": { "type": "Point", "coordinates": [ -1.9015067, 52.462058 ] } },
{ "type": "Feature", "properties": { "AADT": 38393, "TR_AADT": 1300, "2W_AADT": 145, "raw_name": "A452", "raw_oneway": true, "raw_direction": "A47-->A38", "raw_techno": "Manual count", "osm_name": null, "osm_type": "service", "osm_lanes": null, "osm_oneway": null, "osm_distance": 7.9669058837212914, "osmid": 142616467.0 }, "geometry": { "type": "Point", "coordinates": [ -1.7995417, 52.516715 ] } },
{ "type": "Feature", "properties": { "AADT": 24603, "TR_AADT": 390, "2W_AADT": 107, "raw_name": "A453", "raw_oneway": true, "raw_direction": "M6-->B4138", "raw_techno": "Estimated using previous year's AADF on this link", "osm_name": "College Road", "osm_type": "primary", "osm_lanes": 2.0, "osm_oneway": "True", "osm_distance": 2.2293511557008356, "osmid": 9556110.0 }, "geometry": { "type": "Point", "coordinates": [ -1.893824, 52.529422 ] } },
{ "type": "Feature", "properties": { "AADT": 20999, "TR_AADT": 370, "2W_AADT": 87, "raw_name": "A456", "raw_oneway": true, "raw_direction": "M5-->A458", "raw_techno": "Manual count", "osm_name": "Quinton Expressway", "osm_type": "trunk", "osm_lanes": 2.0, "osm_oneway": "True", "osm_distance": 7.3657683897094888, "osmid": 4242590.0 }, "geometry": { "type": "Point", "coordinates": [ -2.0079023, 52.453504 ] } },
{ "type": "Feature", "properties": { "AADT": 11548, "TR_AADT": 204, "2W_AADT": 19, "raw_name": "A4040", "raw_oneway": true, "raw_direction": "A457-->A41", "raw_techno": "Estimated using previous year's AADF on this link", "osm_name": "Aberdeen Street", "osm_type": "unclassified", "osm_lanes": null, "osm_oneway": null, "osm_distance": 2.0689415031689853, "osmid": 54276856.0 }, "geometry": { "type": "Point", "coordinates": [ -1.9381012, 52.489898 ] } },
{ "type": "Feature", "properties": { "AADT": 13486, "TR_AADT": 123, "2W_AADT": 47, "raw_name": "A4040", "raw_oneway": true, "raw_direction": "A5127-->A38", "raw_techno": "Estimated using previous year's AADF on this link", "osm_name": "Woodend Road", "osm_type": "primary", "osm_lanes": 2.0, "osm_oneway": null, "osm_distance": 11.45872741206521, "osmid": 71213135.0 }, "geometry": { "type": "Point", "coordinates": [ -1.8396069, 52.51754 ] } },
{ "type": "Feature", "properties": { "AADT": 11957, "TR_AADT": 293, "2W_AADT": 60, "raw_name": "A4040", "raw_oneway": true, "raw_direction": "B4514-->A41", "raw_techno": "Estimated using previous year's AADF on this link", "osm_name": null, "osm_type": null, "osm_lanes": null, "osm_oneway": null, "osm_distance": null, "osmid": null }, "geometry": { "type": "Point", "coordinates": [ -1.8309998, 52.448512 ] } },
{ "type": "Feature", "properties": { "AADT": 11296, "TR_AADT": 184, "2W_AADT": 53, "raw_name": "A4040", "raw_oneway": true, "raw_direction": "A441-->A38", "raw_techno": "Estimated using previous year's AADF on this link", "osm_name": "Watford Road", "osm_type": "trunk", "osm_lanes": 2.0, "osm_oneway": null, "osm_distance": 3.0174262043540612, "osmid": 71298966.0 }, "geometry": { "type": "Point", "coordinates": [ -1.9314379, 52.417974 ] } },
{ "type": "Feature", "properties": { "AADT": 33091, "TR_AADT": 680, "2W_AADT": 95, "raw_name": "A4540", "raw_oneway": true, "raw_direction": "A457-->A4540 Heaton St", "raw_techno": "Estimated using previous year's AADF on this link", "osm_name": "Icknield Street", "osm_type": "trunk", "osm_lanes": 2.0, "osm_oneway": "True", "osm_distance": 4.0107766594311469, "osmid": 424159849.0 }, "geometry": { "type": "Point", "coordinates": [ -1.9160082, 52.490873 ] } },
{ "type": "Feature", "properties": { "AADT": 22222, "TR_AADT": 272, "2W_AADT": 39, "raw_name": "A5127", "raw_oneway": true, "raw_direction": "A4040-->A452", "raw_techno": "Estimated using previous year's AADF on this link", "osm_name": "Sutton New Road", "osm_type": "primary", "osm_lanes": 2.0, "osm_oneway": "True", "osm_distance": 2.8173544168717108, "osmid": 755.0 }, "geometry": { "type": "Point", "coordinates": [ -1.8385895, 52.525764 ] } },
{ "type": "Feature", "properties": { "AADT": 20261, "TR_AADT": 515, "2W_AADT": 68, "raw_name": "A41", "raw_oneway": true, "raw_direction": "A34-->A4167", "raw_techno": "Estimated using previous year's AADF on this link", "osm_name": "Stratford Road", "osm_type": "trunk", "osm_lanes": 4.0, "osm_oneway": null, "osm_distance": 3.8265719449733617, "osmid": 376541392.0 }, "geometry": { "type": "Point", "coordinates": [ -1.8703011, 52.458109 ] } },
{ "type": "Feature", "properties": { "AADT": 107790, "TR_AADT": 7368, "2W_AADT": 203, "raw_name": "A38(M)", "raw_oneway": true, "raw_direction": "M6-->A38", "raw_techno": "Estimated from nearby links", "osm_name": "Aston Expressway", "osm_type": "motorway", "osm_lanes": 2.0, "osm_oneway": "True", "osm_distance": 1.9065422401350023, "osmid": 23058350.0 }, "geometry": { "type": "Point", "coordinates": [ -1.8617068, 52.509764 ] } },
{ "type": "Feature", "properties": { "AADT": 50136, "TR_AADT": 1005, "2W_AADT": 226, "raw_name": "A34", "raw_oneway": true, "raw_direction": "A4540-->A4040", "raw_techno": "Estimated using previous year's AADF on this link", "osm_name": null, "osm_type": "trunk", "osm_lanes": 2.0, "osm_oneway": "True", "osm_distance": 2.387418289504311, "osmid": 352661985.0 }, "geometry": { "type": "Point", "coordinates": [ -1.9033052, 52.507855 ] } },
{ "type": "Feature", "properties": { "AADT": 15391, "TR_AADT": 236, "2W_AADT": 85, "raw_name": "A41", "raw_oneway": true, "raw_direction": "A4167-->A4540 / A435", "raw_techno": "Estimated using previous year's AADF on this link", "osm_name": "Stratford Road", "osm_type": "trunk", "osm_lanes": 1.0, "osm_oneway": "True", "osm_distance": 1.4122234004045666, "osmid": 194197028.0 }, "geometry": { "type": "Point", "coordinates": [ -1.8757329, 52.462879 ] } },
{ "type": "Feature", "properties": { "AADT": 66407, "TR_AADT": 1768, "2W_AADT": 264, "raw_name": "A38", "raw_oneway": true, "raw_direction": "A4400-->A38(M)", "raw_techno": "Manual count", "osm_name": "Lancaster Circus Flyover", "osm_type": "trunk", "osm_lanes": 2.0, "osm_oneway": "True", "osm_distance": 4.8999068279985911, "osmid": 145232647.0 }, "geometry": { "type": "Point", "coordinates": [ -1.890978, 52.488066 ] } },
{ "type": "Feature", "properties": { "AADT": 22950, "TR_AADT": 1453, "2W_AADT": 78, "raw_name": "A38", "raw_oneway": true, "raw_direction": "A4040-->B4148", "raw_techno": "Estimated using previous year's AADF on this link", "osm_name": "Tyburn Road", "osm_type": "trunk", "osm_lanes": 2.0, "osm_oneway": "True", "osm_distance": 6.0966531579419403, "osmid": 381239356.0 }, "geometry": { "type": "Point", "coordinates": [ -1.824603, 52.514327 ] } },
{ "type": "Feature", "properties": { "AADT": 13895, "TR_AADT": 553, "2W_AADT": 52, "raw_name": "A4040", "raw_oneway": true, "raw_direction": "A34-->A5127", "raw_techno": "Estimated using previous year's AADF on this link", "osm_name": "Nobel Way", "osm_type": "unclassified", "osm_lanes": 2.0, "osm_oneway": "True", "osm_distance": 8.4489007644451597, "osmid": 441468265.0 }, "geometry": { "type": "Point", "coordinates": [ -1.8835478, 52.513393 ] } },
{ "type": "Feature", "properties": { "AADT": 11591, "TR_AADT": 408, "2W_AADT": 71, "raw_name": "A441", "raw_oneway": true, "raw_direction": "LA Boundary-->Wharf Road roundabout", "raw_techno": "Estimated using previous year's AADF on this link", "osm_name": "Redditch Road", "osm_type": "trunk", "osm_lanes": 2.0, "osm_oneway": null, "osm_distance": 6.6891736109988003, "osmid": 4020808.0 }, "geometry": { "type": "Point", "coordinates": [ -1.9279272, 52.406825 ] } },
{ "type": "Feature", "properties": { "AADT": 26773, "TR_AADT": 1968, "2W_AADT": 124, "raw_name": "A4540", "raw_oneway": true, "raw_direction": "B4133-->A47", "raw_techno": "Manual count", "osm_name": "Heneage Street West", "osm_type": "unclassified", "osm_lanes": null, "osm_oneway": "True", "osm_distance": 0.98901165948752601, "osmid": 37735476.0 }, "geometry": { "type": "Point", "coordinates": [ -1.8843366, 52.487925 ] } },
{ "type": "Feature", "properties": { "AADT": 47021, "TR_AADT": 1298, "2W_AADT": 144, "raw_name": "A4540", "raw_oneway": true, "raw_direction": "A4540 Highgate Middleway-->A441", "raw_techno": "Estimated using previous year's AADF on this link", "osm_name": null, "osm_type": null, "osm_lanes": null, "osm_oneway": null, "osm_distance": null, "osmid": null }, "geometry": { "type": "Point", "coordinates": [ -1.8928315, 52.464622 ] } },
{ "type": "Feature", "properties": { "AADT": 6364, "TR_AADT": 86, "2W_AADT": 9, "raw_name": "A454", "raw_oneway": true, "raw_direction": "LA Boundary-->A5127", "raw_techno": "Estimated using previous year's AADF on this link", "osm_name": "Walsall Road", "osm_type": "primary", "osm_lanes": 2.0, "osm_oneway": null, "osm_distance": 4.8536963263873698, "osmid": 2627.0 }, "geometry": { "type": "Point", "coordinates": [ -1.8538119, 52.593477 ] } },
{ "type": "Feature", "properties": { "AADT": 69335, "TR_AADT": 4377, "2W_AADT": 139, "raw_name": "A38M", "raw_oneway": true, "raw_direction": "Dartmouth Circus A4540-->Park Circus B4132 Waterlinks Boulevard", "raw_techno": "Manual count", "osm_name": "Aston Expressway", "osm_type": "motorway", "osm_lanes": 7.0, "osm_oneway": "False", "osm_distance": 0.12396666530941883, "osmid": 2285.0 }, "geometry": { "type": "Point", "coordinates": [ -1.885943, 52.498849 ] } },
{ "type": "Feature", "properties": { "AADT": 9899, "TR_AADT": 154, "2W_AADT": 24, "raw_name": "A457", "raw_oneway": true, "raw_direction": "LA Boundary-->A4040", "raw_techno": "Estimated using previous year's AADF on this link", "osm_name": "Dudley Road", "osm_type": "primary", "osm_lanes": 4.0, "osm_oneway": null, "osm_distance": 2.0674302185404048, "osmid": 34752237.0 }, "geometry": { "type": "Point", "coordinates": [ -1.9425238, 52.486484 ] } },
{ "type": "Feature", "properties": { "AADT": 18369, "TR_AADT": 378, "2W_AADT": 34, "raw_name": "A4040", "raw_oneway": true, "raw_direction": "A41-->A4040 Rookery rd", "raw_techno": "Estimated using previous year's AADF on this link", "osm_name": "Oxhill Road", "osm_type": "primary", "osm_lanes": 2.0, "osm_oneway": null, "osm_distance": 3.291684885224444, "osmid": 24512403.0 }, "geometry": { "type": "Point", "coordinates": [ -1.9426341, 52.515045 ] } },
{ "type": "Feature", "properties": { "AADT": 13056, "TR_AADT": 1404, "2W_AADT": 82, "raw_name": "A4097", "raw_oneway": true, "raw_direction": "A38-->LA Boundary", "raw_techno": "Manual count", "osm_name": "Kingsbury Road", "osm_type": "primary", "osm_lanes": 2.0, "osm_oneway": "True", "osm_distance": 6.5758549342462018, "osmid": 10969229.0 }, "geometry": { "type": "Point", "coordinates": [ -1.7655814, 52.529238 ] } },
{ "type": "Feature", "properties": { "AADT": 15862, "TR_AADT": 231, "2W_AADT": 44, "raw_name": "A457", "raw_oneway": true, "raw_direction": "A4040-->A4040", "raw_techno": "Estimated using previous year's AADF on this link", "osm_name": "Dudley Road", "osm_type": "primary", "osm_lanes": 4.0, "osm_oneway": null, "osm_distance": 3.3184183017714468, "osmid": 38182643.0 }, "geometry": { "type": "Point", "coordinates": [ -1.9390632, 52.486437 ] } },
{ "type": "Feature", "properties": { "AADT": 22639, "TR_AADT": 672, "2W_AADT": 120, "raw_name": "A4540", "raw_oneway": true, "raw_direction": "Icknield St-->New John St West", "raw_techno": "Manual count", "osm_name": "Boulton Middleway", "osm_type": "trunk", "osm_lanes": 2.0, "osm_oneway": "True", "osm_distance": 3.1200946698720804, "osmid": 4017707.0 }, "geometry": { "type": "Point", "coordinates": [ -1.9104205, 52.493755 ] } },
{ "type": "Feature", "properties": { "AADT": 11221, "TR_AADT": 209, "2W_AADT": 14, "raw_name": "A41", "raw_oneway": true, "raw_direction": "Icknield St-->A41", "raw_techno": "Estimated using previous year's AADF on this link", "osm_name": "Heaton Street", "osm_type": "trunk", "osm_lanes": 2.0, "osm_oneway": "True", "osm_distance": 1.5113556376676491, "osmid": 22819036.0 }, "geometry": { "type": "Point", "coordinates": [ -1.9164451, 52.493481 ] } },
{ "type": "Feature", "properties": { "AADT": 12935, "TR_AADT": 415, "2W_AADT": 57, "raw_name": "A41", "raw_oneway": true, "raw_direction": "A41-->Great King St roundabout", "raw_techno": "Manual count", "osm_name": "New John Street West", "osm_type": "trunk", "osm_lanes": 2.0, "osm_oneway": null, "osm_distance": 1.5806311028041047, "osmid": 44450584.0 }, "geometry": { "type": "Point", "coordinates": [ -1.9123191, 52.494467 ] } },
{ "type": "Feature", "properties": { "AADT": 9170, "TR_AADT": 106, "2W_AADT": 18, "raw_name": "A5127", "raw_oneway": true, "raw_direction": "Birmingham Rd-->Mill St", "raw_techno": "Manual count", "osm_name": null, "osm_type": "service", "osm_lanes": null, "osm_oneway": "True", "osm_distance": 0.83096611421727484, "osmid": 96102896.0 }, "geometry": { "type": "Point", "coordinates": [ -1.8258867, 52.562425 ] } },
{ "type": "Feature", "properties": { "AADT": 8751, "TR_AADT": 86, "2W_AADT": 32, "raw_name": "A5127", "raw_oneway": true, "raw_direction": "Birmingham Rd-->Mill St", "raw_techno": "Estimated using previous year's AADF on this link", "osm_name": "Victoria Road", "osm_type": "primary", "osm_lanes": 2.0, "osm_oneway": "True", "osm_distance": 3.5050895708040199, "osmid": 104796908.0 }, "geometry": { "type": "Point", "coordinates": [ -1.821462, 52.562238 ] } },
{ "type": "Feature", "properties": { "AADT": 14389, "TR_AADT": 188, "2W_AADT": 29, "raw_name": "A5127", "raw_oneway": true, "raw_direction": "Victoria Rd-->A453", "raw_techno": "Estimated using previous year's AADF on this link", "osm_name": "Lichfield Road", "osm_type": "primary", "osm_lanes": 2.0, "osm_oneway": null, "osm_distance": 3.4568757736402489, "osmid": 71589679.0 }, "geometry": { "type": "Point", "coordinates": [ -1.8229147, 52.567814 ] } },
{ "type": "Feature", "properties": { "AADT": 53126, "TR_AADT": 1414, "2W_AADT": 211, "raw_name": "A38M", "raw_oneway": true, "raw_direction": "A38(M)-->A4540", "raw_techno": "Estimated from nearby links", "osm_name": "Aston Expressway", "osm_type": "motorway", "osm_lanes": 2.0, "osm_oneway": "True", "osm_distance": 3.9668181183001452, "osmid": 237213387.0 }, "geometry": { "type": "Point", "coordinates": [ -1.889204, 52.490762 ] } },
{ "type": "Feature", "properties": { "AADT": 142464, "TR_AADT": 22354, "2W_AADT": 151, "raw_name": "M6", "raw_oneway": true, "raw_direction": "M6 spur-->M6 spur", "raw_techno": "Dependent on a neighbouring counted link", "osm_name": null, "osm_type": "motorway", "osm_lanes": 3.0, "osm_oneway": "True", "osm_distance": 1.6466565004513187, "osmid": 22924827.0 }, "geometry": { "type": "Point", "coordinates": [ -1.8658696, 52.512044 ] } },
{ "type": "Feature", "properties": { "AADT": 21370, "TR_AADT": 3353, "2W_AADT": 23, "raw_name": "M6", "raw_oneway": true, "raw_direction": "M6 main route-->Salford Circus", "raw_techno": "Estimated from nearby links", "osm_name": null, "osm_type": "motorway_link", "osm_lanes": 2.0, "osm_oneway": "True", "osm_distance": 3.9178226740533311, "osmid": 22569835.0 }, "geometry": { "type": "Point", "coordinates": [ -1.8614545, 52.51033 ] } },
{ "type": "Feature", "properties": { "AADT": 21370, "TR_AADT": 3353, "2W_AADT": 23, "raw_name": "M6", "raw_oneway": true, "raw_direction": "A38(M)-->M6 main route", "raw_techno": "Estimated from nearby links", "osm_name": null, "osm_type": null, "osm_lanes": null, "osm_oneway": null, "osm_distance": null, "osmid": null }, "geometry": { "type": "Point", "coordinates": [ -1.8677304, 52.510652 ] } },
{ "type": "Feature", "properties": { "AADT": 18971, "TR_AADT": 1297, "2W_AADT": 36, "raw_name": "M6", "raw_oneway": true, "raw_direction": "A38(M)-->M6 main route", "raw_techno": "Estimated from nearby links", "osm_name": null, "osm_type": "motorway", "osm_lanes": 3.0, "osm_oneway": "True", "osm_distance": 14.169938918670951, "osmid": 22924827.0 }, "geometry": { "type": "Point", "coordinates": [ -1.8679838, 52.509673 ] } },
{ "type": "Feature", "properties": { "AADT": 21370, "TR_AADT": 3353, "2W_AADT": 23, "raw_name": "M6", "raw_oneway": true, "raw_direction": "M6 main route-->Salford Circus", "raw_techno": "Estimated from nearby links", "osm_name": null, "osm_type": "motorway_link", "osm_lanes": 2.0, "osm_oneway": "True", "osm_distance": 0.36616356747842488, "osmid": 2146.0 }, "geometry": { "type": "Point", "coordinates": [ -1.8620433, 52.510511 ] } },
{ "type": "Feature", "properties": { "AADT": 19450, "TR_AADT": 171, "2W_AADT": 57, "raw_name": "A38(M)", "raw_oneway": true, "raw_direction": "A5127-->A5127", "raw_techno": "Estimated from nearby links", "osm_name": "Aston Expressway", "osm_type": "motorway", "osm_lanes": 2.0, "osm_oneway": "True", "osm_distance": 0.55549580760380501, "osmid": 2302.0 }, "geometry": { "type": "Point", "coordinates": [ -1.8574625, 52.510029 ] } },
{ "type": "Feature", "properties": { "AADT": 28198, "TR_AADT": 1924, "2W_AADT": 83, "raw_name": "A38M", "raw_oneway": true, "raw_direction": "A38(M)-->A38(M)", "raw_techno": "Estimated from nearby links", "osm_name": "Tyburn Road", "osm_type": "trunk", "osm_lanes": 2.0, "osm_oneway": "True", "osm_distance": 1.5476867612002414, "osmid": 3240938.0 }, "geometry": { "type": "Point", "coordinates": [ -1.8577762, 52.508708 ] } },
{ "type": "Feature", "properties": { "AADT": 23914, "TR_AADT": 267, "2W_AADT": 55, "raw_name": "A34", "raw_oneway": true, "raw_direction": "LA Boundary-->B4025", "raw_techno": "Estimated using previous year's AADF on this link", "osm_name": "Stratford Road", "osm_type": "trunk", "osm_lanes": 2.0, "osm_oneway": "True", "osm_distance": 4.1496115483003724, "osmid": 623181325.0 }, "geometry": { "type": "Point", "coordinates": [ -1.8348406, 52.420756 ] } },
{ "type": "Feature", "properties": { "AADT": 18066, "TR_AADT": 209, "2W_AADT": 73, "raw_name": "A458", "raw_oneway": true, "raw_direction": "LA Boundary-->A456", "raw_techno": "Estimated using previous year's AADF on this link", "osm_name": "Hagley Road West", "osm_type": "trunk", "osm_lanes": 2.0, "osm_oneway": null, "osm_distance": 1.7681741209702644, "osmid": 135529890.0 }, "geometry": { "type": "Point", "coordinates": [ -2.0106415, 52.462081 ] } },
{ "type": "Feature", "properties": { "AADT": 7049, "TR_AADT": 481, "2W_AADT": 21, "raw_name": "A38", "raw_oneway": true, "raw_direction": "A5127-->A38M", "raw_techno": "Estimated from nearby links", "osm_name": "Tyburn Road", "osm_type": "trunk", "osm_lanes": 2.0, "osm_oneway": "True", "osm_distance": 2.6847529894582487, "osmid": 3240938.0 }, "geometry": { "type": "Point", "coordinates": [ -1.8573345, 52.508617 ] } },
{ "type": "Feature", "properties": { "AADT": 4862, "TR_AADT": 43, "2W_AADT": 14, "raw_name": "A5127", "raw_oneway": true, "raw_direction": "A38-->A38M", "raw_techno": "Estimated from nearby links", "osm_name": "Gravelly Hill", "osm_type": "primary", "osm_lanes": 2.0, "osm_oneway": "True", "osm_distance": 2.5684444615991442, "osmid": 5080722.0 }, "geometry": { "type": "Point", "coordinates": [ -1.8575508, 52.510056 ] } },
{ "type": "Feature", "properties": { "AADT": 13281, "TR_AADT": 354, "2W_AADT": 53, "raw_name": "A38", "raw_oneway": true, "raw_direction": "A38M-->A4540", "raw_techno": "Estimated from nearby links", "osm_name": "Aston Road", "osm_type": "trunk_link", "osm_lanes": 2.0, "osm_oneway": "True", "osm_distance": 0.23222920368424399, "osmid": 454926181.0 }, "geometry": { "type": "Point", "coordinates": [ -1.8891732, 52.491292 ] } },
{ "type": "Feature", "properties": { "AADT": 12871, "TR_AADT": 226, "2W_AADT": 63, "raw_name": "A4040", "raw_oneway": true, "raw_direction": "A38-->A4040 Wheelwright Road", "raw_techno": "Estimated using previous year's AADF on this link", "osm_name": "Bromford Lane", "osm_type": "primary", "osm_lanes": 4.0, "osm_oneway": null, "osm_distance": 5.0645464842988837, "osmid": 202265641.0 }, "geometry": { "type": "Point", "coordinates": [ -1.833609, 52.509755 ] } },
{ "type": "Feature", "properties": { "AADT": 13482, "TR_AADT": 554, "2W_AADT": 30, "raw_name": "A4040", "raw_oneway": true, "raw_direction": "A4040 Bromford Lane-->A38", "raw_techno": "Estimated using previous year's AADF on this link", "osm_name": "Wheelwright Road", "osm_type": "tertiary", "osm_lanes": 3.0, "osm_oneway": null, "osm_distance": 1.7507302744125048, "osmid": 23494779.0 }, "geometry": { "type": "Point", "coordinates": [ -1.8349364, 52.509397 ] } },
{ "type": "Feature", "properties": { "AADT": 23431, "TR_AADT": 1525, "2W_AADT": 96, "raw_name": "A38", "raw_oneway": true, "raw_direction": "A4040 Wheelwright Road-->A4040 Bromford Lane", "raw_techno": "Manual count", "osm_name": "Tyburn Road", "osm_type": "trunk", "osm_lanes": 3.0, "osm_oneway": "True", "osm_distance": 0.72920117745395086, "osmid": 430790565.0 }, "geometry": { "type": "Point", "coordinates": [ -1.8350817, 52.509937 ] } },
{ "type": "Feature", "properties": { "AADT": 12282, "TR_AADT": 133, "2W_AADT": 32, "raw_name": "A34", "raw_oneway": true, "raw_direction": "A4040-->A34 spur", "raw_techno": "Estimated using previous year's AADF on this link", "osm_name": null, "osm_type": null, "osm_lanes": null, "osm_oneway": null, "osm_distance": null, "osmid": null }, "geometry": { "type": "Point", "coordinates": [ -1.9009981, 52.518308 ] } },
{ "type": "Feature", "properties": { "AADT": 12282, "TR_AADT": 133, "2W_AADT": 32, "raw_name": "A34", "raw_oneway": true, "raw_direction": "A34 main route-->A453", "raw_techno": "Estimated from nearby links", "osm_name": null, "osm_type": "primary", "osm_lanes": 2.0, "osm_oneway": "True", "osm_distance": 1.1408619566781291, "osmid": 1086956501.0 }, "geometry": { "type": "Point", "coordinates": [ -1.8993026, 52.518639 ] } },
{ "type": "Feature", "properties": { "AADT": 26876, "TR_AADT": 502, "2W_AADT": 102, "raw_name": "A453", "raw_oneway": true, "raw_direction": "A4040-->A34 spur", "raw_techno": "Estimated using previous year's AADF on this link", "osm_name": null, "osm_type": "service", "osm_lanes": null, "osm_oneway": "True", "osm_distance": 1.3319071040626511, "osmid": 628141399.0 }, "geometry": { "type": "Point", "coordinates": [ -1.899304, 52.51801 ] } },
{ "type": "Feature", "properties": { "AADT": 15195, "TR_AADT": 217, "2W_AADT": 53, "raw_name": "A453", "raw_oneway": true, "raw_direction": "B4148 Whitehouse Common-->LA Boundary", "raw_techno": "Estimated using previous year's AADF on this link", "osm_name": "Tamworth Road", "osm_type": "primary", "osm_lanes": 2.0, "osm_oneway": null, "osm_distance": 0.60755601781122215, "osmid": 177724782.0 }, "geometry": { "type": "Point", "coordinates": [ -1.7948116, 52.583142 ] } },
{ "type": "Feature", "properties": { "AADT": 16670, "TR_AADT": 264, "2W_AADT": 55, "raw_name": "A452", "raw_oneway": true, "raw_direction": "B4138 W-->B4138 E", "raw_techno": "Estimated using previous year's AADF on this link", "osm_name": null, "osm_type": null, "osm_lanes": null, "osm_oneway": null, "osm_distance": null, "osmid": null }, "geometry": { "type": "Point", "coordinates": [ -1.8789773, 52.568065 ] } },
{ "type": "Feature", "properties": { "AADT": 22567, "TR_AADT": 2147, "2W_AADT": 27, "raw_name": "M6(T)", "raw_oneway": true, "raw_direction": "A446-->LA Boundary", "raw_techno": "Estimated using previous year's AADF on this link", "osm_name": null, "osm_type": "motorway", "osm_lanes": 3.0, "osm_oneway": "True", "osm_distance": 4.8565673543155858, "osmid": 29499675.0 }, "geometry": { "type": "Point", "coordinates": [ -1.7922865, 52.586553 ] } },
{ "type": "Feature", "properties": { "AADT": 17992, "TR_AADT": 1649, "2W_AADT": 28, "raw_name": "M6(T)", "raw_oneway": true, "raw_direction": "T3-->LA Boundary", "raw_techno": "Estimated using previous year's AADF on this link", "osm_name": null, "osm_type": "motorway", "osm_lanes": 3.0, "osm_oneway": "True", "osm_distance": 16.86285842770193, "osmid": 74810791.0 }, "geometry": { "type": "Point", "coordinates": [ -1.7742101, 52.571327 ] } },
{ "type": "Feature", "properties": { "AADT": 296, "TR_AADT": 2, "2W_AADT": 0, "raw_name": "M6(T)", "raw_oneway": true, "raw_direction": "LA (Warwickshire) boundary-->A38", "raw_techno": "Estimated using previous year's AADF on this link", "osm_name": null, "osm_type": "motorway_link", "osm_lanes": 1.0, "osm_oneway": "True", "osm_distance": 1.8961204438618073, "osmid": 144373632.0 }, "geometry": { "type": "Point", "coordinates": [ -1.7703842, 52.569342 ] } },
{ "type": "Feature", "properties": { "AADT": 16995, "TR_AADT": 1336, "2W_AADT": 88, "raw_name": "A38", "raw_oneway": true, "raw_direction": "M6 Toll slip road-->LA (Warwickshire) Boundary", "raw_techno": "Estimated using previous year's AADF on this link", "osm_name": "Sutton Coldfield Bypass", "osm_type": "trunk", "osm_lanes": 2.0, "osm_oneway": "True", "osm_distance": 3.4552028081695565, "osmid": 189598285.0 }, "geometry": { "type": "Point", "coordinates": [ -1.7725801, 52.572673 ] } },
{ "type": "Feature", "properties": { "AADT": 20064, "TR_AADT": 1203, "2W_AADT": 91, "raw_name": "A38", "raw_oneway": true, "raw_direction": "LA (Warwickshire)-->M6 Toll slip road", "raw_techno": "Estimated using previous year's AADF on this link", "osm_name": "Sutton Coldfield Bypass", "osm_type": "trunk", "osm_lanes": 2.0, "osm_oneway": "True", "osm_distance": 1.0420175131401037, "osmid": 460.0 }, "geometry": { "type": "Point", "coordinates": [ -1.7708268, 52.569343 ] } },
{ "type": "Feature", "properties": { "AADT": 13347, "TR_AADT": 315, "2W_AADT": 37, "raw_name": "A4041", "raw_oneway": true, "raw_direction": "LA Boundary-->A452", "raw_techno": "Estimated using previous year's AADF on this link", "osm_name": "Queslett Road", "osm_type": "trunk", "osm_lanes": 2.0, "osm_oneway": "True", "osm_distance": 3.7284875167230185, "osmid": 4209921.0 }, "geometry": { "type": "Point", "coordinates": [ -1.9000165, 52.554806 ] } },
{ "type": "Feature", "properties": { "AADT": 43228, "TR_AADT": 1038, "2W_AADT": 190, "raw_name": "A38", "raw_oneway": true, "raw_direction": "A456/A457 roundabout-->A38", "raw_techno": "Manual count", "osm_name": "Suffolk Street Queensway", "osm_type": "trunk", "osm_lanes": 4.0, "osm_oneway": "True", "osm_distance": 2.9979753496508978, "osmid": 688146297.0 }, "geometry": { "type": "Point", "coordinates": [ -1.9027252, 52.476839 ] } },
{ "type": "Feature", "properties": { "AADT": 53220, "TR_AADT": 1189, "2W_AADT": 527, "raw_name": "A38", "raw_oneway": true, "raw_direction": "A4540-->A4400", "raw_techno": "Manual count", "osm_name": "Bristol Street", "osm_type": "trunk", "osm_lanes": 3.0, "osm_oneway": "True", "osm_distance": 7.7475185336680923, "osmid": 376544182.0 }, "geometry": { "type": "Point", "coordinates": [ -1.8998507, 52.471892 ] } },
{ "type": "Feature", "properties": { "AADT": 43228, "TR_AADT": 1038, "2W_AADT": 190, "raw_name": "A38", "raw_oneway": true, "raw_direction": "A456/A457 rooundabout-->B4100", "raw_techno": "Dependent on a neighbouring counted link", "osm_name": "Queensway", "osm_type": "trunk", "osm_lanes": 2.0, "osm_oneway": "True", "osm_distance": 0.031834705427910157, "osmid": 52026803.0 }, "geometry": { "type": "Point", "coordinates": [ -1.9021514, 52.483329 ] } },
{ "type": "Feature", "properties": { "AADT": 14883, "TR_AADT": 410, "2W_AADT": 100, "raw_name": "A4400", "raw_oneway": true, "raw_direction": "A456/A457 rooundabout-->B4100", "raw_techno": "Manual count", "osm_name": "Queensway", "osm_type": "trunk", "osm_lanes": 2.0, "osm_oneway": "True", "osm_distance": 0.031834705427910157, "osmid": 52026803.0 }, "geometry": { "type": "Point", "coordinates": [ -1.9026376, 52.483195 ] } },
{ "type": "Feature", "properties": { "AADT": 64243, "TR_AADT": 1633, "2W_AADT": 270, "raw_name": "A38", "raw_oneway": true, "raw_direction": "A41-->A38", "raw_techno": "Manual count", "osm_name": "St Chads Queensway", "osm_type": "trunk", "osm_lanes": 2.0, "osm_oneway": "True", "osm_distance": 3.0384643750044695, "osmid": 23172499.0 }, "geometry": { "type": "Point", "coordinates": [ -1.8964759, 52.485994 ] } },
{ "type": "Feature", "properties": { "AADT": 14783, "TR_AADT": 284, "2W_AADT": 130, "raw_name": "A4400", "raw_oneway": true, "raw_direction": "A41-->A38", "raw_techno": "Manual count", "osm_name": "St Chads Queensway", "osm_type": "trunk", "osm_lanes": 2.0, "osm_oneway": "True", "osm_distance": 3.0384643750044695, "osmid": 23172499.0 }, "geometry": { "type": "Point", "coordinates": [ -1.8964762, 52.485869 ] } },
{ "type": "Feature", "properties": { "AADT": 18564, "TR_AADT": 248, "2W_AADT": 67, "raw_name": "A4040", "raw_oneway": true, "raw_direction": "A38 Aston Webb Boulevard-->A4123", "raw_techno": "Estimated using previous year's AADF on this link", "osm_name": "Harborne Lane", "osm_type": "primary", "osm_lanes": 2.0, "osm_oneway": null, "osm_distance": 4.062572220296623, "osmid": 28150505.0 }, "geometry": { "type": "Point", "coordinates": [ -1.9458558, 52.447173 ] } },
{ "type": "Feature", "properties": { "AADT": 24214, "TR_AADT": 383, "2W_AADT": 149, "raw_name": "A38", "raw_oneway": true, "raw_direction": "A4040-->A4029", "raw_techno": "Estimated using previous year's AADF on this link", "osm_name": "Bristol Road", "osm_type": "trunk", "osm_lanes": 3.0, "osm_oneway": "True", "osm_distance": 2.5635931060796233, "osmid": 3869312.0 }, "geometry": { "type": "Point", "coordinates": [ -1.9273465, 52.447279 ] } },
{ "type": "Feature", "properties": { "AADT": 24160, "TR_AADT": 570, "2W_AADT": 139, "raw_name": "A452", "raw_oneway": true, "raw_direction": "M6 roundabout-->A47 Fort Parkway", "raw_techno": "Estimated using previous year's AADF on this link", "osm_name": "Newport Road", "osm_type": "secondary", "osm_lanes": 2.0, "osm_oneway": null, "osm_distance": 0.73110833367085315, "osmid": 3365269.0 }, "geometry": { "type": "Point", "coordinates": [ -1.79964, 52.504812 ] } },
{ "type": "Feature", "properties": { "AADT": 5786, "TR_AADT": 107, "2W_AADT": 36, "raw_name": "A4029", "raw_oneway": true, "raw_direction": "A4029-->B4217", "raw_techno": "Manual count", "osm_name": "Pebble Mill Road", "osm_type": "primary", "osm_lanes": 2.0, "osm_oneway": "True", "osm_distance": 3.171370406651437, "osmid": 37902117.0 }, "geometry": { "type": "Point", "coordinates": [ -1.9125217, 52.451621 ] } },
{ "type": "Feature", "properties": { "AADT": 17081, "TR_AADT": 1050, "2W_AADT": 81, "raw_name": "A47", "raw_oneway": true, "raw_direction": "A4540-->A4040", "raw_techno": "Estimated using previous year's AADF on this link", "osm_name": "Heartlands Parkway", "osm_type": "primary", "osm_lanes": 2.0, "osm_oneway": "True", "osm_distance": 1.1601204343813443, "osmid": 3981513.0 }, "geometry": { "type": "Point", "coordinates": [ -1.8614968, 52.496846 ] } },
{ "type": "Feature", "properties": { "AADT": 19901, "TR_AADT": 272, "2W_AADT": 137, "raw_name": "A38", "raw_oneway": true, "raw_direction": "lat: 52.3945 long: -2.0174-->lat: 52.4389 long: -1.9402", "raw_techno": "Estimated using previous year's AADF on this link", "osm_name": "Bristol Road South", "osm_type": "trunk", "osm_lanes": 2.0, "osm_oneway": "True", "osm_distance": 0.60563192777996422, "osmid": 31993209.0 }, "geometry": { "type": "Point", "coordinates": [ -1.9676083, 52.41799 ] } },
{ "type": "Feature", "properties": { "AADT": 31807, "TR_AADT": 1299, "2W_AADT": 169, "raw_name": "A45", "raw_oneway": true, "raw_direction": "lat: 52.4618 long: -1.8157-->lat: 52.4451 long: -1.7098", "raw_techno": "Estimated using previous year's AADF on this link", "osm_name": "Coventry Road", "osm_type": "trunk", "osm_lanes": 2.0, "osm_oneway": "True", "osm_distance": 0.3583599392244467, "osmid": 430172295.0 }, "geometry": { "type": "Point", "coordinates": [ -1.8039458, 52.460786 ] } },
{ "type": "Feature", "properties": { "AADT": 29535, "TR_AADT": 394, "2W_AADT": 196, "raw_name": "A38", "raw_oneway": true, "raw_direction": "A38-->A38 Aston Webb", "raw_techno": "Manual count", "osm_name": "Harborne Lane", "osm_type": "trunk", "osm_lanes": 2.0, "osm_oneway": "True", "osm_distance": 3.4223204451181495, "osmid": 635762590.0 }, "geometry": { "type": "Point", "coordinates": [ -1.9418308, 52.442244 ] } },
{ "type": "Feature", "properties": { "AADT": 10905, "TR_AADT": 383, "2W_AADT": 46, "raw_name": "A4040", "raw_oneway": true, "raw_direction": "A47-->B4128", "raw_techno": "Estimated using previous year's AADF on this link", "osm_name": "Station Road", "osm_type": "primary", "osm_lanes": 2.0, "osm_oneway": null, "osm_distance": 2.3148887244719472, "osmid": 74187695.0 }, "geometry": { "type": "Point", "coordinates": [ -1.8090497, 52.481957 ] } },
{ "type": "Feature", "properties": { "AADT": 21111, "TR_AADT": 908, "2W_AADT": 88, "raw_name": "A47", "raw_oneway": true, "raw_direction": "A452-->A457", "raw_techno": "Estimated using previous year's AADF on this link", "osm_name": "Fort Parkway", "osm_type": "primary", "osm_lanes": 2.0, "osm_oneway": "True", "osm_distance": 4.0506663723154874, "osmid": 205652884.0 }, "geometry": { "type": "Point", "coordinates": [ -1.8216843, 52.507311 ] } },
{ "type": "Feature", "properties": { "AADT": 49579, "TR_AADT": 2574, "2W_AADT": 173, "raw_name": "A452", "raw_oneway": true, "raw_direction": "M6 roundabout-->A47 Fort Parkway", "raw_techno": "Manual count", "osm_name": "Chester Road", "osm_type": "trunk", "osm_lanes": 3.0, "osm_oneway": "True", "osm_distance": 3.4547593409687209, "osmid": 23561961.0 }, "geometry": { "type": "Point", "coordinates": [ -1.7969181, 52.510417 ] } },
{ "type": "Feature", "properties": { "AADT": 15065, "TR_AADT": 276, "2W_AADT": 102, "raw_name": "B4135", "raw_oneway": true, "raw_direction": null, "raw_techno": "Estimated using previous year's AADF on this link", "osm_name": "Sandpits", "osm_type": "secondary", "osm_lanes": 2.0, "osm_oneway": "True", "osm_distance": 1.4966247904612633, "osmid": 144964695.0 }, "geometry": { "type": "Point", "coordinates": [ -1.9137422, 52.482259 ] } },
{ "type": "Feature", "properties": { "AADT": 13900, "TR_AADT": 135, "2W_AADT": 51, "raw_name": "B4138", "raw_oneway": true, "raw_direction": null, "raw_techno": "Estimated using previous year's AADF on this link", "osm_name": "Kingstanding Road", "osm_type": "secondary", "osm_lanes": 2.0, "osm_oneway": "True", "osm_distance": 3.9443843314450748, "osmid": 8105752.0 }, "geometry": { "type": "Point", "coordinates": [ -1.8886313, 52.536834 ] } },
{ "type": "Feature", "properties": { "AADT": 8781, "TR_AADT": 74, "2W_AADT": 49, "raw_name": "B4129", "raw_oneway": true, "raw_direction": null, "raw_techno": "Estimated using previous year's AADF on this link", "osm_name": "Metchley Lane", "osm_type": "secondary", "osm_lanes": 2.0, "osm_oneway": "False", "osm_distance": 0.93564174137868283, "osmid": 106653316.0 }, "geometry": { "type": "Point", "coordinates": [ -1.9459369, 52.453025 ] } },
{ "type": "Feature", "properties": { "AADT": 5399, "TR_AADT": 68, "2W_AADT": 26, "raw_name": "C", "raw_oneway": true, "raw_direction": null, "raw_techno": "Manual count", "osm_name": "Lea Village", "osm_type": "unclassified", "osm_lanes": null, "osm_oneway": null, "osm_distance": 0.41403054912835835, "osmid": 24153787.0 }, "geometry": { "type": "Point", "coordinates": [ -1.7818423, 52.481155 ] } },
{ "type": "Feature", "properties": { "AADT": 8273, "TR_AADT": 109, "2W_AADT": 23, "raw_name": "C", "raw_oneway": true, "raw_direction": null, "raw_techno": "Manual count", "osm_name": "Cotterills Lane", "osm_type": "tertiary", "osm_lanes": null, "osm_oneway": null, "osm_distance": 1.4151777865323047, "osmid": 895744423.0 }, "geometry": { "type": "Point", "coordinates": [ -1.8245955, 52.486557 ] } },
{ "type": "Feature", "properties": { "AADT": 9560, "TR_AADT": 72, "2W_AADT": 52, "raw_name": "C", "raw_oneway": true, "raw_direction": null, "raw_techno": "Manual count", "osm_name": "Stoney Lane", "osm_type": "tertiary", "osm_lanes": 2.0, "osm_oneway": "True", "osm_distance": 0.14989991043056861, "osmid": 28150522.0 }, "geometry": { "type": "Point", "coordinates": [ -2.0079036, 52.4604 ] } },
{ "type": "Feature", "properties": { "AADT": 8745, "TR_AADT": 55, "2W_AADT": 48, "raw_name": "U", "raw_oneway": true, "raw_direction": null, "raw_techno": "Manual count", "osm_name": "Woodbourne Road", "osm_type": "tertiary", "osm_lanes": null, "osm_oneway": null, "osm_distance": 1.314683847473882, "osmid": 48372619.0 }, "geometry": { "type": "Point", "coordinates": [ -1.9519368, 52.470216 ] } },
{ "type": "Feature", "properties": { "AADT": 481, "TR_AADT": 3, "2W_AADT": 5, "raw_name": "U", "raw_oneway": true, "raw_direction": null, "raw_techno": "Manual count", "osm_name": "Cramlington Road", "osm_type": "residential", "osm_lanes": null, "osm_oneway": null, "osm_distance": 0.67803885781548179, "osmid": 22515941.0 }, "geometry": { "type": "Point", "coordinates": [ -1.9205991, 52.542389 ] } },
{ "type": "Feature", "properties": { "AADT": 3867, "TR_AADT": 28, "2W_AADT": 31, "raw_name": "U", "raw_oneway": true, "raw_direction": null, "raw_techno": "Manual count", "osm_name": "Shenley Fields Road", "osm_type": "tertiary", "osm_lanes": null, "osm_oneway": null, "osm_distance": 1.7146937961022133, "osmid": 25024013.0 }, "geometry": { "type": "Point", "coordinates": [ -1.9603006, 52.434574 ] } },
{ "type": "Feature", "properties": { "AADT": 370, "TR_AADT": 3, "2W_AADT": 2, "raw_name": "U", "raw_oneway": true, "raw_direction": null, "raw_techno": "Manual count", "osm_name": "Queenswood Road", "osm_type": "residential", "osm_lanes": null, "osm_oneway": null, "osm_distance": 1.2485880162805394, "osmid": 24853992.0 }, "geometry": { "type": "Point", "coordinates": [ -1.879036, 52.449856 ] } },
{ "type": "Feature", "properties": { "AADT": 8011, "TR_AADT": 83, "2W_AADT": 43, "raw_name": "U", "raw_oneway": true, "raw_direction": null, "raw_techno": "Manual count", "osm_name": "Green Lane", "osm_type": "residential", "osm_lanes": null, "osm_oneway": null, "osm_distance": 1.239416740806637, "osmid": 12664566.0 }, "geometry": { "type": "Point", "coordinates": [ -1.865665, 52.47273 ] } },
{ "type": "Feature", "properties": { "AADT": 13091, "TR_AADT": 114, "2W_AADT": 46, "raw_name": "U", "raw_oneway": true, "raw_direction": null, "raw_techno": "Manual count", "osm_name": "Coleshill Road", "osm_type": "tertiary", "osm_lanes": null, "osm_oneway": null, "osm_distance": 1.73279383832322, "osmid": 947.0 }, "geometry": { "type": "Point", "coordinates": [ -1.8168888, 52.562276 ] } },
{ "type": "Feature", "properties": { "AADT": 2150, "TR_AADT": 39, "2W_AADT": 10, "raw_name": "U", "raw_oneway": true, "raw_direction": null, "raw_techno": "Estimated using previous year's AADF on this link", "osm_name": "Adderley Street", "osm_type": "unclassified", "osm_lanes": null, "osm_oneway": null, "osm_distance": 3.2640426450443276, "osmid": 77640987.0 }, "geometry": { "type": "Point", "coordinates": [ -1.8755523, 52.474764 ] } },
{ "type": "Feature", "properties": { "AADT": 1809, "TR_AADT": 61, "2W_AADT": 17, "raw_name": "U", "raw_oneway": true, "raw_direction": null, "raw_techno": "Manual count", "osm_name": "Park Lane", "osm_type": "tertiary", "osm_lanes": null, "osm_oneway": null, "osm_distance": 0.70881693323609651, "osmid": 4774508.0 }, "geometry": { "type": "Point", "coordinates": [ -1.7672254, 52.524962 ] } },
{ "type": "Feature", "properties": { "AADT": 2709, "TR_AADT": 20, "2W_AADT": 32, "raw_name": "U", "raw_oneway": true, "raw_direction": null, "raw_techno": "Manual count", "osm_name": "Holly Hill Road", "osm_type": "tertiary", "osm_lanes": null, "osm_oneway": null, "osm_distance": 1.8436553136343827, "osmid": 28840278.0 }, "geometry": { "type": "Point", "coordinates": [ -2.0123768, 52.405821 ] } },
{ "type": "Feature", "properties": { "AADT": 440, "TR_AADT": 3, "2W_AADT": 0, "raw_name": "U", "raw_oneway": true, "raw_direction": null, "raw_techno": "Manual count", "osm_name": "Bushmore Road", "osm_type": "residential", "osm_lanes": null, "osm_oneway": null, "osm_distance": 1.4222897947911517, "osmid": 4967663.0 }, "geometry": { "type": "Point", "coordinates": [ -1.8347534, 52.42837 ] } },
{ "type": "Feature", "properties": { "AADT": 482, "TR_AADT": 22, "2W_AADT": 1, "raw_name": "U", "raw_oneway": true, "raw_direction": null, "raw_techno": "Manual count", "osm_name": "Carless Avenue", "osm_type": "residential", "osm_lanes": null, "osm_oneway": null, "osm_distance": 1.310901018634383, "osmid": 23117708.0 }, "geometry": { "type": "Point", "coordinates": [ -1.9625711, 52.463253 ] } },
{ "type": "Feature", "properties": { "AADT": 2635, "TR_AADT": 111, "2W_AADT": 19, "raw_name": "U", "raw_oneway": true, "raw_direction": null, "raw_techno": "Manual count", "osm_name": "Rupert Street", "osm_type": "tertiary", "osm_lanes": null, "osm_oneway": null, "osm_distance": 0.71154783997988857, "osmid": 8002356.0 }, "geometry": { "type": "Point", "coordinates": [ -1.8761149, 52.49465 ] } },
{ "type": "Feature", "properties": { "AADT": 1226, "TR_AADT": 10, "2W_AADT": 2, "raw_name": "U", "raw_oneway": true, "raw_direction": null, "raw_techno": "Manual count", "osm_name": "Broadyates Road", "osm_type": "residential", "osm_lanes": null, "osm_oneway": null, "osm_distance": 1.8271459894621673, "osmid": 8015016.0 }, "geometry": { "type": "Point", "coordinates": [ -1.8187226, 52.460747 ] } },
{ "type": "Feature", "properties": { "AADT": 4845, "TR_AADT": 25, "2W_AADT": 16, "raw_name": "U", "raw_oneway": true, "raw_direction": null, "raw_techno": "Manual count", "osm_name": "Haunch Lane", "osm_type": "tertiary", "osm_lanes": null, "osm_oneway": null, "osm_distance": 1.3863750920585849, "osmid": 144398547.0 }, "geometry": { "type": "Point", "coordinates": [ -1.8854175, 52.423144 ] } },
{ "type": "Feature", "properties": { "AADT": 4916, "TR_AADT": 117, "2W_AADT": 28, "raw_name": "U", "raw_oneway": true, "raw_direction": null, "raw_techno": "Manual count", "osm_name": "Shady Lane", "osm_type": "residential", "osm_lanes": 2.0, "osm_oneway": null, "osm_distance": 0.72939186971344683, "osmid": 8002328.0 }, "geometry": { "type": "Point", "coordinates": [ -1.9045993, 52.549892 ] } },
{ "type": "Feature", "properties": { "AADT": 7719, "TR_AADT": 45, "2W_AADT": 22, "raw_name": "U", "raw_oneway": true, "raw_direction": null, "raw_techno": "Manual count", "osm_name": "Upper Holland Road", "osm_type": "tertiary", "osm_lanes": null, "osm_oneway": null, "osm_distance": 2.0137317510480397, "osmid": 615591497.0 }, "geometry": { "type": "Point", "coordinates": [ -1.8181081, 52.559941 ] } },
{ "type": "Feature", "properties": { "AADT": 2528, "TR_AADT": 24, "2W_AADT": 19, "raw_name": "U", "raw_oneway": true, "raw_direction": null, "raw_techno": "Manual count", "osm_name": "Merritts Brook Lane", "osm_type": "residential", "osm_lanes": 2.0, "osm_oneway": null, "osm_distance": 1.1941344929027689, "osmid": 3237516.0 }, "geometry": { "type": "Point", "coordinates": [ -1.9759293, 52.420221 ] } },
{ "type": "Feature", "properties": { "AADT": 3822, "TR_AADT": 49, "2W_AADT": 16, "raw_name": "U", "raw_oneway": true, "raw_direction": null, "raw_techno": "Manual count", "osm_name": "Sycamore Road", "osm_type": "residential", "osm_lanes": null, "osm_oneway": null, "osm_distance": 1.7243864309487356, "osmid": 21653994.0 }, "geometry": { "type": "Point", "coordinates": [ -1.9336976, 52.430903 ] } },
{ "type": "Feature", "properties": { "AADT": 4658, "TR_AADT": 16, "2W_AADT": 15, "raw_name": "U", "raw_oneway": true, "raw_direction": null, "raw_techno": "Manual count", "osm_name": "Bournville Lane", "osm_type": "tertiary", "osm_lanes": 2.0, "osm_oneway": null, "osm_distance": 2.0479631562032083, "osmid": 23639276.0 }, "geometry": { "type": "Point", "coordinates": [ -1.9244065, 52.428489 ] } },
{ "type": "Feature", "properties": { "AADT": 6642, "TR_AADT": 68, "2W_AADT": 16, "raw_name": "U", "raw_oneway": true, "raw_direction": null, "raw_techno": "Manual count", "osm_name": "Barrows Lane", "osm_type": "tertiary", "osm_lanes": null, "osm_oneway": "True", "osm_distance": 0.16599429287679388, "osmid": 17515486.0 }, "geometry": { "type": "Point", "coordinates": [ -1.7923307, 52.461396 ] } },
{ "type": "Feature", "properties": { "AADT": 5988, "TR_AADT": 27, "2W_AADT": 17, "raw_name": "U", "raw_oneway": true, "raw_direction": null, "raw_techno": "Manual count", "osm_name": "Finchley Road", "osm_type": "residential", "osm_lanes": null, "osm_oneway": null, "osm_distance": 1.2298538181810794, "osmid": 7833128.0 }, "geometry": { "type": "Point", "coordinates": [ -1.8729263, 52.548317 ] } },
{ "type": "Feature", "properties": { "AADT": 3608, "TR_AADT": 8, "2W_AADT": 106, "raw_name": "U", "raw_oneway": true, "raw_direction": null, "raw_techno": "Estimated using previous year's AADF on this link", "osm_name": "Smallbrook Queensway", "osm_type": "tertiary", "osm_lanes": 2.0, "osm_oneway": "True", "osm_distance": 1.9686092347958433, "osmid": 32152069.0 }, "geometry": { "type": "Point", "coordinates": [ -1.8964231, 52.477121 ] } },
{ "type": "Feature", "properties": { "AADT": 3331, "TR_AADT": 37, "2W_AADT": 13, "raw_name": "U", "raw_oneway": true, "raw_direction": null, "raw_techno": "Estimated using previous year's AADF on this link", "osm_name": "Clay Lane", "osm_type": "tertiary", "osm_lanes": 2.0, "osm_oneway": null, "osm_distance": 3.0908737282808394, "osmid": 4856827.0 }, "geometry": { "type": "Point", "coordinates": [ -1.8092255, 52.458305 ] } },
{ "type": "Feature", "properties": { "AADT": 6741, "TR_AADT": 85, "2W_AADT": 26, "raw_name": "U", "raw_oneway": true, "raw_direction": null, "raw_techno": "Manual count", "osm_name": "Brays Road", "osm_type": "tertiary", "osm_lanes": null, "osm_oneway": null, "osm_distance": 1.0049757444206298, "osmid": 37047067.0 }, "geometry": { "type": "Point", "coordinates": [ -1.7902944, 52.459388 ] } },
{ "type": "Feature", "properties": { "AADT": 2336, "TR_AADT": 20, "2W_AADT": 12, "raw_name": "U", "raw_oneway": true, "raw_direction": null, "raw_techno": "Manual count", "osm_name": "Selly Park Road", "osm_type": "residential", "osm_lanes": null, "osm_oneway": null, "osm_distance": 0.93212076299247681, "osmid": 5058152.0 }, "geometry": { "type": "Point", "coordinates": [ -1.9200499, 52.438483 ] } },
{ "type": "Feature", "properties": { "AADT": 4541, "TR_AADT": 58, "2W_AADT": 17, "raw_name": "U", "raw_oneway": true, "raw_direction": null, "raw_techno": "Manual count", "osm_name": "Quinton Road West", "osm_type": "tertiary", "osm_lanes": 1.0, "osm_oneway": "True", "osm_distance": 0.94341451093977302, "osmid": 635753988.0 }, "geometry": { "type": "Point", "coordinates": [ -1.9852706, 52.452461 ] } },
{ "type": "Feature", "properties": { "AADT": 2084, "TR_AADT": 17, "2W_AADT": 9, "raw_name": "U", "raw_oneway": true, "raw_direction": null, "raw_techno": "Manual count", "osm_name": "Edwards Road", "osm_type": "residential", "osm_lanes": null, "osm_oneway": null, "osm_distance": 0.97744297004093728, "osmid": 72240351.0 }, "geometry": { "type": "Point", "coordinates": [ -1.834449, 52.525408 ] } },
{ "type": "Feature", "properties": { "AADT": 9943, "TR_AADT": 49, "2W_AADT": 101, "raw_name": "B4284", "raw_oneway": true, "raw_direction": null, "raw_techno": "Estimated using previous year's AADF on this link", "osm_name": "Harborne Road", "osm_type": "secondary", "osm_lanes": 3.0, "osm_oneway": "True", "osm_distance": 1.6200458166044711, "osmid": 27816302.0 }, "geometry": { "type": "Point", "coordinates": [ -1.927221, 52.469925 ] } },
{ "type": "Feature", "properties": { "AADT": 7323, "TR_AADT": 99, "2W_AADT": 61, "raw_name": "B4125", "raw_oneway": true, "raw_direction": null, "raw_techno": "Manual count", "osm_name": "Portland Road", "osm_type": "secondary", "osm_lanes": 2.0, "osm_oneway": null, "osm_distance": 2.7267694581937221, "osmid": 34075964.0 }, "geometry": { "type": "Point", "coordinates": [ -1.9395967, 52.473213 ] } },
{ "type": "Feature", "properties": { "AADT": 503, "TR_AADT": 1, "2W_AADT": 2, "raw_name": "U", "raw_oneway": true, "raw_direction": null, "raw_techno": "Manual count", "osm_name": "Western Road", "osm_type": "residential", "osm_lanes": null, "osm_oneway": null, "osm_distance": 0.20942917336294342, "osmid": 4545613.0 }, "geometry": { "type": "Point", "coordinates": [ -1.835209, 52.51926 ] } },
{ "type": "Feature", "properties": { "AADT": 10968, "TR_AADT": 95, "2W_AADT": 23, "raw_name": "B4142", "raw_oneway": true, "raw_direction": null, "raw_techno": "Manual count", "osm_name": "Boldmere Road", "osm_type": "secondary", "osm_lanes": 2.0, "osm_oneway": "False", "osm_distance": 1.4347524721478124, "osmid": 1134.0 }, "geometry": { "type": "Point", "coordinates": [ -1.8409721, 52.547631 ] } },
{ "type": "Feature", "properties": { "AADT": 15367, "TR_AADT": 245, "2W_AADT": 116, "raw_name": "B4121", "raw_oneway": true, "raw_direction": null, "raw_techno": "Manual count", "osm_name": "Shenley Lane", "osm_type": "secondary", "osm_lanes": 2.0, "osm_oneway": "True", "osm_distance": 1.2542382094152369, "osmid": 69049987.0 }, "geometry": { "type": "Point", "coordinates": [ -1.9763925, 52.434075 ] } },
{ "type": "Feature", "properties": { "AADT": 1098, "TR_AADT": 4, "2W_AADT": 1, "raw_name": "U", "raw_oneway": true, "raw_direction": null, "raw_techno": "Estimated using previous year's AADF on this link", "osm_name": "Headingley Road", "osm_type": "residential", "osm_lanes": null, "osm_oneway": null, "osm_distance": 4.369827362305875, "osmid": 26677635.0 }, "geometry": { "type": "Point", "coordinates": [ -1.9381139, 52.512409 ] } },
{ "type": "Feature", "properties": { "AADT": 298, "TR_AADT": 9, "2W_AADT": 5, "raw_name": "U", "raw_oneway": true, "raw_direction": null, "raw_techno": "Manual count", "osm_name": "Tower Street", "osm_type": "unclassified", "osm_lanes": null, "osm_oneway": null, "osm_distance": 1.1463286273371516, "osmid": 23171815.0 }, "geometry": { "type": "Point", "coordinates": [ -1.9003681, 52.490547 ] } },
{ "type": "Feature", "properties": { "AADT": 14591, "TR_AADT": 152, "2W_AADT": 72, "raw_name": "C", "raw_oneway": true, "raw_direction": null, "raw_techno": "Manual count", "osm_name": "The Radleys", "osm_type": "tertiary", "osm_lanes": null, "osm_oneway": null, "osm_distance": 1.8733501149417295, "osmid": 11625301.0 }, "geometry": { "type": "Point", "coordinates": [ -1.7701784, 52.467405 ] } },
{ "type": "Feature", "properties": { "AADT": 12757, "TR_AADT": 111, "2W_AADT": 154, "raw_name": "B4124", "raw_oneway": true, "raw_direction": null, "raw_techno": "Manual count", "osm_name": "Harborne Road", "osm_type": "secondary", "osm_lanes": 2.0, "osm_oneway": null, "osm_distance": 1.4334671862613997, "osmid": 4701052.0 }, "geometry": { "type": "Point", "coordinates": [ -1.9394343, 52.462749 ] } },
{ "type": "Feature", "properties": { "AADT": 5400, "TR_AADT": 51, "2W_AADT": 18, "raw_name": "C", "raw_oneway": true, "raw_direction": null, "raw_techno": "Manual count", "osm_name": "Gospel Lane", "osm_type": "tertiary", "osm_lanes": null, "osm_oneway": null, "osm_distance": 2.8975712177752961, "osmid": 34588487.0 }, "geometry": { "type": "Point", "coordinates": [ -1.814738, 52.442257 ] } },
{ "type": "Feature", "properties": { "AADT": 10854, "TR_AADT": 333, "2W_AADT": 37, "raw_name": "C", "raw_oneway": true, "raw_direction": null, "raw_techno": "Estimated using previous year's AADF on this link", "osm_name": "Victoria Road", "osm_type": "tertiary", "osm_lanes": 1.0, "osm_oneway": "True", "osm_distance": 4.0625967943135208, "osmid": 24026314.0 }, "geometry": { "type": "Point", "coordinates": [ -1.8853454, 52.502103 ] } },
{ "type": "Feature", "properties": { "AADT": 1177, "TR_AADT": 8, "2W_AADT": 2, "raw_name": "U", "raw_oneway": true, "raw_direction": null, "raw_techno": "Manual count", "osm_name": "Daisy Farm Road", "osm_type": "residential", "osm_lanes": null, "osm_oneway": null, "osm_distance": 3.7711749505002632, "osmid": 38300330.0 }, "geometry": { "type": "Point", "coordinates": [ -1.8715156, 52.409834 ] } },
{ "type": "Feature", "properties": { "AADT": 3203, "TR_AADT": 10, "2W_AADT": 19, "raw_name": "U", "raw_oneway": true, "raw_direction": null, "raw_techno": "Manual count", "osm_name": "Birdbrook Road", "osm_type": "residential", "osm_lanes": null, "osm_oneway": null, "osm_distance": 3.3413345280413851, "osmid": 9541538.0 }, "geometry": { "type": "Point", "coordinates": [ -1.8940489, 52.540112 ] } },
{ "type": "Feature", "properties": { "AADT": 13785, "TR_AADT": 137, "2W_AADT": 89, "raw_name": "C", "raw_oneway": true, "raw_direction": null, "raw_techno": "Manual count", "osm_name": "Edgbaston Park Road", "osm_type": "tertiary", "osm_lanes": 2.0, "osm_oneway": null, "osm_distance": 0.64160497606147093, "osmid": 1244152976.0 }, "geometry": { "type": "Point", "coordinates": [ -1.9257979, 52.458264 ] } },
{ "type": "Feature", "properties": { "AADT": 2367, "TR_AADT": 7, "2W_AADT": 18, "raw_name": "U", "raw_oneway": true, "raw_direction": null, "raw_techno": "Manual count", "osm_name": "Tansley Road", "osm_type": "residential", "osm_lanes": null, "osm_oneway": null, "osm_distance": 1.3293275906964155, "osmid": 7923827.0 }, "geometry": { "type": "Point", "coordinates": [ -1.8837785, 52.543329 ] } },
{ "type": "Feature", "properties": { "AADT": 387, "TR_AADT": 1, "2W_AADT": 5, "raw_name": "U", "raw_oneway": true, "raw_direction": null, "raw_techno": "Manual count", "osm_name": "Bagshaw Road", "osm_type": "residential", "osm_lanes": null, "osm_oneway": null, "osm_distance": 1.0675953402883036, "osmid": 24207236.0 }, "geometry": { "type": "Point", "coordinates": [ -1.802066, 52.482881 ] } },
{ "type": "Feature", "properties": { "AADT": 2294, "TR_AADT": 26, "2W_AADT": 7, "raw_name": "U", "raw_oneway": true, "raw_direction": null, "raw_techno": "Manual count", "osm_name": "Trafalgar Road", "osm_type": "residential", "osm_lanes": null, "osm_oneway": null, "osm_distance": 2.3759283639612074, "osmid": 4545607.0 }, "geometry": { "type": "Point", "coordinates": [ -1.8412784, 52.519897 ] } },
{ "type": "Feature", "properties": { "AADT": 4625, "TR_AADT": 52, "2W_AADT": 37, "raw_name": "C", "raw_oneway": true, "raw_direction": null, "raw_techno": "Manual count", "osm_name": "All Saints' Street", "osm_type": "residential", "osm_lanes": null, "osm_oneway": null, "osm_distance": 3.2387075943006765, "osmid": 20037732.0 }, "geometry": { "type": "Point", "coordinates": [ -1.9216331, 52.491498 ] } },
{ "type": "Feature", "properties": { "AADT": 4321, "TR_AADT": 21, "2W_AADT": 15, "raw_name": "U", "raw_oneway": true, "raw_direction": null, "raw_techno": "Estimated using previous year's AADF on this link", "osm_name": "Castle Road", "osm_type": "tertiary", "osm_lanes": null, "osm_oneway": null, "osm_distance": 2.4315127331869539, "osmid": 48173741.0 }, "geometry": { "type": "Point", "coordinates": [ -1.9650915, 52.439988 ] } },
{ "type": "Feature", "properties": { "AADT": 6310, "TR_AADT": 217, "2W_AADT": 13, "raw_name": "B4145", "raw_oneway": true, "raw_direction": null, "raw_techno": "Manual count", "osm_name": "Muntz Street", "osm_type": "secondary", "osm_lanes": 2.0, "osm_oneway": null, "osm_distance": 3.6103199631200287, "osmid": 376525697.0 }, "geometry": { "type": "Point", "coordinates": [ -1.8551256, 52.47234 ] } },
{ "type": "Feature", "properties": { "AADT": 305, "TR_AADT": 7, "2W_AADT": 0, "raw_name": "U", "raw_oneway": true, "raw_direction": null, "raw_techno": "Manual count", "osm_name": "Nailstone Crescent", "osm_type": "residential", "osm_lanes": null, "osm_oneway": null, "osm_distance": 2.1809058123269449, "osmid": 4700858.0 }, "geometry": { "type": "Point", "coordinates": [ -1.8203951, 52.433069 ] } },
{ "type": "Feature", "properties": { "AADT": 1085, "TR_AADT": 12, "2W_AADT": 8, "raw_name": "U", "raw_oneway": true, "raw_direction": null, "raw_techno": "Manual count", "osm_name": "Frederick Road", "osm_type": "residential", "osm_lanes": null, "osm_oneway": null, "osm_distance": 1.2415416388085507, "osmid": 23770873.0 }, "geometry": { "type": "Point", "coordinates": [ -1.9171652, 52.470746 ] } },
{ "type": "Feature", "properties": { "AADT": 558, "TR_AADT": 3, "2W_AADT": 2, "raw_name": "U", "raw_oneway": true, "raw_direction": null, "raw_techno": "Manual count", "osm_name": "Parkhill Road", "osm_type": "residential", "osm_lanes": null, "osm_oneway": null, "osm_distance": 0.94583413610026212, "osmid": 4566032.0 }, "geometry": { "type": "Point", "coordinates": [ -1.7976842, 52.532929 ] } },
{ "type": "Feature", "properties": { "AADT": 10307, "TR_AADT": 168, "2W_AADT": 40, "raw_name": "B4142", "raw_oneway": true, "raw_direction": null, "raw_techno": "Manual count", "osm_name": "Gravelly Lane", "osm_type": "secondary", "osm_lanes": 2.0, "osm_oneway": null, "osm_distance": 2.6157522193395382, "osmid": 38131478.0 }, "geometry": { "type": "Point", "coordinates": [ -1.8414966, 52.528905 ] } },
{ "type": "Feature", "properties": { "AADT": 3580, "TR_AADT": 37, "2W_AADT": 9, "raw_name": "U", "raw_oneway": true, "raw_direction": null, "raw_techno": "Manual count", "osm_name": "Acheson Road", "osm_type": "residential", "osm_lanes": null, "osm_oneway": null, "osm_distance": 3.027764214681218, "osmid": 25437276.0 }, "geometry": { "type": "Point", "coordinates": [ -1.8449534, 52.413461 ] } },
{ "type": "Feature", "properties": { "AADT": 4781, "TR_AADT": 26, "2W_AADT": 17, "raw_name": "U", "raw_oneway": true, "raw_direction": null, "raw_techno": "Manual count", "osm_name": "Edgewood Road", "osm_type": "tertiary", "osm_lanes": 2.0, "osm_oneway": null, "osm_distance": 0.90706260072913192, "osmid": 647868291.0 }, "geometry": { "type": "Point", "coordinates": [ -2.0014839, 52.389657 ] } },
{ "type": "Feature", "properties": { "AADT": 3045, "TR_AADT": 44, "2W_AADT": 13, "raw_name": "C", "raw_oneway": true, "raw_direction": null, "raw_techno": "Manual count", "osm_name": "Showell Green Lane", "osm_type": "tertiary", "osm_lanes": 1.0, "osm_oneway": "True", "osm_distance": 1.5879104404379853, "osmid": 23753379.0 }, "geometry": { "type": "Point", "coordinates": [ -1.8660662, 52.45209 ] } },
{ "type": "Feature", "properties": { "AADT": 509, "TR_AADT": 11, "2W_AADT": 3, "raw_name": "U", "raw_oneway": true, "raw_direction": null, "raw_techno": "Manual count", "osm_name": "Dymoke Street", "osm_type": "unclassified", "osm_lanes": null, "osm_oneway": null, "osm_distance": 2.1590166237688266, "osmid": 24848241.0 }, "geometry": { "type": "Point", "coordinates": [ -1.8874784, 52.468582 ] } },
{ "type": "Feature", "properties": { "AADT": 9156, "TR_AADT": 117, "2W_AADT": 37, "raw_name": "B4144", "raw_oneway": true, "raw_direction": null, "raw_techno": "Manual count", "osm_name": "Lozells Road", "osm_type": "secondary", "osm_lanes": 2.0, "osm_oneway": null, "osm_distance": 1.7912514492593068, "osmid": 628133956.0 }, "geometry": { "type": "Point", "coordinates": [ -1.9082364, 52.502941 ] } },
{ "type": "Feature", "properties": { "AADT": 8213, "TR_AADT": 122, "2W_AADT": 23, "raw_name": "B4151", "raw_oneway": true, "raw_direction": null, "raw_techno": "Manual count", "osm_name": "Slade Road", "osm_type": "secondary", "osm_lanes": 2.0, "osm_oneway": null, "osm_distance": 2.337397069647821, "osmid": 768.0 }, "geometry": { "type": "Point", "coordinates": [ -1.8112154, 52.588401 ] } },
{ "type": "Feature", "properties": { "AADT": 520, "TR_AADT": 9, "2W_AADT": 5, "raw_name": "U", "raw_oneway": true, "raw_direction": null, "raw_techno": "Manual count", "osm_name": "Beaks Hill Road", "osm_type": "residential", "osm_lanes": null, "osm_oneway": null, "osm_distance": 0.085005349034475403, "osmid": 28364348.0 }, "geometry": { "type": "Point", "coordinates": [ -1.9329997, 52.406108 ] } },
{ "type": "Feature", "properties": { "AADT": 3742, "TR_AADT": 26, "2W_AADT": 17, "raw_name": "B4146", "raw_oneway": true, "raw_direction": null, "raw_techno": "Manual count", "osm_name": "Addison Road", "osm_type": "secondary", "osm_lanes": 2.0, "osm_oneway": null, "osm_distance": 2.5210321577192194, "osmid": 23077470.0 }, "geometry": { "type": "Point", "coordinates": [ -1.8865138, 52.431443 ] } },
{ "type": "Feature", "properties": { "AADT": 2343, "TR_AADT": 14, "2W_AADT": 4, "raw_name": "U", "raw_oneway": true, "raw_direction": null, "raw_techno": "Manual count", "osm_name": "The Fairway", "osm_type": "residential", "osm_lanes": null, "osm_oneway": null, "osm_distance": 1.1031157770760072, "osmid": 49946845.0 }, "geometry": { "type": "Point", "coordinates": [ -1.9442904, 52.404892 ] } },
{ "type": "Feature", "properties": { "AADT": 7676, "TR_AADT": 69, "2W_AADT": 51, "raw_name": "U", "raw_oneway": true, "raw_direction": null, "raw_techno": "Manual count", "osm_name": "Wellington Road", "osm_type": "tertiary", "osm_lanes": 2.0, "osm_oneway": null, "osm_distance": 2.1066393189863146, "osmid": 27950604.0 }, "geometry": { "type": "Point", "coordinates": [ -1.9086866, 52.46326 ] } },
{ "type": "Feature", "properties": { "AADT": 252, "TR_AADT": 0, "2W_AADT": 2, "raw_name": "U", "raw_oneway": true, "raw_direction": null, "raw_techno": "Estimated using previous year's AADF on this link", "osm_name": "Morar Close", "osm_type": "residential", "osm_lanes": null, "osm_oneway": null, "osm_distance": 1.7885213806283793, "osmid": 29069151.0 }, "geometry": { "type": "Point", "coordinates": [ -1.7800333, 52.522101 ] } },
{ "type": "Feature", "properties": { "AADT": 65, "TR_AADT": 0, "2W_AADT": 0, "raw_name": "U", "raw_oneway": true, "raw_direction": null, "raw_techno": "Estimated using previous year's AADF on this link", "osm_name": "Cobham Close", "osm_type": "residential", "osm_lanes": null, "osm_oneway": null, "osm_distance": 1.6878481681835718, "osmid": 29071666.0 }, "geometry": { "type": "Point", "coordinates": [ -1.7979986, 52.519013 ] } },
{ "type": "Feature", "properties": { "AADT": 39, "TR_AADT": 2, "2W_AADT": 0, "raw_name": "U", "raw_oneway": true, "raw_direction": null, "raw_techno": "Estimated using previous year's AADF on this link", "osm_name": "Hadyn Grove", "osm_type": "residential", "osm_lanes": null, "osm_oneway": null, "osm_distance": 0.034025289444695711, "osmid": 13775449.0 }, "geometry": { "type": "Point", "coordinates": [ -1.7836009, 52.458809 ] } },
{ "type": "Feature", "properties": { "AADT": 185, "TR_AADT": 0, "2W_AADT": 3, "raw_name": "U", "raw_oneway": true, "raw_direction": null, "raw_techno": "Estimated using previous year's AADF on this link", "osm_name": null, "osm_type": "residential", "osm_lanes": null, "osm_oneway": null, "osm_distance": 0.47931926966009331, "osmid": 243262748.0 }, "geometry": { "type": "Point", "coordinates": [ -1.8861685, 52.451365 ] } }
]
}
