{
"type": "FeatureCollection",
"name": "Copenhagen_AADT_2019",
"crs": { "type": "name", "properties": { "name": "urn:ogc:def:crs:OGC:1.3:CRS84" } },
"features": [
{ "type": "Feature", "properties": { "raw_name": "Gothersgade", "AADT": 4300.0, "TR_pct_AADT": 4.7, "osm_name": "Gothersgade", "osm_type": "tertiary", "osm_lanes": 2.0, "osm_oneway": null, "osm_distance": 0.96162505318467806, "osmid": 576383494.0 }, "geometry": { "type": "Point", "coordinates": [ 12.56654505, 55.68641229 ] } },
{ "type": "Feature", "properties": { "raw_name": "Røde Mellemvej", "AADT": 14100.0, "TR_pct_AADT": 5.7, "osm_name": "Røde Mellemvej", "osm_type": "tertiary", "osm_lanes": 2.0, "osm_oneway": null, "osm_distance": 2.6897468510879299, "osmid": 143792491.0 }, "geometry": { "type": "Point", "coordinates": [ 12.59177017, 55.64559953 ] } },
{ "type": "Feature", "properties": { "raw_name": "Vermlandsgade", "AADT": 18400.0, "TR_pct_AADT": 8.0, "osm_name": "Vermlandsgade", "osm_type": "tertiary", "osm_lanes": 2.0, "osm_oneway": "True", "osm_distance": 3.8019348202510033, "osmid": 37911921.0 }, "geometry": { "type": "Point", "coordinates": [ 12.60337982, 55.66841061 ] } },
{ "type": "Feature", "properties": { "raw_name": "Øresundsvej", "AADT": 7300.0, "TR_pct_AADT": 3.6, "osm_name": "Øresundsvej", "osm_type": "tertiary", "osm_lanes": 2.0, "osm_oneway": null, "osm_distance": 0.59987272890476795, "osmid": 1696164.0 }, "geometry": { "type": "Point", "coordinates": [ 12.61277165, 55.66025793 ] } },
{ "type": "Feature", "properties": { "raw_name": "Amagerfælledvej", "AADT": 15300.0, "TR_pct_AADT": 6.5, "osm_name": "Amagerfælledvej", "osm_type": "tertiary", "osm_lanes": 2.0, "osm_oneway": null, "osm_distance": 3.009748137530472, "osmid": 129370597.0 }, "geometry": { "type": "Point", "coordinates": [ 12.59378431, 55.6622484 ] } },
{ "type": "Feature", "properties": { "raw_name": "Classensgade", "AADT": 4900.0, "TR_pct_AADT": 4.3, "osm_name": "Classensgade", "osm_type": "tertiary", "osm_lanes": 2.0, "osm_oneway": "False", "osm_distance": 0.17491554604353393, "osmid": 357113628.0 }, "geometry": { "type": "Point", "coordinates": [ 12.58065233, 55.69647486 ] } },
{ "type": "Feature", "properties": { "raw_name": "Peder Lykkes Vej", "AADT": 10600.0, "TR_pct_AADT": 3.4, "osm_name": "Peder Lykkes Vej", "osm_type": "tertiary", "osm_lanes": 2.0, "osm_oneway": null, "osm_distance": 0.31857760489400083, "osmid": 42709571.0 }, "geometry": { "type": "Point", "coordinates": [ 12.59536199, 55.65495061 ] } },
{ "type": "Feature", "properties": { "raw_name": "Uplandsgade", "AADT": 10600.0, "TR_pct_AADT": 13.1, "osm_name": "Uplandsgade", "osm_type": "tertiary", "osm_lanes": 2.0, "osm_oneway": null, "osm_distance": 0.91754299833622266, "osmid": 1134453748.0 }, "geometry": { "type": "Point", "coordinates": [ 12.61721603, 55.6689849 ] } },
{ "type": "Feature", "properties": { "raw_name": "Islands Brygge", "AADT": 3900.0, "TR_pct_AADT": 2.1, "osm_name": "Islands Brygge", "osm_type": "residential", "osm_lanes": 2.0, "osm_oneway": null, "osm_distance": 1.4874405395135109, "osmid": 420544804.0 }, "geometry": { "type": "Point", "coordinates": [ 12.57967576, 55.66934 ] } },
{ "type": "Feature", "properties": { "raw_name": "Englandsvej", "AADT": 10600.0, "TR_pct_AADT": 3.8, "osm_name": "Englandsvej", "osm_type": "tertiary", "osm_lanes": 2.0, "osm_oneway": null, "osm_distance": 1.4896081196062849, "osmid": 237365307.0 }, "geometry": { "type": "Point", "coordinates": [ 12.5981686, 55.64573286 ] } },
{ "type": "Feature", "properties": { "raw_name": "Sundholmsvej", "AADT": 8300.0, "TR_pct_AADT": 2.5, "osm_name": "Sundholmsvej", "osm_type": "tertiary", "osm_lanes": 2.0, "osm_oneway": null, "osm_distance": 1.4127456953624686, "osmid": 26178096.0 }, "geometry": { "type": "Point", "coordinates": [ 12.59545219, 55.66240294 ] } },
{ "type": "Feature", "properties": { "raw_name": "Østrigsgade", "AADT": 8300.0, "TR_pct_AADT": 5.7, "osm_name": "Østrigsgade", "osm_type": "tertiary", "osm_lanes": 2.0, "osm_oneway": "False", "osm_distance": 1.4224774398292106, "osmid": 1696163.0 }, "geometry": { "type": "Point", "coordinates": [ 12.61301675, 55.66603594 ] } },
{ "type": "Feature", "properties": { "raw_name": "Thorshavnsgade", "AADT": 5300.0, "TR_pct_AADT": 6.6, "osm_name": "Thorshavnsgade", "osm_type": "residential", "osm_lanes": 2.0, "osm_oneway": null, "osm_distance": 0.16227885071906778, "osmid": 1813862.0 }, "geometry": { "type": "Point", "coordinates": [ 12.57850716, 55.6670663 ] } },
{ "type": "Feature", "properties": { "raw_name": "Strandlodsvej", "AADT": 5100.0, "TR_pct_AADT": 3.8, "osm_name": "Strandlodsvej", "osm_type": "tertiary", "osm_lanes": 2.0, "osm_oneway": null, "osm_distance": 1.0270936498560752, "osmid": 746513119.0 }, "geometry": { "type": "Point", "coordinates": [ 12.62442078, 55.66183897 ] } },
{ "type": "Feature", "properties": { "raw_name": "Øresundsvej", "AADT": 6200.0, "TR_pct_AADT": 3.8, "osm_name": "Øresundsvej", "osm_type": "tertiary", "osm_lanes": 2.0, "osm_oneway": null, "osm_distance": 0.15320018136783037, "osmid": 641461867.0 }, "geometry": { "type": "Point", "coordinates": [ 12.62697287, 55.66157833 ] } },
{ "type": "Feature", "properties": { "raw_name": "Englandsvej", "AADT": 8700.0, "TR_pct_AADT": 2.8, "osm_name": "Englandsvej", "osm_type": "tertiary", "osm_lanes": 2.0, "osm_oneway": null, "osm_distance": 0.55945272830063286, "osmid": 158200436.0 }, "geometry": { "type": "Point", "coordinates": [ 12.60574322, 55.65726043 ] } },
{ "type": "Feature", "properties": { "raw_name": "Artillerivej", "AADT": 10000.0, "TR_pct_AADT": 1.1, "osm_name": "Artillerivej", "osm_type": "tertiary", "osm_lanes": 2.0, "osm_oneway": null, "osm_distance": 0.9759896899902144, "osmid": 43838022.0 }, "geometry": { "type": "Point", "coordinates": [ 12.58358384, 55.66414469 ] } },
{ "type": "Feature", "properties": { "raw_name": "Njalsgade", "AADT": 4500.0, "TR_pct_AADT": 6.7, "osm_name": "Njalsgade", "osm_type": "tertiary", "osm_lanes": 2.0, "osm_oneway": null, "osm_distance": 2.0009157508295816, "osmid": 904466734.0 }, "geometry": { "type": "Point", "coordinates": [ 12.58203952, 55.66510472 ] } },
{ "type": "Feature", "properties": { "raw_name": "Njalsgade", "AADT": 13000.0, "TR_pct_AADT": 3.3, "osm_name": "Njalsgade", "osm_type": "tertiary", "osm_lanes": null, "osm_oneway": "True", "osm_distance": 4.2885188086134258, "osmid": 1363850256.0 }, "geometry": { "type": "Point", "coordinates": [ 12.58462957, 55.66414012 ] } },
{ "type": "Feature", "properties": { "raw_name": "Holmbladsgade", "AADT": 5700.0, "TR_pct_AADT": 7.8, "osm_name": "Holmbladsgade", "osm_type": "tertiary", "osm_lanes": 2.0, "osm_oneway": null, "osm_distance": 1.4121589516871704, "osmid": 1276582223.0 }, "geometry": { "type": "Point", "coordinates": [ 12.6117959, 55.66617579 ] } },
{ "type": "Feature", "properties": { "raw_name": "Vermlandsgade", "AADT": 7700.0, "TR_pct_AADT": 1.9, "osm_name": "Vermlandsgade", "osm_type": "tertiary", "osm_lanes": 2.0, "osm_oneway": null, "osm_distance": 0.42483667424883886, "osmid": 37912504.0 }, "geometry": { "type": "Point", "coordinates": [ 12.60563956, 55.66818018 ] } },
{ "type": "Feature", "properties": { "raw_name": "Irlandsvej", "AADT": 4000.0, "TR_pct_AADT": 3.0, "osm_name": "Irlandsvej", "osm_type": "tertiary", "osm_lanes": null, "osm_oneway": null, "osm_distance": 3.7556715827225982, "osmid": 8122614.0 }, "geometry": { "type": "Point", "coordinates": [ 12.6052653, 55.64646137 ] } },
{ "type": "Feature", "properties": { "raw_name": "Islands Brygge", "AADT": 2000.0, "TR_pct_AADT": 2.9, "osm_name": "Islands Brygge", "osm_type": "residential", "osm_lanes": null, "osm_oneway": null, "osm_distance": 1.357210097832809, "osmid": 503714827.0 }, "geometry": { "type": "Point", "coordinates": [ 12.56769301, 55.6589104 ] } },
{ "type": "Feature", "properties": { "raw_name": "Vejlands Allé", "AADT": 6000.0, "TR_pct_AADT": 4.6, "osm_name": "Vejlands Allé", "osm_type": "residential", "osm_lanes": null, "osm_oneway": null, "osm_distance": 0.98533255037351097, "osmid": 44048538.0 }, "geometry": { "type": "Point", "coordinates": [ 12.61499764, 55.64370194 ] } },
{ "type": "Feature", "properties": { "raw_name": "Klaksvigsgade", "AADT": 6700.0, "TR_pct_AADT": 5.4, "osm_name": "Klaksvigsgade", "osm_type": "residential", "osm_lanes": 2.0, "osm_oneway": "True", "osm_distance": 5.3910911316459176, "osmid": 713734618.0 }, "geometry": { "type": "Point", "coordinates": [ 12.58172955, 55.668057 ] } },
{ "type": "Feature", "properties": { "raw_name": "Langebrogade", "AADT": 1100.0, "TR_pct_AADT": null, "osm_name": "Langebrogade", "osm_type": "residential", "osm_lanes": null, "osm_oneway": null, "osm_distance": 2.4389575577876368, "osmid": 701918261.0 }, "geometry": { "type": "Point", "coordinates": [ 12.58225808, 55.67065408 ] } },
{ "type": "Feature", "properties": { "raw_name": "Vester Voldgade", "AADT": 700.0, "TR_pct_AADT": 0.1, "osm_name": "Vester Voldgade", "osm_type": "unclassified", "osm_lanes": 1.0, "osm_oneway": "True", "osm_distance": 0.50770705132104343, "osmid": 708070715.0 }, "geometry": { "type": "Point", "coordinates": [ 12.57633816, 55.67277244 ] } },
{ "type": "Feature", "properties": { "raw_name": "Ved Langebro", "AADT": 3500.0, "TR_pct_AADT": 3.8, "osm_name": "Ved Langebro", "osm_type": "unclassified", "osm_lanes": 2.0, "osm_oneway": null, "osm_distance": 0.85782625415010694, "osmid": 2351770.0 }, "geometry": { "type": "Point", "coordinates": [ 12.58083401, 55.66955125 ] } },
{ "type": "Feature", "properties": { "raw_name": "Kirsebærhaven", "AADT": 700.0, "TR_pct_AADT": null, "osm_name": "Kirsebærhaven", "osm_type": "residential", "osm_lanes": 2.0, "osm_oneway": null, "osm_distance": 0.1994501281791195, "osmid": 25892420.0 }, "geometry": { "type": "Point", "coordinates": [ 12.50327544, 55.64937903 ] } }
]
}
