{
"type": "FeatureCollection",
"name": "Copenhagen_AADT_2016",
"crs": { "type": "name", "properties": { "name": "urn:ogc:def:crs:OGC:1.3:CRS84" } },
"features": [
{ "type": "Feature", "properties": { "raw_name": "Nyhavnsbroen", "AADT": 10600.0, "TR_pct_AADT": 4.1, "osm_name": "Nyhavnsbroen", "osm_type": "residential", "osm_lanes": 2.0, "osm_oneway": null, "osm_distance": 1.0514866487332528, "osmid": 4375853.0 }, "geometry": { "type": "Point", "coordinates": [ 12.59130066, 55.67965165 ] } },
{ "type": "Feature", "properties": { "raw_name": "Tagensvej", "AADT": 17700.0, "TR_pct_AADT": 4.1, "osm_name": "Tagensvej", "osm_type": "tertiary", "osm_lanes": 2.0, "osm_oneway": "True", "osm_distance": 0.45239787159558698, "osmid": 233766981.0 }, "geometry": { "type": "Point", "coordinates": [ 12.5537195, 55.69951001 ] } },
{ "type": "Feature", "properties": { "raw_name": "P. Knudsens Gade", "AADT": 29600.0, "TR_pct_AADT": 3.5, "osm_name": "P. Knudsens Gade", "osm_type": "primary", "osm_lanes": 2.0, "osm_oneway": "True", "osm_distance": 2.238461756383701, "osmid": 8123175.0 }, "geometry": { "type": "Point", "coordinates": [ 12.52922502, 55.65046367 ] } },
{ "type": "Feature", "properties": { "raw_name": "Tagensvej", "AADT": 22000.0, "TR_pct_AADT": 4.7, "osm_name": "Tagensvej", "osm_type": "tertiary", "osm_lanes": 4.0, "osm_oneway": null, "osm_distance": 0.95862422075275311, "osmid": 47978082.0 }, "geometry": { "type": "Point", "coordinates": [ 12.54447554, 55.70517056 ] } },
{ "type": "Feature", "properties": { "raw_name": "Tagensvej", "AADT": 19900.0, "TR_pct_AADT": 3.4, "osm_name": "Tagensvej", "osm_type": "tertiary", "osm_lanes": 4.0, "osm_oneway": null, "osm_distance": 0.82220587101426768, "osmid": 502191131.0 }, "geometry": { "type": "Point", "coordinates": [ 12.54579813, 55.70442335 ] } },
{ "type": "Feature", "properties": { "raw_name": "Gasværksvej", "AADT": 4400.0, "TR_pct_AADT": 2.3, "osm_name": "Gasværksvej", "osm_type": "tertiary", "osm_lanes": 2.0, "osm_oneway": null, "osm_distance": 0.26552527387440433, "osmid": 237108784.0 }, "geometry": { "type": "Point", "coordinates": [ 12.55731793, 55.67071669 ] } },
{ "type": "Feature", "properties": { "raw_name": "Gasværksvej", "AADT": 3600.0, "TR_pct_AADT": 2.9, "osm_name": "Gasværksvej", "osm_type": "tertiary", "osm_lanes": 1.0, "osm_oneway": "True", "osm_distance": 0.031662499377364567, "osmid": 747146468.0 }, "geometry": { "type": "Point", "coordinates": [ 12.55780689, 55.67024783 ] } },
{ "type": "Feature", "properties": { "raw_name": "Prøvestensbroen", "AADT": 1500.0, "TR_pct_AADT": 57.9, "osm_name": "Prøvestensbroen", "osm_type": "unclassified", "osm_lanes": 2.0, "osm_oneway": null, "osm_distance": 0.65534201200544395, "osmid": 497240801.0 }, "geometry": { "type": "Point", "coordinates": [ 12.63119421, 55.67085086 ] } },
{ "type": "Feature", "properties": { "raw_name": "Wildersbro", "AADT": 2200.0, "TR_pct_AADT": 2.5, "osm_name": "Wilders Bro", "osm_type": "residential", "osm_lanes": null, "osm_oneway": null, "osm_distance": 0.58906903666855148, "osmid": 372177792.0 }, "geometry": { "type": "Point", "coordinates": [ 12.59260675, 55.67573332 ] } },
{ "type": "Feature", "properties": { "raw_name": "Skelbækgade", "AADT": 6200.0, "TR_pct_AADT": 3.6, "osm_name": "Skelbækgade", "osm_type": "tertiary", "osm_lanes": 2.0, "osm_oneway": "False", "osm_distance": 0.27288138591121092, "osmid": 478880409.0 }, "geometry": { "type": "Point", "coordinates": [ 12.55784533, 55.66590159 ] } },
{ "type": "Feature", "properties": { "raw_name": "Nyhavn", "AADT": 400.0, "TR_pct_AADT": null, "osm_name": "Nyhavn", "osm_type": "residential", "osm_lanes": 1.0, "osm_oneway": "True", "osm_distance": 0.36500035932861663, "osmid": 2383977.0 }, "geometry": { "type": "Point", "coordinates": [ 12.59255577, 55.6790782 ] } },
{ "type": "Feature", "properties": { "raw_name": "Frederiksstadsgade ", "AADT": 100.0, "TR_pct_AADT": null, "osm_name": "Frederiksstadsgade", "osm_type": "residential", "osm_lanes": null, "osm_oneway": "True", "osm_distance": 0.10040086485686729, "osmid": 832300598.0 }, "geometry": { "type": "Point", "coordinates": [ 12.54596957, 55.66906976 ] } },
{ "type": "Feature", "properties": { "raw_name": "Haderslevsgade ", "AADT": 200.0, "TR_pct_AADT": 0.5, "osm_name": "Haderslevgade", "osm_type": "residential", "osm_lanes": null, "osm_oneway": "True", "osm_distance": 3.6265222079845936, "osmid": 87148192.0 }, "geometry": { "type": "Point", "coordinates": [ 12.54565931, 55.66889322 ] } },
{ "type": "Feature", "properties": { "raw_name": "Matthæusgade ", "AADT": 1300.0, "TR_pct_AADT": 0.4, "osm_name": "Matthæusgade", "osm_type": "residential", "osm_lanes": null, "osm_oneway": null, "osm_distance": 0.33668092322685228, "osmid": 1133075101.0 }, "geometry": { "type": "Point", "coordinates": [ 12.54575156, 55.6696028 ] } },
{ "type": "Feature", "properties": { "raw_name": "Teglholmsgade ", "AADT": 8500.0, "TR_pct_AADT": 4.4, "osm_name": "Teglholmsgade", "osm_type": "tertiary", "osm_lanes": 2.0, "osm_oneway": null, "osm_distance": 0.61306881613554576, "osmid": 363633973.0 }, "geometry": { "type": "Point", "coordinates": [ 12.54444835, 55.65307746 ] } },
{ "type": "Feature", "properties": { "raw_name": "Hedegaardsvej", "AADT": 3700.0, "TR_pct_AADT": 3.8, "osm_name": "Hedegaardsvej", "osm_type": "residential", "osm_lanes": 2.0, "osm_oneway": null, "osm_distance": 0.039299344503156461, "osmid": 598637744.0 }, "geometry": { "type": "Point", "coordinates": [ 12.64184825, 55.64617266 ] } },
{ "type": "Feature", "properties": { "raw_name": "Oehlenschlægergade", "AADT": 1100.0, "TR_pct_AADT": 0.3, "osm_name": "Oehlenschlægersgade", "osm_type": "residential", "osm_lanes": null, "osm_oneway": "True", "osm_distance": 0.49573943129072701, "osmid": 27226024.0 }, "geometry": { "type": "Point", "coordinates": [ 12.54995853, 55.66881595 ] } },
{ "type": "Feature", "properties": { "raw_name": "Saxopgade", "AADT": 300.0, "TR_pct_AADT": 0.3, "osm_name": "Saxogade", "osm_type": "residential", "osm_lanes": null, "osm_oneway": "True", "osm_distance": 0.017310139500135116, "osmid": 8122594.0 }, "geometry": { "type": "Point", "coordinates": [ 12.55113666, 55.6688663 ] } },
{ "type": "Feature", "properties": { "raw_name": "Valdemarsgade", "AADT": 1000.0, "TR_pct_AADT": 0.3, "osm_name": "Valdemarsgade", "osm_type": "residential", "osm_lanes": null, "osm_oneway": "True", "osm_distance": 0.76930920662903191, "osmid": 27226075.0 }, "geometry": { "type": "Point", "coordinates": [ 12.54913654, 55.66769444 ] } },
{ "type": "Feature", "properties": { "raw_name": "Oehlenschlægergade", "AADT": 800.0, "TR_pct_AADT": 0.3, "osm_name": "Oehlenschlægersgade", "osm_type": "residential", "osm_lanes": null, "osm_oneway": "True", "osm_distance": 2.2768366341742965, "osmid": 27226029.0 }, "geometry": { "type": "Point", "coordinates": [ 12.55003164, 55.66797425 ] } },
{ "type": "Feature", "properties": { "raw_name": "Eskildsgade", "AADT": 500.0, "TR_pct_AADT": 0.7, "osm_name": "Eskildsgade", "osm_type": "residential", "osm_lanes": null, "osm_oneway": "True", "osm_distance": 0.20324358154971628, "osmid": 237108782.0 }, "geometry": { "type": "Point", "coordinates": [ 12.5558857, 55.67037315 ] } },
{ "type": "Feature", "properties": { "raw_name": "Viktoriagade", "AADT": 300.0, "TR_pct_AADT": 0.2, "osm_name": "Viktoriagade", "osm_type": "residential", "osm_lanes": null, "osm_oneway": "True", "osm_distance": 0.69825361968989641, "osmid": 27225986.0 }, "geometry": { "type": "Point", "coordinates": [ 12.55848744, 55.67117086 ] } },
{ "type": "Feature", "properties": { "raw_name": "Abel Cathrines Gade", "AADT": 300.0, "TR_pct_AADT": 0.4, "osm_name": "Abel Cathrines Gade", "osm_type": "residential", "osm_lanes": null, "osm_oneway": "True", "osm_distance": 0.62206892035166272, "osmid": 27225994.0 }, "geometry": { "type": "Point", "coordinates": [ 12.55955758, 55.67138884 ] } },
{ "type": "Feature", "properties": { "raw_name": "Colbjørnsensgade", "AADT": 900.0, "TR_pct_AADT": 0.7, "osm_name": "Colbjørnsensgade", "osm_type": "residential", "osm_lanes": 1.0, "osm_oneway": "True", "osm_distance": 1.8953583594308541, "osmid": 228296977.0 }, "geometry": { "type": "Point", "coordinates": [ 12.56200311, 55.67240477 ] } },
{ "type": "Feature", "properties": { "raw_name": "Valdemarsgade", "AADT": 700.0, "TR_pct_AADT": 0.6, "osm_name": "Valdemarsgade", "osm_type": "residential", "osm_lanes": null, "osm_oneway": "True", "osm_distance": 0.60840891755524107, "osmid": 27226023.0 }, "geometry": { "type": "Point", "coordinates": [ 12.54835226, 55.67199222 ] } },
{ "type": "Feature", "properties": { "raw_name": "Papirbroen", "AADT": 900.0, "TR_pct_AADT": 1.0, "osm_name": "Papirøen", "osm_type": "service", "osm_lanes": null, "osm_oneway": null, "osm_distance": 0.64860786794995651, "osmid": 1176875351.0 }, "geometry": { "type": "Point", "coordinates": [ 12.59908693, 55.67809939 ] } },
{ "type": "Feature", "properties": { "raw_name": "Tagensvej", "AADT": 18500.0, "TR_pct_AADT": 4.5, "osm_name": "Tagensvej", "osm_type": "tertiary", "osm_lanes": 2.0, "osm_oneway": "True", "osm_distance": 3.2094038924841475, "osmid": 233745875.0 }, "geometry": { "type": "Point", "coordinates": [ 12.5547994, 55.69884782 ] } },
{ "type": "Feature", "properties": { "raw_name": "Tagensvej", "AADT": 17200.0, "TR_pct_AADT": 4.0, "osm_name": "Tagensvej", "osm_type": "tertiary", "osm_lanes": 4.0, "osm_oneway": null, "osm_distance": 0.25418869565443653, "osmid": 30725912.0 }, "geometry": { "type": "Point", "coordinates": [ 12.54840671, 55.70294461 ] } },
{ "type": "Feature", "properties": { "raw_name": "Tagensvej", "AADT": 20000.0, "TR_pct_AADT": 3.7, "osm_name": "Tagensvej", "osm_type": "tertiary", "osm_lanes": 5.0, "osm_oneway": null, "osm_distance": 0.011045527375198243, "osmid": 1356542851.0 }, "geometry": { "type": "Point", "coordinates": [ 12.54765856, 55.70336338 ] } },
{ "type": "Feature", "properties": { "raw_name": "Tagensvej", "AADT": 22600.0, "TR_pct_AADT": 4.5, "osm_name": "Tagensvej", "osm_type": "tertiary", "osm_lanes": 3.0, "osm_oneway": "True", "osm_distance": 3.8003161580759079, "osmid": 27282837.0 }, "geometry": { "type": "Point", "coordinates": [ 12.54004534, 55.70799892 ] } },
{ "type": "Feature", "properties": { "raw_name": "Tagensvej", "AADT": 20600.0, "TR_pct_AADT": 3.0, "osm_name": "Tagensvej", "osm_type": "tertiary", "osm_lanes": 2.0, "osm_oneway": "True", "osm_distance": 4.4527286647992845, "osmid": 502199913.0 }, "geometry": { "type": "Point", "coordinates": [ 12.53941386, 55.70864451 ] } },
{ "type": "Feature", "properties": { "raw_name": "Tagensvej", "AADT": 7100.0, "TR_pct_AADT": 6.4, "osm_name": "Tagensvej", "osm_type": "tertiary", "osm_lanes": 2.0, "osm_oneway": "True", "osm_distance": 0.93331221136561959, "osmid": 1356542806.0 }, "geometry": { "type": "Point", "coordinates": [ 12.53461311, 55.71397771 ] } },
{ "type": "Feature", "properties": { "raw_name": "Kvæsthusgade", "AADT": 300.0, "TR_pct_AADT": null, "osm_name": "Kvæsthusgade", "osm_type": "residential", "osm_lanes": null, "osm_oneway": null, "osm_distance": 2.9125073957898331, "osmid": 3543679.0 }, "geometry": { "type": "Point", "coordinates": [ 12.59341202, 55.67960302 ] } },
{ "type": "Feature", "properties": { "raw_name": "Lygten", "AADT": 12300.0, "TR_pct_AADT": 4.0, "osm_name": "Lygten", "osm_type": "tertiary", "osm_lanes": 2.0, "osm_oneway": "True", "osm_distance": 1.3839964034546144, "osmid": 502199404.0 }, "geometry": { "type": "Point", "coordinates": [ 12.5392973, 55.70803159 ] } },
{ "type": "Feature", "properties": { "raw_name": "Ryesgade", "AADT": 1000.0, "TR_pct_AADT": 3.0, "osm_name": "Ryesgade", "osm_type": "residential", "osm_lanes": null, "osm_oneway": null, "osm_distance": 1.3668105801365709, "osmid": 27282699.0 }, "geometry": { "type": "Point", "coordinates": [ 12.57052304, 55.69441229 ] } },
{ "type": "Feature", "properties": { "raw_name": "Toldbodgade", "AADT": 9500.0, "TR_pct_AADT": null, "osm_name": "Toldbodgade", "osm_type": "residential", "osm_lanes": 2.0, "osm_oneway": "True", "osm_distance": 1.6990871622479837, "osmid": 87325157.0 }, "geometry": { "type": "Point", "coordinates": [ 12.59295289, 55.6815703 ] } },
{ "type": "Feature", "properties": { "raw_name": "Skelbækgade", "AADT": 3600.0, "TR_pct_AADT": 3.0, "osm_name": "Skelbækgade", "osm_type": "tertiary", "osm_lanes": 2.0, "osm_oneway": "False", "osm_distance": 0.1255389181840445, "osmid": 1702115.0 }, "geometry": { "type": "Point", "coordinates": [ 12.55727341, 55.66653717 ] } },
{ "type": "Feature", "properties": { "raw_name": "Vasbygade", "AADT": 43000.0, "TR_pct_AADT": 4.5, "osm_name": "Vasbygade", "osm_type": "primary", "osm_lanes": 2.0, "osm_oneway": "True", "osm_distance": 4.4109220384958094, "osmid": 416688419.0 }, "geometry": { "type": "Point", "coordinates": [ 12.54633312, 55.65613988 ] } },
{ "type": "Feature", "properties": { "raw_name": "Vendersgade", "AADT": 43000.0, "TR_pct_AADT": 4.5, "osm_name": "Vendersgade", "osm_type": "residential", "osm_lanes": null, "osm_oneway": "False", "osm_distance": 5.0838377730343653, "osmid": 1072940286.0 }, "geometry": { "type": "Point", "coordinates": [ 12.57015973, 55.68304582 ] } },
{ "type": "Feature", "properties": { "raw_name": "Trangravsvej", "AADT": 900.0, "TR_pct_AADT": 0.5, "osm_name": "Trangravsvej", "osm_type": "residential", "osm_lanes": 2.0, "osm_oneway": null, "osm_distance": 0.48588309040964045, "osmid": 622479716.0 }, "geometry": { "type": "Point", "coordinates": [ 12.59990031, 55.67778791 ] } }
]
}
