{
"type": "FeatureCollection",
"name": "Cardiff_AADT_2019",
"crs": { "type": "name", "properties": { "name": "urn:ogc:def:crs:OGC:1.3:CRS84" } },
"features": [
{ "type": "Feature", "properties": { "AADT": 20727, "TR_AADT": 338, "2W_AADT": 60, "raw_name": "A48", "raw_oneway": true, "raw_direction": "A4232 / A4050-->A4161", "raw_techno": "Estimated using previous year's AADF on this link", "osm_name": null, "osm_type": "service", "osm_lanes": null, "osm_oneway": null, "osm_distance": 3.8583260544677365, "osm_maxspeed": null, "osmid": 117615928.0 }, "geometry": { "type": "Point", "coordinates": [ -3.2682437, 51.467101 ] } },
{ "type": "Feature", "properties": { "AADT": 8091, "TR_AADT": 164, "2W_AADT": 40, "raw_name": "A4119", "raw_oneway": true, "raw_direction": "A4160-->Tudor Street", "raw_techno": "Estimated using previous year's AADF on this link", "osm_name": "Clare Road", "osm_type": "primary", "osm_lanes": 2.0, "osm_oneway": null, "osm_distance": 1.5349463738179974, "osm_maxspeed": 32.1868, "osmid": 4816796.0 }, "geometry": { "type": "Point", "coordinates": [ -3.1867542, 51.472451 ] } },
{ "type": "Feature", "properties": { "AADT": 28609, "TR_AADT": 321, "2W_AADT": 130, "raw_name": "A4160", "raw_oneway": true, "raw_direction": "A4234 Central Link-->A4161 Newport Rd", "raw_techno": "Estimated using previous year's AADF on this link", "osm_name": "Adam Street", "osm_type": "primary", "osm_lanes": 2.0, "osm_oneway": "True", "osm_distance": 2.9219009510169918, "osm_maxspeed": 48.2802, "osmid": 26434973.0 }, "geometry": { "type": "Point", "coordinates": [ -3.1673191, 51.479875 ] } },
{ "type": "Feature", "properties": { "AADT": 20813, "TR_AADT": 228, "2W_AADT": 98, "raw_name": "A48", "raw_oneway": true, "raw_direction": "A4161-->A4119", "raw_techno": "Estimated using previous year's AADF on this link", "osm_name": "Western Avenue", "osm_type": "residential", "osm_lanes": null, "osm_oneway": null, "osm_distance": 0.43094943470896924, "osm_maxspeed": null, "osmid": 50576276.0 }, "geometry": { "type": "Point", "coordinates": [ -3.2250867, 51.489815 ] } },
{ "type": "Feature", "properties": { "AADT": 7199, "TR_AADT": 40, "2W_AADT": 56, "raw_name": "A4054", "raw_oneway": true, "raw_direction": "A4119-->Pantmawr Rd", "raw_techno": "Estimated using previous year's AADF on this link", "osm_name": "Westbourne Road", "osm_type": "residential", "osm_lanes": null, "osm_oneway": null, "osm_distance": 1.7400398637907337, "osm_maxspeed": 32.1868, "osmid": 26286382.0 }, "geometry": { "type": "Point", "coordinates": [ -3.2282889, 51.512487 ] } },
{ "type": "Feature", "properties": { "AADT": 17675, "TR_AADT": 137, "2W_AADT": 118, "raw_name": "A4119", "raw_oneway": true, "raw_direction": "A48-->A4054", "raw_techno": "Estimated using previous year's AADF on this link", "osm_name": "Cardiff Road", "osm_type": "primary", "osm_lanes": 2.0, "osm_oneway": null, "osm_distance": 15.798360414541143, "osm_maxspeed": 32.1868, "osmid": 236870690.0 }, "geometry": { "type": "Point", "coordinates": [ -3.2207489, 51.494581 ] } },
{ "type": "Feature", "properties": { "AADT": 16420, "TR_AADT": 270, "2W_AADT": 45, "raw_name": "A4160", "raw_oneway": true, "raw_direction": "A4119-->A470", "raw_techno": "Estimated using previous year's AADF on this link", "osm_name": "Penarth Road", "osm_type": "primary", "osm_lanes": 2.0, "osm_oneway": "True", "osm_distance": 1.3724031332865241, "osm_maxspeed": 48.2802, "osmid": 46035613.0 }, "geometry": { "type": "Point", "coordinates": [ -3.1819971, 51.472229 ] } },
{ "type": "Feature", "properties": { "AADT": 41260, "TR_AADT": 669, "2W_AADT": 308, "raw_name": "A4161", "raw_oneway": true, "raw_direction": "A469-->A4232", "raw_techno": "Estimated using previous year's AADF on this link", "osm_name": "Newport Road", "osm_type": "primary", "osm_lanes": 3.0, "osm_oneway": "True", "osm_distance": 3.8685770374558253, "osm_maxspeed": 48.2802, "osmid": 1107089737.0 }, "geometry": { "type": "Point", "coordinates": [ -3.1432689, 51.495363 ] } },
{ "type": "Feature", "properties": { "AADT": 7878, "TR_AADT": 82, "2W_AADT": 37, "raw_name": "A4161", "raw_oneway": true, "raw_direction": "B4267-->A4119 Cathedral Rd", "raw_techno": "Estimated using previous year's AADF on this link", "osm_name": "Wellington Street", "osm_type": "primary", "osm_lanes": 1.0, "osm_oneway": "True", "osm_distance": 2.4678220582198076, "osm_maxspeed": 48.2802, "osmid": 138656693.0 }, "geometry": { "type": "Point", "coordinates": [ -3.1945946, 51.480464 ] } },
{ "type": "Feature", "properties": { "AADT": 49191, "TR_AADT": 850, "2W_AADT": 221, "raw_name": "A48", "raw_oneway": true, "raw_direction": "A469 / A470-->A4161", "raw_techno": "Manual count", "osm_name": "Eastern Avenue", "osm_type": "trunk", "osm_lanes": 2.0, "osm_oneway": "True", "osm_distance": 2.4408761252111062, "osm_maxspeed": 80.467, "osmid": 26435277.0 }, "geometry": { "type": "Point", "coordinates": [ -3.1539559, 51.502137 ] } },
{ "type": "Feature", "properties": { "AADT": 18773, "TR_AADT": 271, "2W_AADT": 172, "raw_name": "A470", "raw_oneway": true, "raw_direction": "A4161 Boulevard de Nantes-->Colum Rd", "raw_techno": "Estimated using previous year's AADF on this link", "osm_name": "North Road", "osm_type": "primary", "osm_lanes": 4.0, "osm_oneway": "False", "osm_distance": 0.07786087404163515, "osm_maxspeed": 48.2802, "osmid": 932233172.0 }, "geometry": { "type": "Point", "coordinates": [ -3.1832167, 51.485974 ] } },
{ "type": "Feature", "properties": { "AADT": 77658, "TR_AADT": 3163, "2W_AADT": 358, "raw_name": "A48", "raw_oneway": true, "raw_direction": "A4232-->A48M jn29a", "raw_techno": "Estimated using previous year's AADF on this link", "osm_name": null, "osm_type": "trunk_link", "osm_lanes": 2.0, "osm_oneway": "True", "osm_distance": 6.3421756980926274, "osm_maxspeed": null, "osmid": 4440690.0 }, "geometry": { "type": "Point", "coordinates": [ -3.1158411, 51.53074 ] } },
{ "type": "Feature", "properties": { "AADT": 3103, "TR_AADT": 45, "2W_AADT": 28, "raw_name": "A4054", "raw_oneway": true, "raw_direction": "M4/A470 roundabout-->B4262 roundabout", "raw_techno": "Manual count", "osm_name": "Merthyr Road", "osm_type": "primary", "osm_lanes": 2.0, "osm_oneway": "False", "osm_distance": 7.3179869686863857, "osm_maxspeed": null, "osmid": 11011486.0 }, "geometry": { "type": "Point", "coordinates": [ -3.2469324, 51.530274 ] } },
{ "type": "Feature", "properties": { "AADT": 16088, "TR_AADT": 97, "2W_AADT": 46, "raw_name": "A4119", "raw_oneway": true, "raw_direction": "A4054-->B4262 Heol Isaf", "raw_techno": "Estimated using previous year's AADF on this link", "osm_name": "Llantrisant Road", "osm_type": "primary", "osm_lanes": 2.0, "osm_oneway": null, "osm_distance": 9.3752719871139814, "osm_maxspeed": null, "osmid": 102677853.0 }, "geometry": { "type": "Point", "coordinates": [ -3.2270138, 51.497214 ] } },
{ "type": "Feature", "properties": { "AADT": 7013, "TR_AADT": 79, "2W_AADT": 30, "raw_name": "A4119", "raw_oneway": true, "raw_direction": "A4232-->A4160", "raw_techno": "Estimated using previous year's AADF on this link", "osm_name": "Corporation Road", "osm_type": "primary", "osm_lanes": 2.0, "osm_oneway": "False", "osm_distance": 8.0853797524041902, "osm_maxspeed": 32.1868, "osmid": 41772441.0 }, "geometry": { "type": "Point", "coordinates": [ -3.1818878, 51.468004 ] } },
{ "type": "Feature", "properties": { "AADT": 55095, "TR_AADT": 3411, "2W_AADT": 223, "raw_name": "A4161", "raw_oneway": true, "raw_direction": "A4232-->A48", "raw_techno": "Estimated using previous year's AADF on this link", "osm_name": "Southern Way", "osm_type": "primary", "osm_lanes": 2.0, "osm_oneway": "True", "osm_distance": 0.049413208737460836, "osm_maxspeed": 80.467, "osmid": 107039074.0 }, "geometry": { "type": "Point", "coordinates": [ -3.1433327, 51.505972 ] } },
{ "type": "Feature", "properties": { "AADT": 23633, "TR_AADT": 332, "2W_AADT": 317, "raw_name": "A4161", "raw_oneway": true, "raw_direction": "A4119-->Heol Fawr", "raw_techno": "Manual count", "osm_name": "Castle Street", "osm_type": "primary", "osm_lanes": 2.0, "osm_oneway": "False", "osm_distance": 2.1691243853774616, "osm_maxspeed": 32.1868, "osmid": 778981940.0 }, "geometry": { "type": "Point", "coordinates": [ -3.1822249, 51.481039 ] } },
{ "type": "Feature", "properties": { "AADT": 36796, "TR_AADT": 330, "2W_AADT": 305, "raw_name": "A470", "raw_oneway": true, "raw_direction": "Colum Rd-->A48 Eastern Avenue/A469 Whitchurch Rd", "raw_techno": "Estimated using previous year's AADF on this link", "osm_name": "North Road", "osm_type": "primary", "osm_lanes": 3.0, "osm_oneway": null, "osm_distance": 6.6913864744674791, "osm_maxspeed": 48.2802, "osmid": 26435409.0 }, "geometry": { "type": "Point", "coordinates": [ -3.1972199, 51.50262 ] } },
{ "type": "Feature", "properties": { "AADT": 16217, "TR_AADT": 99, "2W_AADT": 77, "raw_name": "A469", "raw_oneway": true, "raw_direction": "A4161-->A48", "raw_techno": "Estimated using previous year's AADF on this link", "osm_name": "Whitchurch Road", "osm_type": "primary", "osm_lanes": 2.0, "osm_oneway": null, "osm_distance": 7.640312007341489, "osm_maxspeed": 32.1868, "osmid": 5027430.0 }, "geometry": { "type": "Point", "coordinates": [ -3.1826459, 51.49731 ] } },
{ "type": "Feature", "properties": { "AADT": 15387, "TR_AADT": 302, "2W_AADT": 115, "raw_name": "A4160", "raw_oneway": true, "raw_direction": "LA Boundary-->A4119", "raw_techno": "Estimated using previous year's AADF on this link", "osm_name": null, "osm_type": "service", "osm_lanes": null, "osm_oneway": null, "osm_distance": 5.3582138734664904, "osm_maxspeed": null, "osmid": 807067778.0 }, "geometry": { "type": "Point", "coordinates": [ -3.1900848, 51.467651 ] } },
{ "type": "Feature", "properties": { "AADT": 23754, "TR_AADT": 460, "2W_AADT": 166, "raw_name": "A4161", "raw_oneway": true, "raw_direction": "A4160 Fitzalan Place-->A469 Albany Rd", "raw_techno": "Estimated using previous year's AADF on this link", "osm_name": "Newport Road", "osm_type": "primary", "osm_lanes": 3.0, "osm_oneway": "True", "osm_distance": 12.76811517140192, "osm_maxspeed": 48.2802, "osmid": 863884616.0 }, "geometry": { "type": "Point", "coordinates": [ -3.1611146, 51.486195 ] } },
{ "type": "Feature", "properties": { "AADT": 63879, "TR_AADT": 2121, "2W_AADT": 235, "raw_name": "A4232", "raw_oneway": true, "raw_direction": "A48/A4050-->B4267 mid-junction", "raw_techno": "Manual count", "osm_name": null, "osm_type": "primary", "osm_lanes": 2.0, "osm_oneway": "True", "osm_distance": 2.238538258081368, "osm_maxspeed": 112.6538, "osmid": 44375806.0 }, "geometry": { "type": "Point", "coordinates": [ -3.2578263, 51.465739 ] } },
{ "type": "Feature", "properties": { "AADT": 91736, "TR_AADT": 3734, "2W_AADT": 559, "raw_name": "A48", "raw_oneway": true, "raw_direction": "A4161-->A4232", "raw_techno": "Estimated using previous year's AADF on this link", "osm_name": "Eastern Avenue", "osm_type": "trunk", "osm_lanes": 3.0, "osm_oneway": "True", "osm_distance": 22.96415147194217, "osm_maxspeed": 80.467, "osmid": 963009820.0 }, "geometry": { "type": "Point", "coordinates": [ -3.143794, 51.513458 ] } },
{ "type": "Feature", "properties": { "AADT": 46828, "TR_AADT": 430, "2W_AADT": 235, "raw_name": "A48", "raw_oneway": true, "raw_direction": "A4119-->A469 / A470", "raw_techno": "Estimated using previous year's AADF on this link", "osm_name": "Western Avenue", "osm_type": "trunk", "osm_lanes": 3.0, "osm_oneway": "True", "osm_distance": 10.368818529214458, "osm_maxspeed": 32.1868, "osmid": 1314024406.0 }, "geometry": { "type": "Point", "coordinates": [ -3.2111688, 51.495643 ] } },
{ "type": "Feature", "properties": { "AADT": 33082, "TR_AADT": 499, "2W_AADT": 149, "raw_name": "A470", "raw_oneway": true, "raw_direction": "A48 overpass-->Pantmawr Rd", "raw_techno": "Estimated using previous year's AADF on this link", "osm_name": "Manor Way", "osm_type": "trunk", "osm_lanes": 2.0, "osm_oneway": "True", "osm_distance": 7.7846285973822562, "osm_maxspeed": 48.2802, "osmid": 1258642992.0 }, "geometry": { "type": "Point", "coordinates": [ -3.2150566, 51.516158 ] } },
{ "type": "Feature", "properties": { "AADT": 13611, "TR_AADT": 328, "2W_AADT": 128, "raw_name": "A469", "raw_oneway": true, "raw_direction": "A48-->B4562", "raw_techno": "Estimated using previous year's AADF on this link", "osm_name": "Caerphilly Road", "osm_type": "primary", "osm_lanes": 2.0, "osm_oneway": null, "osm_distance": 7.3159925530696848, "osm_maxspeed": 32.1868, "osmid": 45735585.0 }, "geometry": { "type": "Point", "coordinates": [ -3.1998353, 51.512781 ] } },
{ "type": "Feature", "properties": { "AADT": 102312, "TR_AADT": 7126, "2W_AADT": 331, "raw_name": "M4", "raw_oneway": true, "raw_direction": "33-->32", "raw_techno": "Estimated using previous year's AADF on this link", "osm_name": null, "osm_type": "motorway", "osm_lanes": 3.0, "osm_oneway": "True", "osm_distance": 4.6179008965185524, "osm_maxspeed": 112.6538, "osmid": 135808101.0 }, "geometry": { "type": "Point", "coordinates": [ -3.2656493, 51.523671 ] } },
{ "type": "Feature", "properties": { "AADT": 16021, "TR_AADT": 138, "2W_AADT": 80, "raw_name": "A4119", "raw_oneway": true, "raw_direction": "Tudor St-->A4161 Cowbridge Road East", "raw_techno": "Estimated using previous year's AADF on this link", "osm_name": "Clare Street", "osm_type": "primary", "osm_lanes": null, "osm_oneway": null, "osm_distance": 1.1995322941417121, "osm_maxspeed": 32.1868, "osmid": 4816798.0 }, "geometry": { "type": "Point", "coordinates": [ -3.1886451, 51.478726 ] } },
{ "type": "Feature", "properties": { "AADT": 23852, "TR_AADT": 115, "2W_AADT": 124, "raw_name": "A4119", "raw_oneway": true, "raw_direction": "A4161-->A48", "raw_techno": "Estimated using previous year's AADF on this link", "osm_name": "Cardiff Road", "osm_type": "primary", "osm_lanes": 2.0, "osm_oneway": "False", "osm_distance": 15.280994870310339, "osm_maxspeed": 32.1868, "osmid": 138220685.0 }, "geometry": { "type": "Point", "coordinates": [ -3.209156, 51.489261 ] } },
{ "type": "Feature", "properties": { "AADT": 22045, "TR_AADT": 151, "2W_AADT": 133, "raw_name": "A4161", "raw_oneway": true, "raw_direction": "A48-->B4267", "raw_techno": "Estimated using previous year's AADF on this link", "osm_name": "Cowbridge Road East", "osm_type": "primary", "osm_lanes": 4.0, "osm_oneway": null, "osm_distance": 1.4627282988196311, "osm_maxspeed": 32.1868, "osmid": 376830527.0 }, "geometry": { "type": "Point", "coordinates": [ -3.2262392, 51.484453 ] } },
{ "type": "Feature", "properties": { "AADT": 27682, "TR_AADT": 270, "2W_AADT": 193, "raw_name": "A4161", "raw_oneway": true, "raw_direction": "Heol Fawr-->A470", "raw_techno": "Estimated using previous year's AADF on this link", "osm_name": "Kingsway", "osm_type": "primary", "osm_lanes": null, "osm_oneway": "True", "osm_distance": 17.828413576124543, "osm_maxspeed": null, "osmid": 26435286.0 }, "geometry": { "type": "Point", "coordinates": [ -3.1790923, 51.482419 ] } },
{ "type": "Feature", "properties": { "AADT": 23680, "TR_AADT": 302, "2W_AADT": 147, "raw_name": "A4161", "raw_oneway": true, "raw_direction": "A470-->A4160", "raw_techno": "Estimated using previous year's AADF on this link", "osm_name": "Stuttgarter Strasse", "osm_type": "primary", "osm_lanes": 2.0, "osm_oneway": "True", "osm_distance": 0.5213698450442199, "osm_maxspeed": 48.2802, "osmid": 26434503.0 }, "geometry": { "type": "Point", "coordinates": [ -3.1738206, 51.48463 ] } },
{ "type": "Feature", "properties": { "AADT": 26672, "TR_AADT": 2805, "2W_AADT": 121, "raw_name": "A4232", "raw_oneway": true, "raw_direction": "end-->A4161", "raw_techno": "Estimated using previous year's AADF on this link", "osm_name": "Southern Way", "osm_type": "primary", "osm_lanes": 2.0, "osm_oneway": "False", "osm_distance": 6.0317151406921194, "osm_maxspeed": 64.3736, "osmid": 5015644.0 }, "geometry": { "type": "Point", "coordinates": [ -3.1330281, 51.496001 ] } },
{ "type": "Feature", "properties": { "AADT": 18039, "TR_AADT": 242, "2W_AADT": 166, "raw_name": "A48", "raw_oneway": true, "raw_direction": "A48M-->LA Boundary", "raw_techno": "Estimated using previous year's AADF on this link", "osm_name": "Newport Road", "osm_type": "primary", "osm_lanes": 2.0, "osm_oneway": "True", "osm_distance": 4.1834616402811733, "osm_maxspeed": 48.2802, "osmid": 1205922768.0 }, "geometry": { "type": "Point", "coordinates": [ -3.0970596, 51.53267 ] } },
{ "type": "Feature", "properties": { "AADT": 47203, "TR_AADT": 3222, "2W_AADT": 184, "raw_name": "A48(M)", "raw_oneway": true, "raw_direction": "29-->LA Boundary", "raw_techno": "Estimated using previous year's AADF on this link", "osm_name": null, "osm_type": "motorway", "osm_lanes": 2.0, "osm_oneway": "True", "osm_distance": 1.0040902121981499, "osm_maxspeed": 112.6538, "osmid": 4813064.0 }, "geometry": { "type": "Point", "coordinates": [ -3.1006956, 51.533985 ] } },
{ "type": "Feature", "properties": { "AADT": 78797, "TR_AADT": 7362, "2W_AADT": 307, "raw_name": "M4", "raw_oneway": true, "raw_direction": "30-->LA Boundary", "raw_techno": "Dependent on a neighbouring counted link", "osm_name": null, "osm_type": "motorway", "osm_lanes": 3.0, "osm_oneway": "True", "osm_distance": 0.53044599947848414, "osm_maxspeed": 112.6538, "osmid": 135807537.0 }, "geometry": { "type": "Point", "coordinates": [ -3.1188985, 51.541366 ] } },
{ "type": "Feature", "properties": { "AADT": 6454, "TR_AADT": 51, "2W_AADT": 20, "raw_name": "A4054", "raw_oneway": true, "raw_direction": "A470-->LA Boundary", "raw_techno": "Estimated using previous year's AADF on this link", "osm_name": null, "osm_type": "trunk", "osm_lanes": 2.0, "osm_oneway": "True", "osm_distance": 2.9329623932163091, "osm_maxspeed": 80.467, "osmid": 1313037724.0 }, "geometry": { "type": "Point", "coordinates": [ -3.2600098, 51.537121 ] } },
{ "type": "Feature", "properties": { "AADT": 71614, "TR_AADT": 2622, "2W_AADT": 295, "raw_name": "A470", "raw_oneway": true, "raw_direction": "A4054-->LA Boundary", "raw_techno": "Dependent on a neighbouring counted link", "osm_name": null, "osm_type": "trunk", "osm_lanes": 2.0, "osm_oneway": "True", "osm_distance": 2.9329623932163091, "osm_maxspeed": 80.467, "osmid": 1313037724.0 }, "geometry": { "type": "Point", "coordinates": [ -3.25981, 51.537195 ] } },
{ "type": "Feature", "properties": { "AADT": 63879, "TR_AADT": 2121, "2W_AADT": 235, "raw_name": "A4232", "raw_oneway": true, "raw_direction": "B4267-->LA Boundary", "raw_techno": "Dependent on a neighbouring counted link", "osm_name": "Grangetown Link", "osm_type": "primary", "osm_lanes": 2.0, "osm_oneway": "True", "osm_distance": 5.0019614234689476, "osm_maxspeed": 112.6538, "osmid": 43317013.0 }, "geometry": { "type": "Point", "coordinates": [ -3.2055887, 51.465964 ] } },
{ "type": "Feature", "properties": { "AADT": 63879, "TR_AADT": 2121, "2W_AADT": 235, "raw_name": "A4232", "raw_oneway": true, "raw_direction": "LA Boundary-->LA Boundary", "raw_techno": "Dependent on a neighbouring counted link", "osm_name": "Grangetown Link", "osm_type": "primary", "osm_lanes": 2.0, "osm_oneway": "True", "osm_distance": 4.6055740978914859, "osm_maxspeed": 112.6538, "osmid": 26961658.0 }, "geometry": { "type": "Point", "coordinates": [ -3.2019834, 51.460246 ] } },
{ "type": "Feature", "properties": { "AADT": 63879, "TR_AADT": 2121, "2W_AADT": 235, "raw_name": "A4232", "raw_oneway": true, "raw_direction": "LA Boundary-->A4055", "raw_techno": "Dependent on a neighbouring counted link", "osm_name": null, "osm_type": "primary_link", "osm_lanes": null, "osm_oneway": "True", "osm_distance": 1.7083773784407814, "osm_maxspeed": 112.6538, "osmid": 4822606.0 }, "geometry": { "type": "Point", "coordinates": [ -3.1887187, 51.453862 ] } },
{ "type": "Feature", "properties": { "AADT": 13559, "TR_AADT": 193, "2W_AADT": 53, "raw_name": "A4160", "raw_oneway": true, "raw_direction": "Herbert St-->Bute Terrace", "raw_techno": "Estimated using previous year's AADF on this link", "osm_name": "Bute Street", "osm_type": "primary", "osm_lanes": 2.0, "osm_oneway": null, "osm_distance": 7.9622138581107995, "osm_maxspeed": 32.1868, "osmid": 4817226.0 }, "geometry": { "type": "Point", "coordinates": [ -3.1737522, 51.476358 ] } },
{ "type": "Feature", "properties": { "AADT": 9716, "TR_AADT": 67, "2W_AADT": 72, "raw_name": "A4119", "raw_oneway": true, "raw_direction": "B4262 Heol Isaf-->LA Boundary", "raw_techno": "Estimated using previous year's AADF on this link", "osm_name": "Llantrisant Road", "osm_type": "primary", "osm_lanes": 2.0, "osm_oneway": null, "osm_distance": 3.6413051579173676, "osm_maxspeed": 96.5604, "osmid": 103953537.0 }, "geometry": { "type": "Point", "coordinates": [ -3.2982992, 51.511552 ] } },
{ "type": "Feature", "properties": { "AADT": 6911, "TR_AADT": 39, "2W_AADT": 54, "raw_name": "A4054", "raw_oneway": true, "raw_direction": "Pantmawr Rd-->M4", "raw_techno": "Estimated from nearby links", "osm_name": "Pendwyallt Road", "osm_type": "primary", "osm_lanes": 2.0, "osm_oneway": null, "osm_distance": 4.4348767899572099, "osm_maxspeed": 32.1868, "osmid": 963438597.0 }, "geometry": { "type": "Point", "coordinates": [ -3.2372375, 51.523632 ] } },
{ "type": "Feature", "properties": { "AADT": 26388, "TR_AADT": 926, "2W_AADT": 91, "raw_name": "A4232", "raw_oneway": true, "raw_direction": "A48-->road to Llanedeyrn", "raw_techno": "Estimated from nearby links", "osm_name": "Pentwyn Link Road", "osm_type": "primary", "osm_lanes": 2.0, "osm_oneway": "True", "osm_distance": 3.8180825542648185, "osm_maxspeed": 64.3736, "osmid": 4440889.0 }, "geometry": { "type": "Point", "coordinates": [ -3.1296123, 51.531462 ] } },
{ "type": "Feature", "properties": { "AADT": 15714, "TR_AADT": 105, "2W_AADT": 68, "raw_name": "A469", "raw_oneway": true, "raw_direction": "LA Boundary-->Excalibur Drive", "raw_techno": "Estimated using previous year's AADF on this link", "osm_name": "Thornhill Road", "osm_type": "primary", "osm_lanes": 2.0, "osm_oneway": "False", "osm_distance": 3.8952050251679382, "osm_maxspeed": 64.3736, "osmid": 118579163.0 }, "geometry": { "type": "Point", "coordinates": [ -3.2084772, 51.547985 ] } },
{ "type": "Feature", "properties": { "AADT": 4477, "TR_AADT": 101, "2W_AADT": 2, "raw_name": "A470", "raw_oneway": true, "raw_direction": "A4161-->A4160", "raw_techno": "Estimated using previous year's AADF on this link", "osm_name": "Guildhall Place", "osm_type": "unclassified", "osm_lanes": null, "osm_oneway": "True", "osm_distance": 12.586011356854035, "osm_maxspeed": null, "osmid": 24535853.0 }, "geometry": { "type": "Point", "coordinates": [ -3.1767292, 51.476778 ] } },
{ "type": "Feature", "properties": { "AADT": 2902, "TR_AADT": 57, "2W_AADT": 7, "raw_name": "A470", "raw_oneway": true, "raw_direction": "Hemingway Rd/Heol Hemingway-->Bute St", "raw_techno": "Estimated using previous year's AADF on this link", "osm_name": "Lloyd George Avenue", "osm_type": "primary", "osm_lanes": 2.0, "osm_oneway": "True", "osm_distance": 5.5819157678133404, "osm_maxspeed": 32.1868, "osmid": 924981017.0 }, "geometry": { "type": "Point", "coordinates": [ -3.1675246, 51.469317 ] } },
{ "type": "Feature", "properties": { "AADT": 71821, "TR_AADT": 2998, "2W_AADT": 149, "raw_name": "A4232", "raw_oneway": true, "raw_direction": "M4 Junction 33-->A48 / A4050", "raw_techno": "Estimated using previous year's AADF on this link", "osm_name": null, "osm_type": "trunk", "osm_lanes": 2.0, "osm_oneway": "True", "osm_distance": 0.016442648107541778, "osm_maxspeed": 112.6538, "osmid": 4822504.0 }, "geometry": { "type": "Point", "coordinates": [ -3.2804409, 51.475961 ] } },
{ "type": "Feature", "properties": { "AADT": 52221, "TR_AADT": 1394, "2W_AADT": 273, "raw_name": "A4232", "raw_oneway": true, "raw_direction": null, "raw_techno": "Estimated using previous year's AADF on this link", "osm_name": "Butetown Link", "osm_type": "primary", "osm_lanes": 2.0, "osm_oneway": "True", "osm_distance": 3.686758631436553, "osm_maxspeed": 112.6538, "osmid": 43315960.0 }, "geometry": { "type": "Point", "coordinates": [ -3.1749471, 51.45954 ] } },
{ "type": "Feature", "properties": { "AADT": 46928, "TR_AADT": 1734, "2W_AADT": 111, "raw_name": "A4232", "raw_oneway": true, "raw_direction": "A470-->A4234", "raw_techno": "Manual count", "osm_name": "Butetown Link", "osm_type": "primary", "osm_lanes": 2.0, "osm_oneway": "True", "osm_distance": 4.259022084221967, "osm_maxspeed": 80.467, "osmid": 4825821.0 }, "geometry": { "type": "Point", "coordinates": [ -3.1577826, 51.467804 ] } },
{ "type": "Feature", "properties": { "AADT": 45518, "TR_AADT": 1009, "2W_AADT": 166, "raw_name": "A4234", "raw_oneway": true, "raw_direction": "A4232-->A4160", "raw_techno": "Estimated using previous year's AADF on this link", "osm_name": null, "osm_type": "primary", "osm_lanes": 2.0, "osm_oneway": "True", "osm_distance": 5.5141647932478159, "osm_maxspeed": 80.467, "osmid": 4989502.0 }, "geometry": { "type": "Point", "coordinates": [ -3.1608818, 51.471361 ] } },
{ "type": "Feature", "properties": { "AADT": 20988, "TR_AADT": 1154, "2W_AADT": 104, "raw_name": "A4232", "raw_oneway": true, "raw_direction": "Ocean Way - Rover Way roundabout-->A4234", "raw_techno": "Manual count", "osm_name": "Ewart Parkinson Road", "osm_type": "primary", "osm_lanes": 2.0, "osm_oneway": "True", "osm_distance": 4.5046786438971509, "osm_maxspeed": 80.467, "osmid": 412785829.0 }, "geometry": { "type": "Point", "coordinates": [ -3.1544793, 51.468115 ] } },
{ "type": "Feature", "properties": { "AADT": 75714, "TR_AADT": 2651, "2W_AADT": 267, "raw_name": "A470", "raw_oneway": true, "raw_direction": "M4-->A4054", "raw_techno": "Manual count", "osm_name": null, "osm_type": "trunk", "osm_lanes": 2.0, "osm_oneway": "True", "osm_distance": 0.23272211691802869, "osm_maxspeed": 80.467, "osmid": 547765112.0 }, "geometry": { "type": "Point", "coordinates": [ -3.2524091, 51.530215 ] } },
{ "type": "Feature", "properties": { "AADT": 31759, "TR_AADT": 479, "2W_AADT": 143, "raw_name": "A470", "raw_oneway": true, "raw_direction": "Pantmawr Rd-->M4", "raw_techno": "Estimated from nearby links", "osm_name": "Northern Avenue", "osm_type": "trunk", "osm_lanes": 2.0, "osm_oneway": "True", "osm_distance": 2.3463553924953482, "osm_maxspeed": 64.3736, "osmid": 1106993925.0 }, "geometry": { "type": "Point", "coordinates": [ -3.2323744, 51.525032 ] } },
{ "type": "Feature", "properties": { "AADT": 27487, "TR_AADT": 965, "2W_AADT": 95, "raw_name": "A4232", "raw_oneway": true, "raw_direction": "A48-->M4 Junction 30", "raw_techno": "Estimated using previous year's AADF on this link", "osm_name": "Pentwyn Link Road", "osm_type": "primary", "osm_lanes": 2.0, "osm_oneway": "True", "osm_distance": 0.89752451306603953, "osm_maxspeed": 64.3736, "osmid": 25653355.0 }, "geometry": { "type": "Point", "coordinates": [ -3.1274395, 51.536878 ] } },
{ "type": "Feature", "properties": { "AADT": 91078, "TR_AADT": 7749, "2W_AADT": 244, "raw_name": "M4", "raw_oneway": true, "raw_direction": "32-->30", "raw_techno": "Estimated using previous year's AADF on this link", "osm_name": null, "osm_type": "motorway", "osm_lanes": 3.0, "osm_oneway": "True", "osm_distance": 7.9955631679564805, "osm_maxspeed": 112.6538, "osmid": 2954565.0 }, "geometry": { "type": "Point", "coordinates": [ -3.2189999, 51.534299 ] } },
{ "type": "Feature", "properties": { "AADT": 17026, "TR_AADT": 128, "2W_AADT": 88, "raw_name": "A469", "raw_oneway": true, "raw_direction": "B4562-->Excalibur Drive", "raw_techno": "Estimated using previous year's AADF on this link", "osm_name": null, "osm_type": "service", "osm_lanes": null, "osm_oneway": null, "osm_distance": 2.3425495604236177, "osm_maxspeed": null, "osmid": 1095372686.0 }, "geometry": { "type": "Point", "coordinates": [ -3.2027164, 51.525871 ] } },
{ "type": "Feature", "properties": { "AADT": 63879, "TR_AADT": 2121, "2W_AADT": 235, "raw_name": "A4232", "raw_oneway": true, "raw_direction": "LA Boundary-->LA Boundary", "raw_techno": "Dependent on a neighbouring counted link", "osm_name": "Grangetown Link", "osm_type": "primary", "osm_lanes": 2.0, "osm_oneway": "True", "osm_distance": 0.25730193371157051, "osm_maxspeed": 112.6538, "osmid": 26961650.0 }, "geometry": { "type": "Point", "coordinates": [ -3.2018017, 51.458809 ] } },
{ "type": "Feature", "properties": { "AADT": 17770, "TR_AADT": 279, "2W_AADT": 145, "raw_name": "A4160", "raw_oneway": true, "raw_direction": "A470-->A4234", "raw_techno": "Estimated using previous year's AADF on this link", "osm_name": "Bute Terrace", "osm_type": "primary", "osm_lanes": 2.0, "osm_oneway": "True", "osm_distance": 0.98549230397228749, "osm_maxspeed": 48.2802, "osmid": 227827796.0 }, "geometry": { "type": "Point", "coordinates": [ -3.1723534, 51.477964 ] } },
{ "type": "Feature", "properties": { "AADT": 33418, "TR_AADT": 663, "2W_AADT": 85, "raw_name": "A4055", "raw_oneway": true, "raw_direction": "LA Boundary-->A4232", "raw_techno": "Estimated using previous year's AADF on this link", "osm_name": "Cogan Spur", "osm_type": "primary", "osm_lanes": 2.0, "osm_oneway": "True", "osm_distance": 7.8394996993846133, "osm_maxspeed": 64.3736, "osmid": 84842226.0 }, "geometry": { "type": "Point", "coordinates": [ -3.1851641, 51.449987 ] } },
{ "type": "Feature", "properties": { "AADT": 11790, "TR_AADT": 95, "2W_AADT": 59, "raw_name": "B4487", "raw_oneway": true, "raw_direction": null, "raw_techno": "Estimated using previous year's AADF on this link", "osm_name": "Newport Road", "osm_type": "secondary", "osm_lanes": null, "osm_oneway": "False", "osm_distance": 1.752249511950462, "osm_maxspeed": 32.1868, "osmid": 193003653.0 }, "geometry": { "type": "Point", "coordinates": [ -3.1189203, 51.517564 ] } },
{ "type": "Feature", "properties": { "AADT": 7504, "TR_AADT": 33, "2W_AADT": 13, "raw_name": "C", "raw_oneway": true, "raw_direction": null, "raw_techno": "Estimated using previous year's AADF on this link", "osm_name": "Penlline Road", "osm_type": "tertiary", "osm_lanes": 2.0, "osm_oneway": "False", "osm_distance": 0.0099856782987971897, "osm_maxspeed": 32.1868, "osmid": 24298397.0 }, "geometry": { "type": "Point", "coordinates": [ -3.223594, 51.515287 ] } },
{ "type": "Feature", "properties": { "AADT": 20119, "TR_AADT": 366, "2W_AADT": 87, "raw_name": "U", "raw_oneway": true, "raw_direction": null, "raw_techno": "Estimated using previous year's AADF on this link", "osm_name": "East Tyndall Street", "osm_type": "tertiary", "osm_lanes": null, "osm_oneway": "True", "osm_distance": 0.8448389791880182, "osm_maxspeed": null, "osmid": 42566209.0 }, "geometry": { "type": "Point", "coordinates": [ -3.1627735, 51.477807 ] } },
{ "type": "Feature", "properties": { "AADT": 7473, "TR_AADT": 36, "2W_AADT": 31, "raw_name": "U", "raw_oneway": true, "raw_direction": null, "raw_techno": "Estimated using previous year's AADF on this link", "osm_name": "Grand Avenue", "osm_type": "tertiary", "osm_lanes": null, "osm_oneway": "True", "osm_distance": 0.73435380286510155, "osm_maxspeed": null, "osmid": 117058050.0 }, "geometry": { "type": "Point", "coordinates": [ -3.2616323, 51.475328 ] } },
{ "type": "Feature", "properties": { "AADT": 5035, "TR_AADT": 20, "2W_AADT": 22, "raw_name": "U", "raw_oneway": true, "raw_direction": null, "raw_techno": "Estimated using previous year's AADF on this link", "osm_name": "Llanrumney Avenue", "osm_type": "tertiary", "osm_lanes": null, "osm_oneway": null, "osm_distance": 1.7719084285217368, "osm_maxspeed": null, "osmid": 43347604.0 }, "geometry": { "type": "Point", "coordinates": [ -3.1286942, 51.513577 ] } },
{ "type": "Feature", "properties": { "AADT": 234, "TR_AADT": 2, "2W_AADT": 4, "raw_name": "U", "raw_oneway": true, "raw_direction": null, "raw_techno": "Estimated using previous year's AADF on this link", "osm_name": "Summerfield Place", "osm_type": "residential", "osm_lanes": null, "osm_oneway": null, "osm_distance": 0.44616329626521856, "osm_maxspeed": 32.1868, "osmid": 67735753.0 }, "geometry": { "type": "Point", "coordinates": [ -3.2020852, 51.513945 ] } },
{ "type": "Feature", "properties": { "AADT": 743, "TR_AADT": 11, "2W_AADT": 4, "raw_name": "U", "raw_oneway": true, "raw_direction": null, "raw_techno": "Estimated using previous year's AADF on this link", "osm_name": "Ty Mawr Road", "osm_type": "residential", "osm_lanes": null, "osm_oneway": null, "osm_distance": 0.67281625777890763, "osm_maxspeed": null, "osmid": 11012490.0 }, "geometry": { "type": "Point", "coordinates": [ -3.2299104, 51.507416 ] } },
{ "type": "Feature", "properties": { "AADT": 11577, "TR_AADT": 102, "2W_AADT": 124, "raw_name": "U", "raw_oneway": true, "raw_direction": null, "raw_techno": "Estimated using previous year's AADF on this link", "osm_name": "Sloper Road", "osm_type": "tertiary", "osm_lanes": 2.0, "osm_oneway": null, "osm_distance": 0.31499823345137068, "osm_maxspeed": 32.1868, "osmid": 863878631.0 }, "geometry": { "type": "Point", "coordinates": [ -3.2001975, 51.473375 ] } },
{ "type": "Feature", "properties": { "AADT": 224, "TR_AADT": 2, "2W_AADT": 7, "raw_name": "U", "raw_oneway": true, "raw_direction": null, "raw_techno": "Estimated using previous year's AADF on this link", "osm_name": "Graig Road", "osm_type": "unclassified", "osm_lanes": 2.0, "osm_oneway": "False", "osm_distance": 2.2268642667102534, "osm_maxspeed": null, "osmid": 90442692.0 }, "geometry": { "type": "Point", "coordinates": [ -3.1783014, 51.551143 ] } },
{ "type": "Feature", "properties": { "AADT": 6608, "TR_AADT": 60, "2W_AADT": 44, "raw_name": "B4488", "raw_oneway": true, "raw_direction": null, "raw_techno": "Manual count", "osm_name": "Pencisely Road", "osm_type": "secondary", "osm_lanes": null, "osm_oneway": null, "osm_distance": 0.70309911913024281, "osm_maxspeed": 32.1868, "osmid": 405192058.0 }, "geometry": { "type": "Point", "coordinates": [ -3.2157076, 51.489185 ] } },
{ "type": "Feature", "properties": { "AADT": 8986, "TR_AADT": 91, "2W_AADT": 59, "raw_name": "B4267", "raw_oneway": true, "raw_direction": null, "raw_techno": "Manual count", "osm_name": "Llandaff Road", "osm_type": "secondary", "osm_lanes": null, "osm_oneway": null, "osm_distance": 0.64456689837829551, "osm_maxspeed": 32.1868, "osmid": 1317469447.0 }, "geometry": { "type": "Point", "coordinates": [ -3.2046471, 51.485414 ] } },
{ "type": "Feature", "properties": { "AADT": 9411, "TR_AADT": 85, "2W_AADT": 30, "raw_name": "C", "raw_oneway": true, "raw_direction": null, "raw_techno": "Manual count", "osm_name": "Cyncoed Road", "osm_type": "tertiary", "osm_lanes": null, "osm_oneway": null, "osm_distance": 0.38922684878739383, "osm_maxspeed": null, "osmid": 261924054.0 }, "geometry": { "type": "Point", "coordinates": [ -3.1630629, 51.506156 ] } },
{ "type": "Feature", "properties": { "AADT": 1803, "TR_AADT": 12, "2W_AADT": 14, "raw_name": "B4562", "raw_oneway": true, "raw_direction": null, "raw_techno": "Manual count", "osm_name": "Tŷ'r Winch Road", "osm_type": "tertiary", "osm_lanes": 2.0, "osm_oneway": "False", "osm_distance": 0.6669029743419802, "osm_maxspeed": 48.2802, "osmid": 90210425.0 }, "geometry": { "type": "Point", "coordinates": [ -3.112553, 51.528919 ] } },
{ "type": "Feature", "properties": { "AADT": 13925, "TR_AADT": 130, "2W_AADT": 27, "raw_name": "C", "raw_oneway": true, "raw_direction": null, "raw_techno": "Manual count", "osm_name": "Llanedeyrn Road", "osm_type": "tertiary", "osm_lanes": null, "osm_oneway": null, "osm_distance": 2.0867967071169029, "osm_maxspeed": 48.2802, "osmid": 136124210.0 }, "geometry": { "type": "Point", "coordinates": [ -3.1508818, 51.505359 ] } },
{ "type": "Feature", "properties": { "AADT": 3766, "TR_AADT": 23, "2W_AADT": 15, "raw_name": "U", "raw_oneway": true, "raw_direction": null, "raw_techno": "Manual count", "osm_name": "Bute Street", "osm_type": "unclassified", "osm_lanes": 2.0, "osm_oneway": "False", "osm_distance": 2.0573027571986162, "osm_maxspeed": 32.1868, "osmid": 1175184204.0 }, "geometry": { "type": "Point", "coordinates": [ -3.1709534, 51.47278 ] } },
{ "type": "Feature", "properties": { "AADT": 11829, "TR_AADT": 67, "2W_AADT": 48, "raw_name": "B4262", "raw_oneway": true, "raw_direction": null, "raw_techno": "Manual count", "osm_name": "Heol Isaf", "osm_type": "secondary", "osm_lanes": 2.0, "osm_oneway": null, "osm_distance": 1.7297459271884552, "osm_maxspeed": 32.1868, "osmid": 407830474.0 }, "geometry": { "type": "Point", "coordinates": [ -3.2563212, 51.51941 ] } },
{ "type": "Feature", "properties": { "AADT": 23054, "TR_AADT": 123, "2W_AADT": 120, "raw_name": "B4487", "raw_oneway": true, "raw_direction": null, "raw_techno": "Manual count", "osm_name": "Newport Road", "osm_type": "secondary", "osm_lanes": 5.0, "osm_oneway": "False", "osm_distance": 0.097697555685215293, "osm_maxspeed": 32.1868, "osmid": 1263102362.0 }, "geometry": { "type": "Point", "coordinates": [ -3.1359149, 51.50492 ] } },
{ "type": "Feature", "properties": { "AADT": 2748, "TR_AADT": 21, "2W_AADT": 15, "raw_name": "C", "raw_oneway": true, "raw_direction": null, "raw_techno": "Manual count", "osm_name": "Circle Way East", "osm_type": "tertiary", "osm_lanes": null, "osm_oneway": null, "osm_distance": 1.7574292956561222, "osm_maxspeed": 48.2802, "osmid": 24484603.0 }, "geometry": { "type": "Point", "coordinates": [ -3.1444689, 51.512786 ] } },
{ "type": "Feature", "properties": { "AADT": 17758, "TR_AADT": 89, "2W_AADT": 71, "raw_name": "C", "raw_oneway": true, "raw_direction": null, "raw_techno": "Manual count", "osm_name": "Fidlas Road", "osm_type": "tertiary", "osm_lanes": null, "osm_oneway": null, "osm_distance": 0.81174804040849002, "osm_maxspeed": 32.1868, "osmid": 43211969.0 }, "geometry": { "type": "Point", "coordinates": [ -3.1810992, 51.527187 ] } },
{ "type": "Feature", "properties": { "AADT": 3886, "TR_AADT": 20, "2W_AADT": 34, "raw_name": "B4487", "raw_oneway": true, "raw_direction": null, "raw_techno": "Manual count", "osm_name": "Four Elms Road", "osm_type": "secondary", "osm_lanes": null, "osm_oneway": null, "osm_distance": 1.1947591392621211, "osm_maxspeed": 32.1868, "osmid": 23941728.0 }, "geometry": { "type": "Point", "coordinates": [ -3.1599188, 51.486747 ] } },
{ "type": "Feature", "properties": { "AADT": 6322, "TR_AADT": 27, "2W_AADT": 29, "raw_name": "B4239", "raw_oneway": true, "raw_direction": null, "raw_techno": "Manual count", "osm_name": "Wentloog Road", "osm_type": "secondary", "osm_lanes": null, "osm_oneway": "False", "osm_distance": 0.62748383913481054, "osm_maxspeed": 32.1868, "osmid": 9887050.0 }, "geometry": { "type": "Point", "coordinates": [ -3.1289026, 51.505105 ] } },
{ "type": "Feature", "properties": { "AADT": 337, "TR_AADT": 6, "2W_AADT": 0, "raw_name": "U", "raw_oneway": true, "raw_direction": null, "raw_techno": "Manual count", "osm_name": "Lansdowne Avenue West", "osm_type": "residential", "osm_lanes": null, "osm_oneway": null, "osm_distance": 1.8398907028271376, "osm_maxspeed": 32.1868, "osmid": 22899800.0 }, "geometry": { "type": "Point", "coordinates": [ -3.21201, 51.479566 ] } },
{ "type": "Feature", "properties": { "AADT": 4699, "TR_AADT": 53, "2W_AADT": 28, "raw_name": "B4562", "raw_oneway": true, "raw_direction": null, "raw_techno": "Manual count", "osm_name": "Lisvane Road", "osm_type": "tertiary", "osm_lanes": null, "osm_oneway": null, "osm_distance": 0.52367038012642486, "osm_maxspeed": 32.1868, "osmid": 1307143590.0 }, "geometry": { "type": "Point", "coordinates": [ -3.1772432, 51.533619 ] } },
{ "type": "Feature", "properties": { "AADT": 4366, "TR_AADT": 36, "2W_AADT": 22, "raw_name": "B4562", "raw_oneway": true, "raw_direction": null, "raw_techno": "Manual count", "osm_name": "Lisvane Road", "osm_type": "tertiary", "osm_lanes": null, "osm_oneway": null, "osm_distance": 0.38257903999234971, "osm_maxspeed": 32.1868, "osmid": 43706597.0 }, "geometry": { "type": "Point", "coordinates": [ -3.1689852, 51.538809 ] } },
{ "type": "Feature", "properties": { "AADT": 7364, "TR_AADT": 42, "2W_AADT": 25, "raw_name": "B4562", "raw_oneway": true, "raw_direction": null, "raw_techno": "Manual count", "osm_name": "Tŷ Glas Road", "osm_type": "secondary", "osm_lanes": 2.0, "osm_oneway": "False", "osm_distance": 0.86581191981603023, "osm_maxspeed": 32.1868, "osmid": 4968832.0 }, "geometry": { "type": "Point", "coordinates": [ -3.191429, 51.528612 ] } },
{ "type": "Feature", "properties": { "AADT": 11450, "TR_AADT": 77, "2W_AADT": 61, "raw_name": "B4262", "raw_oneway": true, "raw_direction": null, "raw_techno": "Manual count", "osm_name": "Tŷ Nant Road", "osm_type": "secondary", "osm_lanes": 2.0, "osm_oneway": null, "osm_distance": 9.0214539799053348, "osm_maxspeed": 32.1868, "osmid": 407830489.0 }, "geometry": { "type": "Point", "coordinates": [ -3.2594525, 51.528944 ] } },
{ "type": "Feature", "properties": { "AADT": 7625, "TR_AADT": 19, "2W_AADT": 51, "raw_name": "C", "raw_oneway": true, "raw_direction": null, "raw_techno": "Manual count", "osm_name": "Castle Hill", "osm_type": "tertiary", "osm_lanes": null, "osm_oneway": null, "osm_distance": 1.1654299838345872, "osm_maxspeed": 32.1868, "osmid": 1383302730.0 }, "geometry": { "type": "Point", "coordinates": [ -3.2693381, 51.485262 ] } },
{ "type": "Feature", "properties": { "AADT": 5371, "TR_AADT": 44, "2W_AADT": 32, "raw_name": "C", "raw_oneway": true, "raw_direction": null, "raw_techno": "Manual count", "osm_name": "Grand Avenue", "osm_type": "service", "osm_lanes": null, "osm_oneway": "True", "osm_distance": 3.0904380502387525, "osm_maxspeed": null, "osmid": 42765359.0 }, "geometry": { "type": "Point", "coordinates": [ -3.244818, 51.48129 ] } },
{ "type": "Feature", "properties": { "AADT": 3393, "TR_AADT": 14, "2W_AADT": 2, "raw_name": "C", "raw_oneway": true, "raw_direction": null, "raw_techno": "Manual count", "osm_name": "Mill Road", "osm_type": "residential", "osm_lanes": null, "osm_oneway": null, "osm_distance": 0.29416617704908787, "osm_maxspeed": 32.1868, "osmid": 122024190.0 }, "geometry": { "type": "Point", "coordinates": [ -3.1773292, 51.538627 ] } },
{ "type": "Feature", "properties": { "AADT": 8593, "TR_AADT": 40, "2W_AADT": 35, "raw_name": "C", "raw_oneway": true, "raw_direction": null, "raw_techno": "Manual count", "osm_name": "Glyn Coed Road", "osm_type": "tertiary", "osm_lanes": null, "osm_oneway": "True", "osm_distance": 0.60982074952713483, "osm_maxspeed": 32.1868, "osmid": 1314089772.0 }, "geometry": { "type": "Point", "coordinates": [ -3.1535621, 51.51963 ] } },
{ "type": "Feature", "properties": { "AADT": 1650, "TR_AADT": 14, "2W_AADT": 3, "raw_name": "C", "raw_oneway": true, "raw_direction": null, "raw_techno": "Manual count", "osm_name": "Velindre Road", "osm_type": "residential", "osm_lanes": 2.0, "osm_oneway": null, "osm_distance": 0.91545036863938878, "osm_maxspeed": 32.1868, "osmid": 1385761407.0 }, "geometry": { "type": "Point", "coordinates": [ -3.2335441, 51.514446 ] } },
{ "type": "Feature", "properties": { "AADT": 2700, "TR_AADT": 33, "2W_AADT": 25, "raw_name": "C", "raw_oneway": true, "raw_direction": null, "raw_techno": "Manual count", "osm_name": "Habershon Street", "osm_type": "residential", "osm_lanes": 2.0, "osm_oneway": "False", "osm_distance": 0.9144163413914902, "osm_maxspeed": 32.1868, "osmid": 24005557.0 }, "geometry": { "type": "Point", "coordinates": [ -3.1483709, 51.484576 ] } },
{ "type": "Feature", "properties": { "AADT": 9442, "TR_AADT": 72, "2W_AADT": 72, "raw_name": "C", "raw_oneway": true, "raw_direction": null, "raw_techno": "Manual count", "osm_name": "Michaelston Road", "osm_type": "tertiary", "osm_lanes": null, "osm_oneway": null, "osm_distance": 0.72776830744549859, "osm_maxspeed": 32.1868, "osmid": 51070554.0 }, "geometry": { "type": "Point", "coordinates": [ -3.2689029, 51.471662 ] } },
{ "type": "Feature", "properties": { "AADT": 5030, "TR_AADT": 17, "2W_AADT": 8, "raw_name": "C", "raw_oneway": true, "raw_direction": null, "raw_techno": "Manual count", "osm_name": "Pantmawr Road", "osm_type": "tertiary", "osm_lanes": null, "osm_oneway": "False", "osm_distance": 1.3542085882081598, "osm_maxspeed": 32.1868, "osmid": 26200206.0 }, "geometry": { "type": "Point", "coordinates": [ -3.2305568, 51.523379 ] } },
{ "type": "Feature", "properties": { "AADT": 2253, "TR_AADT": 10, "2W_AADT": 11, "raw_name": "U", "raw_oneway": true, "raw_direction": null, "raw_techno": "Manual count", "osm_name": "Watkiss Way", "osm_type": "unclassified", "osm_lanes": 2.0, "osm_oneway": null, "osm_distance": 0.045002460495053881, "osm_maxspeed": null, "osmid": 43391387.0 }, "geometry": { "type": "Point", "coordinates": [ -3.1843753, 51.448421 ] } },
{ "type": "Feature", "properties": { "AADT": 853, "TR_AADT": 30, "2W_AADT": 3, "raw_name": "U", "raw_oneway": true, "raw_direction": null, "raw_techno": "Manual count", "osm_name": "East Moors Road", "osm_type": "unclassified", "osm_lanes": null, "osm_oneway": null, "osm_distance": 1.3413447466830608, "osm_maxspeed": 32.1868, "osmid": 62012741.0 }, "geometry": { "type": "Point", "coordinates": [ -3.1613483, 51.476688 ] } },
{ "type": "Feature", "properties": { "AADT": 351, "TR_AADT": 0, "2W_AADT": 2, "raw_name": "U", "raw_oneway": true, "raw_direction": null, "raw_techno": "Manual count", "osm_name": "Chartwell Drive", "osm_type": "residential", "osm_lanes": null, "osm_oneway": null, "osm_distance": 1.0224274298411777, "osm_maxspeed": null, "osmid": 122010858.0 }, "geometry": { "type": "Point", "coordinates": [ -3.1736917, 51.536236 ] } },
{ "type": "Feature", "properties": { "AADT": 4031, "TR_AADT": 40, "2W_AADT": 0, "raw_name": "U", "raw_oneway": true, "raw_direction": null, "raw_techno": "Manual count", "osm_name": "Croescadarn Close", "osm_type": "unclassified", "osm_lanes": null, "osm_oneway": null, "osm_distance": 0.04275680855486079, "osm_maxspeed": null, "osmid": 24862352.0 }, "geometry": { "type": "Point", "coordinates": [ -3.1393495, 51.531701 ] } },
{ "type": "Feature", "properties": { "AADT": 1517, "TR_AADT": 16, "2W_AADT": 5, "raw_name": "U", "raw_oneway": true, "raw_direction": null, "raw_techno": "Manual count", "osm_name": "Springwood", "osm_type": "residential", "osm_lanes": null, "osm_oneway": null, "osm_distance": 1.7856489042390871, "osm_maxspeed": null, "osmid": 24487012.0 }, "geometry": { "type": "Point", "coordinates": [ -3.1624272, 51.514012 ] } },
{ "type": "Feature", "properties": { "AADT": 719, "TR_AADT": 4, "2W_AADT": 1, "raw_name": "U", "raw_oneway": true, "raw_direction": null, "raw_techno": "Manual count", "osm_name": "Miskin Street", "osm_type": "residential", "osm_lanes": null, "osm_oneway": null, "osm_distance": 0.32146737205887055, "osm_maxspeed": 32.1868, "osmid": 23723418.0 }, "geometry": { "type": "Point", "coordinates": [ -3.1792481, 51.490133 ] } },
{ "type": "Feature", "properties": { "AADT": 1024, "TR_AADT": 14, "2W_AADT": 2, "raw_name": "U", "raw_oneway": true, "raw_direction": null, "raw_techno": "Manual count", "osm_name": "Sneyd Street", "osm_type": "residential", "osm_lanes": null, "osm_oneway": null, "osm_distance": 1.6671094060878817, "osm_maxspeed": 32.1868, "osmid": 23194955.0 }, "geometry": { "type": "Point", "coordinates": [ -3.1992704, 51.486333 ] } },
{ "type": "Feature", "properties": { "AADT": 819, "TR_AADT": 2, "2W_AADT": 1, "raw_name": "U", "raw_oneway": true, "raw_direction": null, "raw_techno": "Manual count", "osm_name": "Fidlas Avenue", "osm_type": "residential", "osm_lanes": null, "osm_oneway": null, "osm_distance": 0.46278507977448086, "osm_maxspeed": 32.1868, "osmid": 122455192.0 }, "geometry": { "type": "Point", "coordinates": [ -3.1790956, 51.521615 ] } },
{ "type": "Feature", "properties": { "AADT": 1398, "TR_AADT": 8, "2W_AADT": 2, "raw_name": "U", "raw_oneway": true, "raw_direction": null, "raw_techno": "Manual count", "osm_name": "Lon y Dail", "osm_type": "residential", "osm_lanes": null, "osm_oneway": null, "osm_distance": 0.43604464770181794, "osm_maxspeed": 32.1868, "osmid": 26200102.0 }, "geometry": { "type": "Point", "coordinates": [ -3.2156225, 51.523337 ] } },
{ "type": "Feature", "properties": { "AADT": 801, "TR_AADT": 7, "2W_AADT": 0, "raw_name": "U", "raw_oneway": true, "raw_direction": null, "raw_techno": "Manual count", "osm_name": "Goldcrest Drive", "osm_type": "residential", "osm_lanes": 2.0, "osm_oneway": "False", "osm_distance": 1.1464970696004531, "osm_maxspeed": 32.1868, "osmid": 120706892.0 }, "geometry": { "type": "Point", "coordinates": [ -3.1549126, 51.523447 ] } },
{ "type": "Feature", "properties": { "AADT": 635, "TR_AADT": 0, "2W_AADT": 2, "raw_name": "U", "raw_oneway": true, "raw_direction": null, "raw_techno": "Estimated using previous year's AADF on this link", "osm_name": "Railway Street", "osm_type": "residential", "osm_lanes": null, "osm_oneway": null, "osm_distance": 0.0091224650315507912, "osm_maxspeed": 32.1868, "osmid": 114000808.0 }, "geometry": { "type": "Point", "coordinates": [ -3.1498051, 51.487197 ] } },
{ "type": "Feature", "properties": { "AADT": 575, "TR_AADT": 3, "2W_AADT": 2, "raw_name": "U", "raw_oneway": true, "raw_direction": null, "raw_techno": "Manual count", "osm_name": "Harrison Drive", "osm_type": "residential", "osm_lanes": null, "osm_oneway": null, "osm_distance": 0.74199870999318451, "osm_maxspeed": null, "osmid": 28051778.0 }, "geometry": { "type": "Point", "coordinates": [ -3.0926395, 51.518469 ] } },
{ "type": "Feature", "properties": { "AADT": 709, "TR_AADT": 7, "2W_AADT": 2, "raw_name": "U", "raw_oneway": true, "raw_direction": null, "raw_techno": "Manual count", "osm_name": "Heol Newydd", "osm_type": "residential", "osm_lanes": null, "osm_oneway": null, "osm_distance": 0.26346471017424894, "osm_maxspeed": null, "osmid": 120322542.0 }, "geometry": { "type": "Point", "coordinates": [ -3.1106875, 51.512095 ] } },
{ "type": "Feature", "properties": { "AADT": 1042, "TR_AADT": 8, "2W_AADT": 10, "raw_name": "U", "raw_oneway": true, "raw_direction": null, "raw_techno": "Manual count", "osm_name": "Heritage Park", "osm_type": "residential", "osm_lanes": 2.0, "osm_oneway": "False", "osm_distance": 0.45702514592382348, "osm_maxspeed": 48.2802, "osmid": 27628469.0 }, "geometry": { "type": "Point", "coordinates": [ -3.0985391, 51.528251 ] } },
{ "type": "Feature", "properties": { "AADT": 275, "TR_AADT": 0, "2W_AADT": 4, "raw_name": "U", "raw_oneway": true, "raw_direction": null, "raw_techno": "Manual count", "osm_name": "Rawden Place", "osm_type": "residential", "osm_lanes": null, "osm_oneway": null, "osm_distance": 0.40937769784102646, "osm_maxspeed": 32.1868, "osmid": 23126270.0 }, "geometry": { "type": "Point", "coordinates": [ -3.1899506, 51.480196 ] } },
{ "type": "Feature", "properties": { "AADT": 2634, "TR_AADT": 11, "2W_AADT": 25, "raw_name": "U", "raw_oneway": true, "raw_direction": null, "raw_techno": "Manual count", "osm_name": "Norbury Road", "osm_type": "residential", "osm_lanes": 2.0, "osm_oneway": "False", "osm_distance": 0.60845607335713059, "osm_maxspeed": 32.1868, "osmid": 262085947.0 }, "geometry": { "type": "Point", "coordinates": [ -3.2312144, 51.487368 ] } },
{ "type": "Feature", "properties": { "AADT": 355, "TR_AADT": 1, "2W_AADT": 3, "raw_name": "U", "raw_oneway": true, "raw_direction": null, "raw_techno": "Manual count", "osm_name": "Trecastle Avenue", "osm_type": "residential", "osm_lanes": null, "osm_oneway": null, "osm_distance": 0.53645688585559947, "osm_maxspeed": 32.1868, "osmid": 26235267.0 }, "geometry": { "type": "Point", "coordinates": [ -3.1925388, 51.530812 ] } },
{ "type": "Feature", "properties": { "AADT": 1524, "TR_AADT": 3, "2W_AADT": 6, "raw_name": "U", "raw_oneway": true, "raw_direction": null, "raw_techno": "Manual count", "osm_name": "Carisbrooke Way", "osm_type": "residential", "osm_lanes": null, "osm_oneway": null, "osm_distance": 0.61731792734118562, "osm_maxspeed": 32.1868, "osmid": 24484474.0 }, "geometry": { "type": "Point", "coordinates": [ -3.1630842, 51.506992 ] } },
{ "type": "Feature", "properties": { "AADT": 300, "TR_AADT": 2, "2W_AADT": 0, "raw_name": "U", "raw_oneway": true, "raw_direction": null, "raw_techno": "Manual count", "osm_name": "Aberbran Road", "osm_type": "residential", "osm_lanes": null, "osm_oneway": null, "osm_distance": 0.26867409608151693, "osm_maxspeed": null, "osmid": 24319352.0 }, "geometry": { "type": "Point", "coordinates": [ -3.2102258, 51.501372 ] } },
{ "type": "Feature", "properties": { "AADT": 2172, "TR_AADT": 10, "2W_AADT": 5, "raw_name": "U", "raw_oneway": true, "raw_direction": null, "raw_techno": "Manual count", "osm_name": "King Edward VII Avenue", "osm_type": "unclassified", "osm_lanes": null, "osm_oneway": null, "osm_distance": 1.4229477152004588, "osm_maxspeed": null, "osmid": 404604700.0 }, "geometry": { "type": "Point", "coordinates": [ -3.1812071, 51.486237 ] } },
{ "type": "Feature", "properties": { "AADT": 405, "TR_AADT": 3, "2W_AADT": 1, "raw_name": "U", "raw_oneway": true, "raw_direction": null, "raw_techno": "Manual count", "osm_name": "Westville Road", "osm_type": "residential", "osm_lanes": 2.0, "osm_oneway": "False", "osm_distance": 0.85716457813680325, "osm_maxspeed": 48.2802, "osmid": 222400601.0 }, "geometry": { "type": "Point", "coordinates": [ -3.1578329, 51.495372 ] } },
{ "type": "Feature", "properties": { "AADT": 137, "TR_AADT": 0, "2W_AADT": 0, "raw_name": "U", "raw_oneway": true, "raw_direction": null, "raw_techno": "Manual count", "osm_name": "Victoria Avenue", "osm_type": "residential", "osm_lanes": null, "osm_oneway": null, "osm_distance": 0.55421551770583966, "osm_maxspeed": 32.1868, "osmid": 24298029.0 }, "geometry": { "type": "Point", "coordinates": [ -3.2165881, 51.485471 ] } },
{ "type": "Feature", "properties": { "AADT": 807, "TR_AADT": 3, "2W_AADT": 3, "raw_name": "U", "raw_oneway": true, "raw_direction": null, "raw_techno": "Manual count", "osm_name": "Tewkesbury Street", "osm_type": "residential", "osm_lanes": null, "osm_oneway": null, "osm_distance": 0.10660059651414826, "osm_maxspeed": 32.1868, "osmid": 48514965.0 }, "geometry": { "type": "Point", "coordinates": [ -3.1798809, 51.496789 ] } },
{ "type": "Feature", "properties": { "AADT": 1536, "TR_AADT": 10, "2W_AADT": 1, "raw_name": "U", "raw_oneway": true, "raw_direction": null, "raw_techno": "Manual count", "osm_name": "Oakfield Street", "osm_type": "residential", "osm_lanes": null, "osm_oneway": null, "osm_distance": 0.43186680694302776, "osm_maxspeed": 32.1868, "osmid": 26587943.0 }, "geometry": { "type": "Point", "coordinates": [ -3.1611527, 51.489962 ] } },
{ "type": "Feature", "properties": { "AADT": 1836, "TR_AADT": 7, "2W_AADT": 3, "raw_name": "U", "raw_oneway": true, "raw_direction": null, "raw_techno": "Manual count", "osm_name": "Alder Road", "osm_type": "unclassified", "osm_lanes": null, "osm_oneway": null, "osm_distance": 0.57181704669142752, "osm_maxspeed": 32.1868, "osmid": 44285994.0 }, "geometry": { "type": "Point", "coordinates": [ -3.1705681, 51.499904 ] } },
{ "type": "Feature", "properties": { "AADT": 585, "TR_AADT": 8, "2W_AADT": 2, "raw_name": "U", "raw_oneway": true, "raw_direction": null, "raw_techno": "Manual count", "osm_name": "Glynrhondda Street", "osm_type": "residential", "osm_lanes": null, "osm_oneway": null, "osm_distance": 0.22003599252014958, "osm_maxspeed": 32.1868, "osmid": 23739494.0 }, "geometry": { "type": "Point", "coordinates": [ -3.1749058, 51.488189 ] } },
{ "type": "Feature", "properties": { "AADT": 2239, "TR_AADT": 2, "2W_AADT": 13, "raw_name": "U", "raw_oneway": true, "raw_direction": null, "raw_techno": "Manual count", "osm_name": "Heol Tŷ'n y Coed", "osm_type": "residential", "osm_lanes": null, "osm_oneway": null, "osm_distance": 3.6341578794854152, "osm_maxspeed": 32.1868, "osmid": 26200312.0 }, "geometry": { "type": "Point", "coordinates": [ -3.2077473, 51.526961 ] } },
{ "type": "Feature", "properties": { "AADT": 237, "TR_AADT": 5, "2W_AADT": 4, "raw_name": "U", "raw_oneway": true, "raw_direction": null, "raw_techno": "Manual count", "osm_name": "Sevenoaks Road", "osm_type": "residential", "osm_lanes": null, "osm_oneway": null, "osm_distance": 1.263676836428846, "osm_maxspeed": null, "osmid": 22821132.0 }, "geometry": { "type": "Point", "coordinates": [ -3.2602881, 51.476188 ] } },
{ "type": "Feature", "properties": { "AADT": 422, "TR_AADT": 2, "2W_AADT": 0, "raw_name": "U", "raw_oneway": true, "raw_direction": null, "raw_techno": "Manual count", "osm_name": "Rannoch Drive", "osm_type": "residential", "osm_lanes": null, "osm_oneway": null, "osm_distance": 0.69766184344895465, "osm_maxspeed": 32.1868, "osmid": 24486926.0 }, "geometry": { "type": "Point", "coordinates": [ -3.1661148, 51.517896 ] } },
{ "type": "Feature", "properties": { "AADT": 1510, "TR_AADT": 9, "2W_AADT": 10, "raw_name": "U", "raw_oneway": true, "raw_direction": null, "raw_techno": "Manual count", "osm_name": "Hollybush Road", "osm_type": "residential", "osm_lanes": 2.0, "osm_oneway": "False", "osm_distance": 0.52078247692880675, "osm_maxspeed": 32.1868, "osmid": 1314085516.0 }, "geometry": { "type": "Point", "coordinates": [ -3.1534693, 51.521663 ] } },
{ "type": "Feature", "properties": { "AADT": 1940, "TR_AADT": 25, "2W_AADT": 8, "raw_name": "U", "raw_oneway": true, "raw_direction": null, "raw_techno": "Manual count", "osm_name": "Heol Y Forlan", "osm_type": "residential", "osm_lanes": null, "osm_oneway": null, "osm_distance": 0.22210912834224195, "osm_maxspeed": null, "osmid": 24352370.0 }, "geometry": { "type": "Point", "coordinates": [ -3.2185426, 51.516635 ] } },
{ "type": "Feature", "properties": { "AADT": 513, "TR_AADT": 5, "2W_AADT": 2, "raw_name": "U", "raw_oneway": true, "raw_direction": null, "raw_techno": "Manual count", "osm_name": "Matthysens Way", "osm_type": "residential", "osm_lanes": null, "osm_oneway": null, "osm_distance": 0.88073996802356402, "osm_maxspeed": null, "osmid": 122302618.0 }, "geometry": { "type": "Point", "coordinates": [ -3.0951037, 51.515451 ] } },
{ "type": "Feature", "properties": { "AADT": 828, "TR_AADT": 9, "2W_AADT": 4, "raw_name": "U", "raw_oneway": true, "raw_direction": null, "raw_techno": "Manual count", "osm_name": "Glenwood", "osm_type": "residential", "osm_lanes": null, "osm_oneway": null, "osm_distance": 0.082721939445626363, "osm_maxspeed": null, "osmid": 24487160.0 }, "geometry": { "type": "Point", "coordinates": [ -3.1590281, 51.518632 ] } },
{ "type": "Feature", "properties": { "AADT": 358, "TR_AADT": 0, "2W_AADT": 0, "raw_name": "U", "raw_oneway": true, "raw_direction": null, "raw_techno": "Manual count", "osm_name": "Alwen Drive", "osm_type": "residential", "osm_lanes": 2.0, "osm_oneway": "False", "osm_distance": 2.495195739229302, "osm_maxspeed": 48.2802, "osmid": 122193013.0 }, "geometry": { "type": "Point", "coordinates": [ -3.1889771, 51.544057 ] } },
{ "type": "Feature", "properties": { "AADT": 6318, "TR_AADT": 47, "2W_AADT": 44, "raw_name": "B4487", "raw_oneway": true, "raw_direction": null, "raw_techno": "Manual count", "osm_name": "Broadway", "osm_type": "secondary", "osm_lanes": 2.0, "osm_oneway": null, "osm_distance": 0.35357981041700581, "osm_maxspeed": 32.1868, "osmid": 23921469.0 }, "geometry": { "type": "Point", "coordinates": [ -3.151122, 51.490304 ] } },
{ "type": "Feature", "properties": { "AADT": 8124, "TR_AADT": 174, "2W_AADT": 46, "raw_name": "C", "raw_oneway": true, "raw_direction": null, "raw_techno": "Estimated using previous year's AADF on this link", "osm_name": "Wood Street", "osm_type": "tertiary", "osm_lanes": 2.0, "osm_oneway": null, "osm_distance": 1.561691959951101, "osm_maxspeed": null, "osmid": 43354943.0 }, "geometry": { "type": "Point", "coordinates": [ -3.1804916, 51.476938 ] } },
{ "type": "Feature", "properties": { "AADT": 2344, "TR_AADT": 34, "2W_AADT": 38, "raw_name": "C", "raw_oneway": true, "raw_direction": null, "raw_techno": "Manual count", "osm_name": "Heol Trelai", "osm_type": "residential", "osm_lanes": null, "osm_oneway": "True", "osm_distance": 0.0064704995132124424, "osm_maxspeed": null, "osmid": 45552137.0 }, "geometry": { "type": "Point", "coordinates": [ -3.2385406, 51.473372 ] } },
{ "type": "Feature", "properties": { "AADT": 1936, "TR_AADT": 3, "2W_AADT": 25, "raw_name": "U", "raw_oneway": true, "raw_direction": null, "raw_techno": "Manual count", "osm_name": "Harris Avenue", "osm_type": "residential", "osm_lanes": null, "osm_oneway": null, "osm_distance": 0.20275496293540746, "osm_maxspeed": null, "osmid": 24844860.0 }, "geometry": { "type": "Point", "coordinates": [ -3.1142846, 51.51305 ] } },
{ "type": "Feature", "properties": { "AADT": 488, "TR_AADT": 2, "2W_AADT": 1, "raw_name": "U", "raw_oneway": true, "raw_direction": null, "raw_techno": "Manual count", "osm_name": "Rachel Close", "osm_type": "residential", "osm_lanes": null, "osm_oneway": null, "osm_distance": 0.87424361452509236, "osm_maxspeed": null, "osmid": 54937299.0 }, "geometry": { "type": "Point", "coordinates": [ -3.2411549, 51.504429 ] } }
]
}
