{
"type": "FeatureCollection",
"name": "Cardiff_AADT_2017",
"crs": { "type": "name", "properties": { "name": "urn:ogc:def:crs:OGC:1.3:CRS84" } },
"features": [
{ "type": "Feature", "properties": { "AADT": 20685, "TR_AADT": 336, "2W_AADT": 65, "raw_name": "A48", "raw_oneway": true, "raw_direction": "A4232 / A4050-->A4161", "raw_techno": "Estimated using previous year's AADF on this link", "osm_name": null, "osm_type": "service", "osm_lanes": null, "osm_oneway": null, "osm_distance": 3.8583260544677365, "osm_maxspeed": null, "osmid": 117615928.0 }, "geometry": { "type": "Point", "coordinates": [ -3.26824372, 51.467103059 ] } },
{ "type": "Feature", "properties": { "AADT": 8094, "TR_AADT": 163, "2W_AADT": 44, "raw_name": "A4119", "raw_oneway": true, "raw_direction": "A4160-->Tudor Street", "raw_techno": "Estimated using previous year's AADF on this link", "osm_name": "Clare Road", "osm_type": "primary", "osm_lanes": 2.0, "osm_oneway": null, "osm_distance": 1.5349463738179974, "osm_maxspeed": 32.1868, "osmid": 4816796.0 }, "geometry": { "type": "Point", "coordinates": [ -3.186754217, 51.472452324 ] } },
{ "type": "Feature", "properties": { "AADT": 28564, "TR_AADT": 319, "2W_AADT": 140, "raw_name": "A4160", "raw_oneway": true, "raw_direction": "A4234 Central Link-->A4161 Newport Rd", "raw_techno": "Manual count", "osm_name": "Adam Street", "osm_type": "primary", "osm_lanes": 2.0, "osm_oneway": "True", "osm_distance": 2.9219009510169918, "osm_maxspeed": 48.2802, "osmid": 26434973.0 }, "geometry": { "type": "Point", "coordinates": [ -3.167319095, 51.479876959 ] } },
{ "type": "Feature", "properties": { "AADT": 23579, "TR_AADT": 408, "2W_AADT": 142, "raw_name": "A48", "raw_oneway": true, "raw_direction": "A4161-->A4119", "raw_techno": "Estimated using previous year's AADF on this link", "osm_name": "Western Avenue", "osm_type": "residential", "osm_lanes": null, "osm_oneway": null, "osm_distance": 0.43094943470896924, "osm_maxspeed": null, "osmid": 50576276.0 }, "geometry": { "type": "Point", "coordinates": [ -3.225086775, 51.489817113 ] } },
{ "type": "Feature", "properties": { "AADT": 7194, "TR_AADT": 40, "2W_AADT": 60, "raw_name": "A4054", "raw_oneway": true, "raw_direction": "A4119-->Pantmawr Rd", "raw_techno": "Estimated using previous year's AADF on this link", "osm_name": "Westbourne Road", "osm_type": "residential", "osm_lanes": null, "osm_oneway": null, "osm_distance": 1.7400398637907337, "osm_maxspeed": 32.1868, "osmid": 26286382.0 }, "geometry": { "type": "Point", "coordinates": [ -3.228288947, 51.51248822 ] } },
{ "type": "Feature", "properties": { "AADT": 17672, "TR_AADT": 137, "2W_AADT": 127, "raw_name": "A4119", "raw_oneway": true, "raw_direction": "A48-->A4054", "raw_techno": "Manual count", "osm_name": "Cardiff Road", "osm_type": "primary", "osm_lanes": 2.0, "osm_oneway": null, "osm_distance": 15.798360414541143, "osm_maxspeed": 32.1868, "osmid": 236870690.0 }, "geometry": { "type": "Point", "coordinates": [ -3.220748966, 51.494583121 ] } },
{ "type": "Feature", "properties": { "AADT": 16381, "TR_AADT": 270, "2W_AADT": 49, "raw_name": "A4160", "raw_oneway": true, "raw_direction": "A4119-->A470", "raw_techno": "Estimated using previous year's AADF on this link", "osm_name": "Penarth Road", "osm_type": "primary", "osm_lanes": 2.0, "osm_oneway": "True", "osm_distance": 1.3724031332865241, "osm_maxspeed": 48.2802, "osmid": 46035613.0 }, "geometry": { "type": "Point", "coordinates": [ -3.181997092, 51.472230627 ] } },
{ "type": "Feature", "properties": { "AADT": 41247, "TR_AADT": 664, "2W_AADT": 332, "raw_name": "A4161", "raw_oneway": true, "raw_direction": "A469-->A4232", "raw_techno": "Manual count", "osm_name": "Newport Road", "osm_type": "primary", "osm_lanes": 3.0, "osm_oneway": "True", "osm_distance": 3.8685770374558253, "osm_maxspeed": 48.2802, "osmid": 1107089737.0 }, "geometry": { "type": "Point", "coordinates": [ -3.143268893, 51.495364189 ] } },
{ "type": "Feature", "properties": { "AADT": 11759, "TR_AADT": 143, "2W_AADT": 38, "raw_name": "A4161", "raw_oneway": true, "raw_direction": "B4267-->A4119 Cathedral Rd", "raw_techno": "Estimated using previous year's AADF on this link", "osm_name": "Wellington Street", "osm_type": "primary", "osm_lanes": 1.0, "osm_oneway": "True", "osm_distance": 2.4678220582198076, "osm_maxspeed": 48.2802, "osmid": 138656693.0 }, "geometry": { "type": "Point", "coordinates": [ -3.194594616, 51.480465434 ] } },
{ "type": "Feature", "properties": { "AADT": 53699, "TR_AADT": 1027, "2W_AADT": 334, "raw_name": "A48", "raw_oneway": true, "raw_direction": "A469 / A470-->A4161", "raw_techno": "Manual count", "osm_name": "Eastern Avenue", "osm_type": "trunk", "osm_lanes": 2.0, "osm_oneway": "True", "osm_distance": 2.4408761252111062, "osm_maxspeed": 80.467, "osmid": 26435277.0 }, "geometry": { "type": "Point", "coordinates": [ -3.153955905, 51.502138283 ] } },
{ "type": "Feature", "properties": { "AADT": 18824, "TR_AADT": 269, "2W_AADT": 185, "raw_name": "A470", "raw_oneway": true, "raw_direction": "A4161 Boulevard de Nantes-->Colum Rd", "raw_techno": "Manual count", "osm_name": "North Road", "osm_type": "primary", "osm_lanes": 4.0, "osm_oneway": "False", "osm_distance": 0.07786087404163515, "osm_maxspeed": 48.2802, "osmid": 932233172.0 }, "geometry": { "type": "Point", "coordinates": [ -3.18321671, 51.485975967 ] } },
{ "type": "Feature", "properties": { "AADT": 77363, "TR_AADT": 3099, "2W_AADT": 341, "raw_name": "A48", "raw_oneway": true, "raw_direction": "A4232-->A48M jn29a", "raw_techno": "Manual count", "osm_name": null, "osm_type": "trunk_link", "osm_lanes": 2.0, "osm_oneway": "True", "osm_distance": 6.3421756980926274, "osm_maxspeed": null, "osmid": 4440690.0 }, "geometry": { "type": "Point", "coordinates": [ -3.11584113, 51.530741494 ] } },
{ "type": "Feature", "properties": { "AADT": 77527, "TR_AADT": 3460, "2W_AADT": 303, "raw_name": "A470", "raw_oneway": true, "raw_direction": "M4-->A4054", "raw_techno": "Manual count", "osm_name": null, "osm_type": "trunk", "osm_lanes": 2.0, "osm_oneway": "True", "osm_distance": 0.35021593486142905, "osm_maxspeed": 80.467, "osmid": 547765112.0 }, "geometry": { "type": "Point", "coordinates": [ -3.252409116, 51.530216929 ] } },
{ "type": "Feature", "properties": { "AADT": 3379, "TR_AADT": 42, "2W_AADT": 23, "raw_name": "A4054", "raw_oneway": true, "raw_direction": "M4/A470 roundabout-->B4262 roundabout", "raw_techno": "Estimated using previous year's AADF on this link", "osm_name": "Merthyr Road", "osm_type": "primary", "osm_lanes": 2.0, "osm_oneway": "False", "osm_distance": 7.3179869686863857, "osm_maxspeed": null, "osmid": 11011486.0 }, "geometry": { "type": "Point", "coordinates": [ -3.246932456, 51.530275283 ] } },
{ "type": "Feature", "properties": { "AADT": 16077, "TR_AADT": 97, "2W_AADT": 50, "raw_name": "A4119", "raw_oneway": true, "raw_direction": "A4054-->B4262 Heol Isaf", "raw_techno": "Estimated using previous year's AADF on this link", "osm_name": "Llantrisant Road", "osm_type": "primary", "osm_lanes": 2.0, "osm_oneway": null, "osm_distance": 9.3752719871139814, "osm_maxspeed": null, "osmid": 102677853.0 }, "geometry": { "type": "Point", "coordinates": [ -3.227013889, 51.497215307 ] } },
{ "type": "Feature", "properties": { "AADT": 7015, "TR_AADT": 79, "2W_AADT": 32, "raw_name": "A4119", "raw_oneway": true, "raw_direction": "A4232-->A4160", "raw_techno": "Estimated using previous year's AADF on this link", "osm_name": "Corporation Road", "osm_type": "primary", "osm_lanes": 2.0, "osm_oneway": "False", "osm_distance": 8.0853797524041902, "osm_maxspeed": 32.1868, "osmid": 41772441.0 }, "geometry": { "type": "Point", "coordinates": [ -3.181887882, 51.468005518 ] } },
{ "type": "Feature", "properties": { "AADT": 59394, "TR_AADT": 3682, "2W_AADT": 227, "raw_name": "A4161", "raw_oneway": true, "raw_direction": "A4232-->A48", "raw_techno": "Estimated using previous year's AADF on this link", "osm_name": "Southern Way", "osm_type": "primary", "osm_lanes": 2.0, "osm_oneway": "True", "osm_distance": 0.049413208737460836, "osm_maxspeed": 80.467, "osmid": 107039074.0 }, "geometry": { "type": "Point", "coordinates": [ -3.143349869, 51.504355264 ] } },
{ "type": "Feature", "properties": { "AADT": 25251, "TR_AADT": 273, "2W_AADT": 208, "raw_name": "A4161", "raw_oneway": true, "raw_direction": "A4119-->Heol Fawr", "raw_techno": "Estimated using previous year's AADF on this link", "osm_name": "Castle Street", "osm_type": "primary", "osm_lanes": 2.0, "osm_oneway": "False", "osm_distance": 2.1691243853774616, "osm_maxspeed": 32.1868, "osmid": 778981940.0 }, "geometry": { "type": "Point", "coordinates": [ -3.182224892, 51.481040418 ] } },
{ "type": "Feature", "properties": { "AADT": 36824, "TR_AADT": 329, "2W_AADT": 329, "raw_name": "A470", "raw_oneway": true, "raw_direction": "Colum Rd-->A48 Eastern Avenue/A469 Whitchurch Rd", "raw_techno": "Manual count", "osm_name": "North Road", "osm_type": "primary", "osm_lanes": 3.0, "osm_oneway": null, "osm_distance": 6.6913864744674791, "osm_maxspeed": 48.2802, "osmid": 26435409.0 }, "geometry": { "type": "Point", "coordinates": [ -3.197219917, 51.502621711 ] } },
{ "type": "Feature", "properties": { "AADT": 16207, "TR_AADT": 98, "2W_AADT": 83, "raw_name": "A469", "raw_oneway": true, "raw_direction": "A4161-->A48", "raw_techno": "Manual count", "osm_name": "Whitchurch Road", "osm_type": "primary", "osm_lanes": 2.0, "osm_oneway": null, "osm_distance": 7.640312007341489, "osm_maxspeed": 32.1868, "osmid": 5027430.0 }, "geometry": { "type": "Point", "coordinates": [ -3.18264593, 51.497311526 ] } },
{ "type": "Feature", "properties": { "AADT": 15362, "TR_AADT": 301, "2W_AADT": 124, "raw_name": "A4160", "raw_oneway": true, "raw_direction": "LA Boundary-->A4119", "raw_techno": "Manual count", "osm_name": null, "osm_type": "service", "osm_lanes": null, "osm_oneway": null, "osm_distance": 5.3582138734664904, "osm_maxspeed": null, "osmid": 807067778.0 }, "geometry": { "type": "Point", "coordinates": [ -3.190084859, 51.46765283 ] } },
{ "type": "Feature", "properties": { "AADT": 23775, "TR_AADT": 458, "2W_AADT": 179, "raw_name": "A4161", "raw_oneway": true, "raw_direction": "A4160 Fitzalan Place-->A469 Albany Rd", "raw_techno": "Manual count", "osm_name": "Newport Road", "osm_type": "primary", "osm_lanes": 3.0, "osm_oneway": "True", "osm_distance": 12.76811517140192, "osm_maxspeed": 48.2802, "osmid": 863884616.0 }, "geometry": { "type": "Point", "coordinates": [ -3.161114626, 51.486196936 ] } },
{ "type": "Feature", "properties": { "AADT": 56653, "TR_AADT": 1993, "2W_AADT": 362, "raw_name": "A4232", "raw_oneway": true, "raw_direction": "A48/A4050-->B4267 mid-junction", "raw_techno": "Manual count", "osm_name": null, "osm_type": "primary", "osm_lanes": 2.0, "osm_oneway": "True", "osm_distance": 2.238538258081368, "osm_maxspeed": 112.6538, "osmid": 44375806.0 }, "geometry": { "type": "Point", "coordinates": [ -3.257826318, 51.465740613 ] } },
{ "type": "Feature", "properties": { "AADT": 91428, "TR_AADT": 3665, "2W_AADT": 532, "raw_name": "A48", "raw_oneway": true, "raw_direction": "A4161-->A4232", "raw_techno": "Manual count", "osm_name": "Eastern Avenue", "osm_type": "trunk", "osm_lanes": 3.0, "osm_oneway": "True", "osm_distance": 22.96415147194217, "osm_maxspeed": 80.467, "osmid": 963009820.0 }, "geometry": { "type": "Point", "coordinates": [ -3.143794021, 51.513459679 ] } },
{ "type": "Feature", "properties": { "AADT": 46752, "TR_AADT": 428, "2W_AADT": 254, "raw_name": "A48", "raw_oneway": true, "raw_direction": "A4119-->A469 / A470", "raw_techno": "Manual count", "osm_name": "Western Avenue", "osm_type": "trunk", "osm_lanes": 3.0, "osm_oneway": "True", "osm_distance": 10.368818529214458, "osm_maxspeed": 32.1868, "osmid": 1314024406.0 }, "geometry": { "type": "Point", "coordinates": [ -3.211168856, 51.495644607 ] } },
{ "type": "Feature", "properties": { "AADT": 33027, "TR_AADT": 494, "2W_AADT": 161, "raw_name": "A470", "raw_oneway": true, "raw_direction": "A48 overpass-->Pantmawr Rd", "raw_techno": "Manual count", "osm_name": "Manor Way", "osm_type": "trunk", "osm_lanes": 2.0, "osm_oneway": "True", "osm_distance": 7.7846285973822562, "osm_maxspeed": 48.2802, "osmid": 1258642992.0 }, "geometry": { "type": "Point", "coordinates": [ -3.215056646, 51.516159885 ] } },
{ "type": "Feature", "properties": { "AADT": 13597, "TR_AADT": 322, "2W_AADT": 138, "raw_name": "A469", "raw_oneway": true, "raw_direction": "A48-->B4562", "raw_techno": "Estimated using previous year's AADF on this link", "osm_name": "Caerphilly Road", "osm_type": "primary", "osm_lanes": 2.0, "osm_oneway": null, "osm_distance": 7.3159925530696848, "osm_maxspeed": 32.1868, "osmid": 45735585.0 }, "geometry": { "type": "Point", "coordinates": [ -3.19983532, 51.512782794 ] } },
{ "type": "Feature", "properties": { "AADT": 105240, "TR_AADT": 8347, "2W_AADT": 315, "raw_name": "M4", "raw_oneway": true, "raw_direction": "33-->32", "raw_techno": "Estimated using previous year's AADF on this link", "osm_name": null, "osm_type": "motorway", "osm_lanes": 3.0, "osm_oneway": "True", "osm_distance": 4.6179008965185524, "osm_maxspeed": 112.6538, "osmid": 135808101.0 }, "geometry": { "type": "Point", "coordinates": [ -3.26564933, 51.523672555 ] } },
{ "type": "Feature", "properties": { "AADT": 16001, "TR_AADT": 137, "2W_AADT": 87, "raw_name": "A4119", "raw_oneway": true, "raw_direction": "Tudor St-->A4161 Cowbridge Road East", "raw_techno": "Estimated using previous year's AADF on this link", "osm_name": "Clare Street", "osm_type": "primary", "osm_lanes": null, "osm_oneway": null, "osm_distance": 1.1995322941417121, "osm_maxspeed": 32.1868, "osmid": 4816798.0 }, "geometry": { "type": "Point", "coordinates": [ -3.188645138, 51.47872752 ] } },
{ "type": "Feature", "properties": { "AADT": 16720, "TR_AADT": 110, "2W_AADT": 61, "raw_name": "A4119", "raw_oneway": true, "raw_direction": "A4161-->A48", "raw_techno": "Estimated using previous year's AADF on this link", "osm_name": "Cardiff Road", "osm_type": "primary", "osm_lanes": 2.0, "osm_oneway": "False", "osm_distance": 15.280994870310339, "osm_maxspeed": 32.1868, "osmid": 138220685.0 }, "geometry": { "type": "Point", "coordinates": [ -3.209156058, 51.489263132 ] } },
{ "type": "Feature", "properties": { "AADT": 22049, "TR_AADT": 150, "2W_AADT": 143, "raw_name": "A4161", "raw_oneway": true, "raw_direction": "A48-->B4267", "raw_techno": "Estimated using previous year's AADF on this link", "osm_name": "Cowbridge Road East", "osm_type": "primary", "osm_lanes": 4.0, "osm_oneway": null, "osm_distance": 1.4627282988196311, "osm_maxspeed": 32.1868, "osmid": 376830527.0 }, "geometry": { "type": "Point", "coordinates": [ -3.226239213, 51.484454859 ] } },
{ "type": "Feature", "properties": { "AADT": 27766, "TR_AADT": 269, "2W_AADT": 208, "raw_name": "A4161", "raw_oneway": true, "raw_direction": "Heol Fawr-->A470", "raw_techno": "Manual count", "osm_name": "Kingsway", "osm_type": "primary", "osm_lanes": null, "osm_oneway": "True", "osm_distance": 17.828413576124543, "osm_maxspeed": null, "osmid": 26435286.0 }, "geometry": { "type": "Point", "coordinates": [ -3.179092309, 51.482420752 ] } },
{ "type": "Feature", "properties": { "AADT": 23707, "TR_AADT": 301, "2W_AADT": 159, "raw_name": "A4161", "raw_oneway": true, "raw_direction": "A470-->A4160", "raw_techno": "Manual count", "osm_name": "Stuttgarter Strasse", "osm_type": "primary", "osm_lanes": 2.0, "osm_oneway": "True", "osm_distance": 0.5213698450442199, "osm_maxspeed": 48.2802, "osmid": 26434503.0 }, "geometry": { "type": "Point", "coordinates": [ -3.173820613, 51.48463171 ] } },
{ "type": "Feature", "properties": { "AADT": 23333, "TR_AADT": 2713, "2W_AADT": 90, "raw_name": "A4232", "raw_oneway": true, "raw_direction": "end-->A4161", "raw_techno": "Estimated using previous year's AADF on this link", "osm_name": "Southern Way", "osm_type": "primary", "osm_lanes": 2.0, "osm_oneway": "False", "osm_distance": 6.0317151406921194, "osm_maxspeed": 64.3736, "osmid": 5015644.0 }, "geometry": { "type": "Point", "coordinates": [ -3.135162589, 51.499579206 ] } },
{ "type": "Feature", "properties": { "AADT": 17994, "TR_AADT": 237, "2W_AADT": 158, "raw_name": "A48", "raw_oneway": true, "raw_direction": "A48M-->LA Boundary", "raw_techno": "Dependent on a neighbouring counted link", "osm_name": "Newport Road", "osm_type": "primary", "osm_lanes": 2.0, "osm_oneway": "True", "osm_distance": 4.1834616402811733, "osm_maxspeed": 48.2802, "osmid": 1205922768.0 }, "geometry": { "type": "Point", "coordinates": [ -3.097059652, 51.532672071 ] } },
{ "type": "Feature", "properties": { "AADT": 46726, "TR_AADT": 3160, "2W_AADT": 191, "raw_name": "A48(M)", "raw_oneway": true, "raw_direction": "29-->LA Boundary", "raw_techno": "Estimated using previous year's AADF on this link", "osm_name": null, "osm_type": "motorway", "osm_lanes": 2.0, "osm_oneway": "True", "osm_distance": 1.0040902121981499, "osm_maxspeed": 112.6538, "osmid": 4813064.0 }, "geometry": { "type": "Point", "coordinates": [ -3.100695635, 51.533986773 ] } },
{ "type": "Feature", "properties": { "AADT": 74920, "TR_AADT": 7670, "2W_AADT": 295, "raw_name": "M4", "raw_oneway": true, "raw_direction": "30-->LA Boundary", "raw_techno": "Dependent on a neighbouring counted link", "osm_name": null, "osm_type": "motorway", "osm_lanes": 3.0, "osm_oneway": "True", "osm_distance": 0.53044599947848414, "osm_maxspeed": 112.6538, "osmid": 135807537.0 }, "geometry": { "type": "Point", "coordinates": [ -3.118898525, 51.541367643 ] } },
{ "type": "Feature", "properties": { "AADT": 6458, "TR_AADT": 51, "2W_AADT": 22, "raw_name": "A4054", "raw_oneway": true, "raw_direction": "A470-->LA Boundary", "raw_techno": "Dependent on a neighbouring counted link", "osm_name": null, "osm_type": "trunk", "osm_lanes": 2.0, "osm_oneway": "True", "osm_distance": 2.9329623932163091, "osm_maxspeed": 80.467, "osmid": 1313037724.0 }, "geometry": { "type": "Point", "coordinates": [ -3.259810065, 51.537196309 ] } },
{ "type": "Feature", "properties": { "AADT": 68822, "TR_AADT": 2615, "2W_AADT": 326, "raw_name": "A470", "raw_oneway": true, "raw_direction": "A4054-->LA Boundary", "raw_techno": "Dependent on a neighbouring counted link", "osm_name": null, "osm_type": "trunk", "osm_lanes": 2.0, "osm_oneway": "True", "osm_distance": 2.9329623932163091, "osm_maxspeed": 80.467, "osmid": 1313037724.0 }, "geometry": { "type": "Point", "coordinates": [ -3.259810065, 51.537196309 ] } },
{ "type": "Feature", "properties": { "AADT": 56653, "TR_AADT": 1993, "2W_AADT": 362, "raw_name": "A4232", "raw_oneway": true, "raw_direction": "B4267-->LA Boundary", "raw_techno": "Dependent on a neighbouring counted link", "osm_name": "Grangetown Link", "osm_type": "primary", "osm_lanes": 2.0, "osm_oneway": "True", "osm_distance": 5.0019614234689476, "osm_maxspeed": 112.6538, "osmid": 43317013.0 }, "geometry": { "type": "Point", "coordinates": [ -3.205588785, 51.465965775 ] } },
{ "type": "Feature", "properties": { "AADT": 56653, "TR_AADT": 1993, "2W_AADT": 362, "raw_name": "A4232", "raw_oneway": true, "raw_direction": "LA Boundary-->LA Boundary", "raw_techno": "Dependent on a neighbouring counted link", "osm_name": "Grangetown Link", "osm_type": "primary", "osm_lanes": 2.0, "osm_oneway": "True", "osm_distance": 4.6055740978914859, "osm_maxspeed": 112.6538, "osmid": 26961658.0 }, "geometry": { "type": "Point", "coordinates": [ -3.201983439, 51.460247944 ] } },
{ "type": "Feature", "properties": { "AADT": 56653, "TR_AADT": 1993, "2W_AADT": 362, "raw_name": "A4232", "raw_oneway": true, "raw_direction": "LA Boundary-->A4055", "raw_techno": "Dependent on a neighbouring counted link", "osm_name": null, "osm_type": "primary_link", "osm_lanes": null, "osm_oneway": "True", "osm_distance": 1.7083773784407814, "osm_maxspeed": 112.6538, "osmid": 4822606.0 }, "geometry": { "type": "Point", "coordinates": [ -3.188718705, 51.45386404 ] } },
{ "type": "Feature", "properties": { "AADT": 13555, "TR_AADT": 193, "2W_AADT": 57, "raw_name": "A470", "raw_oneway": true, "raw_direction": "Herbert St-->Bute Terrace", "raw_techno": "Estimated using previous year's AADF on this link", "osm_name": "Bute Street", "osm_type": "primary", "osm_lanes": 2.0, "osm_oneway": null, "osm_distance": 7.9622138581107995, "osm_maxspeed": 32.1868, "osmid": 4817226.0 }, "geometry": { "type": "Point", "coordinates": [ -3.173752205, 51.476359833 ] } },
{ "type": "Feature", "properties": { "AADT": 9696, "TR_AADT": 65, "2W_AADT": 68, "raw_name": "A4119", "raw_oneway": true, "raw_direction": "B4262 Heol Isaf-->LA Boundary", "raw_techno": "Estimated using previous year's AADF on this link", "osm_name": "Llantrisant Road", "osm_type": "primary", "osm_lanes": 2.0, "osm_oneway": null, "osm_distance": 3.6413051579173676, "osm_maxspeed": 96.5604, "osmid": 103953537.0 }, "geometry": { "type": "Point", "coordinates": [ -3.298299263, 51.511554182 ] } },
{ "type": "Feature", "properties": { "AADT": 6906, "TR_AADT": 39, "2W_AADT": 58, "raw_name": "A4054", "raw_oneway": true, "raw_direction": "Pantmawr Rd-->M4", "raw_techno": "Estimated from nearby links", "osm_name": "Pendwyallt Road", "osm_type": "primary", "osm_lanes": 2.0, "osm_oneway": null, "osm_distance": 4.4348767899572099, "osm_maxspeed": 32.1868, "osmid": 963438597.0 }, "geometry": { "type": "Point", "coordinates": [ -3.237237511, 51.523634034 ] } },
{ "type": "Feature", "properties": { "AADT": 31706, "TR_AADT": 474, "2W_AADT": 154, "raw_name": "A470", "raw_oneway": true, "raw_direction": "Pantmawr Rd-->M4", "raw_techno": "Estimated from nearby links", "osm_name": "Northern Avenue", "osm_type": "trunk", "osm_lanes": 2.0, "osm_oneway": "True", "osm_distance": 2.5001649840600657, "osm_maxspeed": 64.3736, "osmid": 1106993925.0 }, "geometry": { "type": "Point", "coordinates": [ -3.232374431, 51.52503402 ] } },
{ "type": "Feature", "properties": { "AADT": 26275, "TR_AADT": 901, "2W_AADT": 87, "raw_name": "A4232", "raw_oneway": true, "raw_direction": "A48-->road to Llanedeyrn", "raw_techno": "Estimated from nearby links", "osm_name": "Pentwyn Link Road", "osm_type": "primary", "osm_lanes": 2.0, "osm_oneway": "True", "osm_distance": 3.8180825542648185, "osm_maxspeed": 64.3736, "osmid": 4440889.0 }, "geometry": { "type": "Point", "coordinates": [ -3.129612335, 51.531463892 ] } },
{ "type": "Feature", "properties": { "AADT": 16252, "TR_AADT": 97, "2W_AADT": 112, "raw_name": "A469", "raw_oneway": true, "raw_direction": "LA Boundary-->Excalibur Drive", "raw_techno": "Estimated using previous year's AADF on this link", "osm_name": "Thornhill Road", "osm_type": "primary", "osm_lanes": 2.0, "osm_oneway": "False", "osm_distance": 3.8952050251679382, "osm_maxspeed": 64.3736, "osmid": 118579163.0 }, "geometry": { "type": "Point", "coordinates": [ -3.208783432, 51.548658368 ] } },
{ "type": "Feature", "properties": { "AADT": 4674, "TR_AADT": 100, "2W_AADT": 2, "raw_name": "A470", "raw_oneway": true, "raw_direction": "A4161-->A4160", "raw_techno": "Estimated using previous year's AADF on this link", "osm_name": "Guildhall Place", "osm_type": "unclassified", "osm_lanes": null, "osm_oneway": "True", "osm_distance": 12.586011356854035, "osm_maxspeed": null, "osmid": 24535853.0 }, "geometry": { "type": "Point", "coordinates": [ -3.179166711, 51.479722429 ] } },
{ "type": "Feature", "properties": { "AADT": 2913, "TR_AADT": 57, "2W_AADT": 7, "raw_name": "A470", "raw_oneway": true, "raw_direction": "Hemingway Rd/Heol Hemingway-->Bute St", "raw_techno": "Estimated using previous year's AADF on this link", "osm_name": "Lloyd George Avenue", "osm_type": "primary", "osm_lanes": 2.0, "osm_oneway": "True", "osm_distance": 5.5819157678133404, "osm_maxspeed": 32.1868, "osmid": 924981017.0 }, "geometry": { "type": "Point", "coordinates": [ -3.167524649, 51.469318399 ] } },
{ "type": "Feature", "properties": { "AADT": 60542, "TR_AADT": 2795, "2W_AADT": 366, "raw_name": "A4232", "raw_oneway": true, "raw_direction": "M4 Junction 33-->A48 / A4050", "raw_techno": "Estimated using previous year's AADF on this link", "osm_name": null, "osm_type": "trunk", "osm_lanes": 2.0, "osm_oneway": "True", "osm_distance": 0.016442648107541778, "osm_maxspeed": 112.6538, "osmid": 4822504.0 }, "geometry": { "type": "Point", "coordinates": [ -3.280440959, 51.475962473 ] } },
{ "type": "Feature", "properties": { "AADT": 51673, "TR_AADT": 1360, "2W_AADT": 298, "raw_name": "A4232", "raw_oneway": true, "raw_direction": "Roundabout where A4232 meets with A4055-->Roundabout where A4232 meets with A4234 Central Link", "raw_techno": "Estimated using previous year's AADF on this link", "osm_name": "Butetown Link", "osm_type": "primary", "osm_lanes": 2.0, "osm_oneway": "True", "osm_distance": 0.43896044610267582, "osm_maxspeed": 112.6538, "osmid": 51080870.0 }, "geometry": { "type": "Point", "coordinates": [ -3.177085684, 51.457623181 ] } },
{ "type": "Feature", "properties": { "AADT": 27369, "TR_AADT": 939, "2W_AADT": 90, "raw_name": "A4232", "raw_oneway": true, "raw_direction": "A48-->M4 Junction 30", "raw_techno": "Manual count", "osm_name": "Pentwyn Link Road", "osm_type": "primary", "osm_lanes": 2.0, "osm_oneway": "True", "osm_distance": 0.89752451306603953, "osm_maxspeed": 64.3736, "osmid": 25653355.0 }, "geometry": { "type": "Point", "coordinates": [ -3.127439497, 51.53687988 ] } },
{ "type": "Feature", "properties": { "AADT": 84152, "TR_AADT": 8374, "2W_AADT": 237, "raw_name": "M4", "raw_oneway": true, "raw_direction": "32-->30", "raw_techno": "Estimated using previous year's AADF on this link", "osm_name": null, "osm_type": "motorway", "osm_lanes": 3.0, "osm_oneway": "True", "osm_distance": 7.9955631679564805, "osm_maxspeed": 112.6538, "osmid": 2954565.0 }, "geometry": { "type": "Point", "coordinates": [ -3.218999985, 51.534300549 ] } },
{ "type": "Feature", "properties": { "AADT": 17018, "TR_AADT": 128, "2W_AADT": 95, "raw_name": "A469", "raw_oneway": true, "raw_direction": "B4562-->Excalibur Drive", "raw_techno": "Manual count", "osm_name": null, "osm_type": "service", "osm_lanes": null, "osm_oneway": null, "osm_distance": 2.3425495604236177, "osm_maxspeed": null, "osmid": 1095372686.0 }, "geometry": { "type": "Point", "coordinates": [ -3.202716485, 51.525872432 ] } },
{ "type": "Feature", "properties": { "AADT": 56653, "TR_AADT": 1993, "2W_AADT": 362, "raw_name": "A4232", "raw_oneway": true, "raw_direction": "LA Boundary-->LA Boundary", "raw_techno": "Dependent on a neighbouring counted link", "osm_name": "Grangetown Link", "osm_type": "primary", "osm_lanes": 2.0, "osm_oneway": "True", "osm_distance": 0.25730193371157051, "osm_maxspeed": 112.6538, "osmid": 26961650.0 }, "geometry": { "type": "Point", "coordinates": [ -3.201801746, 51.458811092 ] } },
{ "type": "Feature", "properties": { "AADT": 17810, "TR_AADT": 279, "2W_AADT": 156, "raw_name": "A4160", "raw_oneway": true, "raw_direction": "A470-->A4234", "raw_techno": "Estimated using previous year's AADF on this link", "osm_name": "Bute Terrace", "osm_type": "primary", "osm_lanes": 2.0, "osm_oneway": "True", "osm_distance": 0.98549230397228749, "osm_maxspeed": 48.2802, "osmid": 227827796.0 }, "geometry": { "type": "Point", "coordinates": [ -3.172353441, 51.477965399 ] } },
{ "type": "Feature", "properties": { "AADT": 45418, "TR_AADT": 999, "2W_AADT": 179, "raw_name": "A4234", "raw_oneway": true, "raw_direction": "A4232-->A4160", "raw_techno": "Estimated using previous year's AADF on this link", "osm_name": null, "osm_type": "primary", "osm_lanes": 2.0, "osm_oneway": "True", "osm_distance": 0.5177082343032664, "osm_maxspeed": 80.467, "osmid": 23422274.0 }, "geometry": { "type": "Point", "coordinates": [ -3.161554727, 51.472345038 ] } },
{ "type": "Feature", "properties": { "AADT": 33357, "TR_AADT": 659, "2W_AADT": 92, "raw_name": "A4055", "raw_oneway": true, "raw_direction": "LA Boundary-->A4232", "raw_techno": "Manual count", "osm_name": "Cogan Spur", "osm_type": "primary", "osm_lanes": 2.0, "osm_oneway": "True", "osm_distance": 7.8394996993846133, "osm_maxspeed": 64.3736, "osmid": 84842226.0 }, "geometry": { "type": "Point", "coordinates": [ -3.185164164, 51.44998853 ] } },
{ "type": "Feature", "properties": { "AADT": 4785, "TR_AADT": 41, "2W_AADT": 27, "raw_name": "B4562", "raw_oneway": true, "raw_direction": null, "raw_techno": "Manual count", "osm_name": "Lisvane Road", "osm_type": "tertiary", "osm_lanes": null, "osm_oneway": null, "osm_distance": 0.38257903999234971, "osm_maxspeed": 32.1868, "osmid": 43706597.0 }, "geometry": { "type": "Point", "coordinates": [ -3.168985275, 51.538811052 ] } },
{ "type": "Feature", "properties": { "AADT": 6779, "TR_AADT": 32, "2W_AADT": 13, "raw_name": "B4562", "raw_oneway": true, "raw_direction": null, "raw_techno": "Manual count", "osm_name": "Tŷ Glas Road", "osm_type": "secondary", "osm_lanes": 2.0, "osm_oneway": "False", "osm_distance": 0.86581191981603023, "osm_maxspeed": 32.1868, "osmid": 4968832.0 }, "geometry": { "type": "Point", "coordinates": [ -3.191429003, 51.528613264 ] } },
{ "type": "Feature", "properties": { "AADT": 11385, "TR_AADT": 85, "2W_AADT": 36, "raw_name": "B4262", "raw_oneway": true, "raw_direction": null, "raw_techno": "Manual count", "osm_name": "Tŷ Nant Road", "osm_type": "secondary", "osm_lanes": 2.0, "osm_oneway": null, "osm_distance": 9.0214539799053348, "osm_maxspeed": 32.1868, "osmid": 407830489.0 }, "geometry": { "type": "Point", "coordinates": [ -3.25945251, 51.528945583 ] } },
{ "type": "Feature", "properties": { "AADT": 6950, "TR_AADT": 32, "2W_AADT": 36, "raw_name": "C", "raw_oneway": true, "raw_direction": null, "raw_techno": "Manual count", "osm_name": "Castle Hill", "osm_type": "tertiary", "osm_lanes": null, "osm_oneway": null, "osm_distance": 1.1654299838345872, "osm_maxspeed": 32.1868, "osmid": 1383302730.0 }, "geometry": { "type": "Point", "coordinates": [ -3.269338126, 51.485264032 ] } },
{ "type": "Feature", "properties": { "AADT": 4547, "TR_AADT": 28, "2W_AADT": 30, "raw_name": "C", "raw_oneway": true, "raw_direction": null, "raw_techno": "Manual count", "osm_name": "Grand Avenue", "osm_type": "service", "osm_lanes": null, "osm_oneway": "True", "osm_distance": 3.0904380502387525, "osm_maxspeed": null, "osmid": 42765359.0 }, "geometry": { "type": "Point", "coordinates": [ -3.244818058, 51.481291721 ] } },
{ "type": "Feature", "properties": { "AADT": 3602, "TR_AADT": 25, "2W_AADT": 5, "raw_name": "C", "raw_oneway": true, "raw_direction": null, "raw_techno": "Manual count", "osm_name": "Mill Road", "osm_type": "residential", "osm_lanes": null, "osm_oneway": null, "osm_distance": 0.29416617704908787, "osm_maxspeed": 32.1868, "osmid": 122024190.0 }, "geometry": { "type": "Point", "coordinates": [ -3.178369923, 51.538168645 ] } },
{ "type": "Feature", "properties": { "AADT": 8105, "TR_AADT": 34, "2W_AADT": 24, "raw_name": "C", "raw_oneway": true, "raw_direction": null, "raw_techno": "Manual count", "osm_name": "Glyn Coed Road", "osm_type": "tertiary", "osm_lanes": null, "osm_oneway": "True", "osm_distance": 0.60982074952713483, "osm_maxspeed": 32.1868, "osmid": 1314089772.0 }, "geometry": { "type": "Point", "coordinates": [ -3.153562134, 51.519631317 ] } },
{ "type": "Feature", "properties": { "AADT": 1767, "TR_AADT": 14, "2W_AADT": 3, "raw_name": "C", "raw_oneway": true, "raw_direction": null, "raw_techno": "Manual count", "osm_name": "Velindre Road", "osm_type": "residential", "osm_lanes": 2.0, "osm_oneway": null, "osm_distance": 0.91545036863938878, "osm_maxspeed": 32.1868, "osmid": 1385761407.0 }, "geometry": { "type": "Point", "coordinates": [ -3.233544189, 51.514447247 ] } },
{ "type": "Feature", "properties": { "AADT": 2669, "TR_AADT": 31, "2W_AADT": 19, "raw_name": "C", "raw_oneway": true, "raw_direction": null, "raw_techno": "Manual count", "osm_name": "Habershon Street", "osm_type": "residential", "osm_lanes": 2.0, "osm_oneway": "False", "osm_distance": 0.9144163413914902, "osm_maxspeed": 32.1868, "osmid": 24005557.0 }, "geometry": { "type": "Point", "coordinates": [ -3.148370978, 51.484578022 ] } },
{ "type": "Feature", "properties": { "AADT": 8250, "TR_AADT": 110, "2W_AADT": 37, "raw_name": "C", "raw_oneway": true, "raw_direction": null, "raw_techno": "Manual count", "osm_name": "Michaelston Road", "osm_type": "tertiary", "osm_lanes": null, "osm_oneway": null, "osm_distance": 0.72776830744549859, "osm_maxspeed": 32.1868, "osmid": 51070554.0 }, "geometry": { "type": "Point", "coordinates": [ -3.268902946, 51.471663863 ] } },
{ "type": "Feature", "properties": { "AADT": 4862, "TR_AADT": 31, "2W_AADT": 20, "raw_name": "C", "raw_oneway": true, "raw_direction": null, "raw_techno": "Manual count", "osm_name": "Pantmawr Road", "osm_type": "tertiary", "osm_lanes": null, "osm_oneway": "False", "osm_distance": 1.3542085882081598, "osm_maxspeed": 32.1868, "osmid": 26200206.0 }, "geometry": { "type": "Point", "coordinates": [ -3.230556828, 51.523380613 ] } },
{ "type": "Feature", "properties": { "AADT": 2079, "TR_AADT": 33, "2W_AADT": 7, "raw_name": "U", "raw_oneway": true, "raw_direction": null, "raw_techno": "Manual count", "osm_name": "Watkiss Way", "osm_type": "unclassified", "osm_lanes": 2.0, "osm_oneway": null, "osm_distance": 0.045002460495053881, "osm_maxspeed": null, "osmid": 43391387.0 }, "geometry": { "type": "Point", "coordinates": [ -3.184375305, 51.448422909 ] } },
{ "type": "Feature", "properties": { "AADT": 849, "TR_AADT": 37, "2W_AADT": 0, "raw_name": "U", "raw_oneway": true, "raw_direction": null, "raw_techno": "Manual count", "osm_name": "East Moors Road", "osm_type": "unclassified", "osm_lanes": null, "osm_oneway": null, "osm_distance": 1.3413447466830608, "osm_maxspeed": 32.1868, "osmid": 62012741.0 }, "geometry": { "type": "Point", "coordinates": [ -3.161348336, 51.476690178 ] } },
{ "type": "Feature", "properties": { "AADT": 402, "TR_AADT": 0, "2W_AADT": 4, "raw_name": "U", "raw_oneway": true, "raw_direction": null, "raw_techno": "Manual count", "osm_name": "Chartwell Drive", "osm_type": "residential", "osm_lanes": null, "osm_oneway": null, "osm_distance": 1.0224274298411777, "osm_maxspeed": null, "osmid": 122010858.0 }, "geometry": { "type": "Point", "coordinates": [ -3.173691769, 51.536237347 ] } },
{ "type": "Feature", "properties": { "AADT": 3971, "TR_AADT": 58, "2W_AADT": 15, "raw_name": "U", "raw_oneway": true, "raw_direction": null, "raw_techno": "Manual count", "osm_name": "Croescadarn Close", "osm_type": "unclassified", "osm_lanes": null, "osm_oneway": null, "osm_distance": 0.04275680855486079, "osm_maxspeed": null, "osmid": 24862352.0 }, "geometry": { "type": "Point", "coordinates": [ -3.139349577, 51.531702404 ] } },
{ "type": "Feature", "properties": { "AADT": 1401, "TR_AADT": 4, "2W_AADT": 3, "raw_name": "U", "raw_oneway": true, "raw_direction": null, "raw_techno": "Manual count", "osm_name": "Springwood", "osm_type": "residential", "osm_lanes": null, "osm_oneway": null, "osm_distance": 1.7856489042390871, "osm_maxspeed": null, "osmid": 24487012.0 }, "geometry": { "type": "Point", "coordinates": [ -3.162427212, 51.514013792 ] } },
{ "type": "Feature", "properties": { "AADT": 602, "TR_AADT": 6, "2W_AADT": 0, "raw_name": "U", "raw_oneway": true, "raw_direction": null, "raw_techno": "Manual count", "osm_name": "Miskin Street", "osm_type": "residential", "osm_lanes": null, "osm_oneway": null, "osm_distance": 0.32146737205887055, "osm_maxspeed": 32.1868, "osmid": 23723418.0 }, "geometry": { "type": "Point", "coordinates": [ -3.179248127, 51.490134244 ] } },
{ "type": "Feature", "properties": { "AADT": 1058, "TR_AADT": 10, "2W_AADT": 1, "raw_name": "U", "raw_oneway": true, "raw_direction": null, "raw_techno": "Manual count", "osm_name": "Sneyd Street", "osm_type": "residential", "osm_lanes": null, "osm_oneway": null, "osm_distance": 1.6671094060878817, "osm_maxspeed": 32.1868, "osmid": 23194955.0 }, "geometry": { "type": "Point", "coordinates": [ -3.199270424, 51.486334387 ] } },
{ "type": "Feature", "properties": { "AADT": 738, "TR_AADT": 5, "2W_AADT": 1, "raw_name": "U", "raw_oneway": true, "raw_direction": null, "raw_techno": "Manual count", "osm_name": "Fidlas Avenue", "osm_type": "residential", "osm_lanes": null, "osm_oneway": null, "osm_distance": 0.46278507977448086, "osm_maxspeed": 32.1868, "osmid": 122455192.0 }, "geometry": { "type": "Point", "coordinates": [ -3.179095628, 51.521616355 ] } },
{ "type": "Feature", "properties": { "AADT": 1151, "TR_AADT": 4, "2W_AADT": 1, "raw_name": "U", "raw_oneway": true, "raw_direction": null, "raw_techno": "Manual count", "osm_name": "Lon y Dail", "osm_type": "residential", "osm_lanes": null, "osm_oneway": null, "osm_distance": 0.43604464770181794, "osm_maxspeed": 32.1868, "osmid": 26200102.0 }, "geometry": { "type": "Point", "coordinates": [ -3.215622524, 51.523338539 ] } },
{ "type": "Feature", "properties": { "AADT": 745, "TR_AADT": 13, "2W_AADT": 2, "raw_name": "U", "raw_oneway": true, "raw_direction": null, "raw_techno": "Manual count", "osm_name": "Goldcrest Drive", "osm_type": "residential", "osm_lanes": 2.0, "osm_oneway": "False", "osm_distance": 1.1464970696004531, "osm_maxspeed": 32.1868, "osmid": 120706892.0 }, "geometry": { "type": "Point", "coordinates": [ -3.15491265, 51.523448549 ] } },
{ "type": "Feature", "properties": { "AADT": 638, "TR_AADT": 0, "2W_AADT": 2, "raw_name": "U", "raw_oneway": true, "raw_direction": null, "raw_techno": "Estimated using previous year's AADF on this link", "osm_name": "Railway Street", "osm_type": "residential", "osm_lanes": null, "osm_oneway": null, "osm_distance": 0.0091224650315507912, "osm_maxspeed": 32.1868, "osmid": 114000808.0 }, "geometry": { "type": "Point", "coordinates": [ -3.149805092, 51.48719859 ] } },
{ "type": "Feature", "properties": { "AADT": 656, "TR_AADT": 4, "2W_AADT": 1, "raw_name": "U", "raw_oneway": true, "raw_direction": null, "raw_techno": "Manual count", "osm_name": "Harrison Drive", "osm_type": "residential", "osm_lanes": null, "osm_oneway": null, "osm_distance": 0.74199870999318451, "osm_maxspeed": null, "osmid": 28051778.0 }, "geometry": { "type": "Point", "coordinates": [ -3.092639546, 51.518470333 ] } },
{ "type": "Feature", "properties": { "AADT": 806, "TR_AADT": 8, "2W_AADT": 0, "raw_name": "U", "raw_oneway": true, "raw_direction": null, "raw_techno": "Manual count", "osm_name": "Heol Newydd", "osm_type": "residential", "osm_lanes": null, "osm_oneway": null, "osm_distance": 0.26346471017424894, "osm_maxspeed": null, "osmid": 120322542.0 }, "geometry": { "type": "Point", "coordinates": [ -3.110687553, 51.512096437 ] } },
{ "type": "Feature", "properties": { "AADT": 962, "TR_AADT": 5, "2W_AADT": 1, "raw_name": "U", "raw_oneway": true, "raw_direction": null, "raw_techno": "Manual count", "osm_name": "Heritage Park", "osm_type": "residential", "osm_lanes": 2.0, "osm_oneway": "False", "osm_distance": 0.45702514592382348, "osm_maxspeed": 48.2802, "osmid": 27628469.0 }, "geometry": { "type": "Point", "coordinates": [ -3.098539112, 51.528252247 ] } },
{ "type": "Feature", "properties": { "AADT": 317, "TR_AADT": 0, "2W_AADT": 0, "raw_name": "U", "raw_oneway": true, "raw_direction": null, "raw_techno": "Manual count", "osm_name": "Rawden Place", "osm_type": "residential", "osm_lanes": null, "osm_oneway": null, "osm_distance": 0.40937769784102646, "osm_maxspeed": 32.1868, "osmid": 23126270.0 }, "geometry": { "type": "Point", "coordinates": [ -3.189950628, 51.480197944 ] } },
{ "type": "Feature", "properties": { "AADT": 2759, "TR_AADT": 19, "2W_AADT": 20, "raw_name": "U", "raw_oneway": true, "raw_direction": null, "raw_techno": "Manual count", "osm_name": "Norbury Road", "osm_type": "residential", "osm_lanes": 2.0, "osm_oneway": "False", "osm_distance": 0.60845607335713059, "osm_maxspeed": 32.1868, "osmid": 262085947.0 }, "geometry": { "type": "Point", "coordinates": [ -3.231214427, 51.487370061 ] } },
{ "type": "Feature", "properties": { "AADT": 417, "TR_AADT": 0, "2W_AADT": 0, "raw_name": "U", "raw_oneway": true, "raw_direction": null, "raw_techno": "Manual count", "osm_name": "Trecastle Avenue", "osm_type": "residential", "osm_lanes": null, "osm_oneway": null, "osm_distance": 0.53645688585559947, "osm_maxspeed": 32.1868, "osmid": 26235267.0 }, "geometry": { "type": "Point", "coordinates": [ -3.192538878, 51.53081398 ] } },
{ "type": "Feature", "properties": { "AADT": 1609, "TR_AADT": 15, "2W_AADT": 6, "raw_name": "U", "raw_oneway": true, "raw_direction": null, "raw_techno": "Manual count", "osm_name": "Carisbrooke Way", "osm_type": "residential", "osm_lanes": null, "osm_oneway": null, "osm_distance": 0.61731792734118562, "osm_maxspeed": 32.1868, "osmid": 24484474.0 }, "geometry": { "type": "Point", "coordinates": [ -3.16308423, 51.506993625 ] } },
{ "type": "Feature", "properties": { "AADT": 336, "TR_AADT": 5, "2W_AADT": 0, "raw_name": "U", "raw_oneway": true, "raw_direction": null, "raw_techno": "Manual count", "osm_name": "Aberbran Road", "osm_type": "residential", "osm_lanes": null, "osm_oneway": null, "osm_distance": 0.26867409608151693, "osm_maxspeed": null, "osmid": 24319352.0 }, "geometry": { "type": "Point", "coordinates": [ -3.210225798, 51.501373203 ] } },
{ "type": "Feature", "properties": { "AADT": 762, "TR_AADT": 133, "2W_AADT": 4, "raw_name": "U", "raw_oneway": true, "raw_direction": null, "raw_techno": "Estimated using previous year's AADF on this link", "osm_name": "Curran Embankment", "osm_type": "unclassified", "osm_lanes": null, "osm_oneway": null, "osm_distance": 0.29877417865883593, "osm_maxspeed": null, "osmid": 24032731.0 }, "geometry": { "type": "Point", "coordinates": [ -3.180426262, 51.471059519 ] } },
{ "type": "Feature", "properties": { "AADT": 1694, "TR_AADT": 14, "2W_AADT": 16, "raw_name": "U", "raw_oneway": true, "raw_direction": null, "raw_techno": "Manual count", "osm_name": "King Edward VII Avenue", "osm_type": "unclassified", "osm_lanes": null, "osm_oneway": null, "osm_distance": 1.4229477152004588, "osm_maxspeed": null, "osmid": 404604700.0 }, "geometry": { "type": "Point", "coordinates": [ -3.18120717, 51.486239012 ] } },
{ "type": "Feature", "properties": { "AADT": 489, "TR_AADT": 1, "2W_AADT": 0, "raw_name": "U", "raw_oneway": true, "raw_direction": null, "raw_techno": "Manual count", "osm_name": "Westville Road", "osm_type": "residential", "osm_lanes": 2.0, "osm_oneway": "False", "osm_distance": 0.85716457813680325, "osm_maxspeed": 48.2802, "osmid": 222400601.0 }, "geometry": { "type": "Point", "coordinates": [ -3.157832947, 51.495374141 ] } },
{ "type": "Feature", "properties": { "AADT": 181, "TR_AADT": 0, "2W_AADT": 0, "raw_name": "U", "raw_oneway": true, "raw_direction": null, "raw_techno": "Manual count", "osm_name": "Victoria Avenue", "osm_type": "residential", "osm_lanes": null, "osm_oneway": null, "osm_distance": 0.55421551770583966, "osm_maxspeed": 32.1868, "osmid": 24298029.0 }, "geometry": { "type": "Point", "coordinates": [ -3.216588168, 51.48547258 ] } },
{ "type": "Feature", "properties": { "AADT": 782, "TR_AADT": 7, "2W_AADT": 3, "raw_name": "U", "raw_oneway": true, "raw_direction": null, "raw_techno": "Manual count", "osm_name": "Tewkesbury Street", "osm_type": "residential", "osm_lanes": null, "osm_oneway": null, "osm_distance": 0.10660059651414826, "osm_maxspeed": 32.1868, "osmid": 48514965.0 }, "geometry": { "type": "Point", "coordinates": [ -3.179880938, 51.496790876 ] } },
{ "type": "Feature", "properties": { "AADT": 1721, "TR_AADT": 12, "2W_AADT": 5, "raw_name": "U", "raw_oneway": true, "raw_direction": null, "raw_techno": "Manual count", "osm_name": "Oakfield Street", "osm_type": "residential", "osm_lanes": null, "osm_oneway": null, "osm_distance": 0.43186680694302776, "osm_maxspeed": 32.1868, "osmid": 26587943.0 }, "geometry": { "type": "Point", "coordinates": [ -3.161152736, 51.489964163 ] } },
{ "type": "Feature", "properties": { "AADT": 1933, "TR_AADT": 2, "2W_AADT": 4, "raw_name": "U", "raw_oneway": true, "raw_direction": null, "raw_techno": "Manual count", "osm_name": "Alder Road", "osm_type": "unclassified", "osm_lanes": null, "osm_oneway": null, "osm_distance": 0.57181704669142752, "osm_maxspeed": 32.1868, "osmid": 44285994.0 }, "geometry": { "type": "Point", "coordinates": [ -3.170568152, 51.499905491 ] } },
{ "type": "Feature", "properties": { "AADT": 490, "TR_AADT": 15, "2W_AADT": 3, "raw_name": "U", "raw_oneway": true, "raw_direction": null, "raw_techno": "Manual count", "osm_name": "Glynrhondda Street", "osm_type": "residential", "osm_lanes": null, "osm_oneway": null, "osm_distance": 0.22003599252014958, "osm_maxspeed": 32.1868, "osmid": 23739494.0 }, "geometry": { "type": "Point", "coordinates": [ -3.174905843, 51.488190627 ] } },
{ "type": "Feature", "properties": { "AADT": 1921, "TR_AADT": 8, "2W_AADT": 3, "raw_name": "U", "raw_oneway": true, "raw_direction": null, "raw_techno": "Manual count", "osm_name": "Heol Tŷ'n y Coed", "osm_type": "residential", "osm_lanes": null, "osm_oneway": null, "osm_distance": 3.6341578794854152, "osm_maxspeed": 32.1868, "osmid": 26200312.0 }, "geometry": { "type": "Point", "coordinates": [ -3.207747356, 51.526962701 ] } },
{ "type": "Feature", "properties": { "AADT": 256, "TR_AADT": 2, "2W_AADT": 4, "raw_name": "U", "raw_oneway": true, "raw_direction": null, "raw_techno": "Manual count", "osm_name": "Sevenoaks Road", "osm_type": "residential", "osm_lanes": null, "osm_oneway": null, "osm_distance": 1.263676836428846, "osm_maxspeed": null, "osmid": 22821132.0 }, "geometry": { "type": "Point", "coordinates": [ -3.260288106, 51.476189844 ] } },
{ "type": "Feature", "properties": { "AADT": 397, "TR_AADT": 3, "2W_AADT": 0, "raw_name": "U", "raw_oneway": true, "raw_direction": null, "raw_techno": "Manual count", "osm_name": "Rannoch Drive", "osm_type": "residential", "osm_lanes": null, "osm_oneway": null, "osm_distance": 0.69766184344895465, "osm_maxspeed": 32.1868, "osmid": 24486926.0 }, "geometry": { "type": "Point", "coordinates": [ -3.166114815, 51.517897631 ] } },
{ "type": "Feature", "properties": { "AADT": 48, "TR_AADT": 0, "2W_AADT": 1, "raw_name": "U", "raw_oneway": true, "raw_direction": null, "raw_techno": "Estimated using previous year's AADF on this link", "osm_name": "Brunswick Street", "osm_type": "residential", "osm_lanes": null, "osm_oneway": null, "osm_distance": 1.1730616475523563, "osm_maxspeed": 32.1868, "osmid": 50478415.0 }, "geometry": { "type": "Point", "coordinates": [ -3.210717727, 51.480794597 ] } },
{ "type": "Feature", "properties": { "AADT": 1750, "TR_AADT": 13, "2W_AADT": 10, "raw_name": "U", "raw_oneway": true, "raw_direction": null, "raw_techno": "Manual count", "osm_name": "Hollybush Road", "osm_type": "residential", "osm_lanes": 2.0, "osm_oneway": "False", "osm_distance": 0.52078247692880675, "osm_maxspeed": 32.1868, "osmid": 1314085516.0 }, "geometry": { "type": "Point", "coordinates": [ -3.15346938, 51.521664385 ] } },
{ "type": "Feature", "properties": { "AADT": 1974, "TR_AADT": 12, "2W_AADT": 2, "raw_name": "U", "raw_oneway": true, "raw_direction": null, "raw_techno": "Manual count", "osm_name": "Heol Y Forlan", "osm_type": "residential", "osm_lanes": null, "osm_oneway": null, "osm_distance": 0.22210912834224195, "osm_maxspeed": null, "osmid": 24352370.0 }, "geometry": { "type": "Point", "coordinates": [ -3.219110808, 51.516864138 ] } },
{ "type": "Feature", "properties": { "AADT": 554, "TR_AADT": 7, "2W_AADT": 1, "raw_name": "U", "raw_oneway": true, "raw_direction": null, "raw_techno": "Manual count", "osm_name": "Matthysens Way", "osm_type": "residential", "osm_lanes": null, "osm_oneway": null, "osm_distance": 0.88073996802356402, "osm_maxspeed": null, "osmid": 122302618.0 }, "geometry": { "type": "Point", "coordinates": [ -3.095103775, 51.515453076 ] } },
{ "type": "Feature", "properties": { "AADT": 779, "TR_AADT": 7, "2W_AADT": 6, "raw_name": "U", "raw_oneway": true, "raw_direction": null, "raw_techno": "Manual count", "osm_name": "Glenwood", "osm_type": "residential", "osm_lanes": null, "osm_oneway": null, "osm_distance": 0.082721939445626363, "osm_maxspeed": null, "osmid": 24487160.0 }, "geometry": { "type": "Point", "coordinates": [ -3.159028148, 51.51863328 ] } },
{ "type": "Feature", "properties": { "AADT": 338, "TR_AADT": 0, "2W_AADT": 0, "raw_name": "U", "raw_oneway": true, "raw_direction": null, "raw_techno": "Manual count", "osm_name": "Alwen Drive", "osm_type": "residential", "osm_lanes": 2.0, "osm_oneway": "False", "osm_distance": 2.495195739229302, "osm_maxspeed": 48.2802, "osmid": 122193013.0 }, "geometry": { "type": "Point", "coordinates": [ -3.188977167, 51.544059157 ] } },
{ "type": "Feature", "properties": { "AADT": 7000, "TR_AADT": 36, "2W_AADT": 50, "raw_name": "B4487", "raw_oneway": true, "raw_direction": null, "raw_techno": "Manual count", "osm_name": "Broadway", "osm_type": "secondary", "osm_lanes": 2.0, "osm_oneway": null, "osm_distance": 0.35357981041700581, "osm_maxspeed": 32.1868, "osmid": 23921469.0 }, "geometry": { "type": "Point", "coordinates": [ -3.151122002, 51.490305853 ] } },
{ "type": "Feature", "properties": { "AADT": 8184, "TR_AADT": 176, "2W_AADT": 50, "raw_name": "C", "raw_oneway": true, "raw_direction": null, "raw_techno": "Estimated using previous year's AADF on this link", "osm_name": "Wood Street", "osm_type": "tertiary", "osm_lanes": 2.0, "osm_oneway": null, "osm_distance": 1.561691959951101, "osm_maxspeed": null, "osmid": 43354943.0 }, "geometry": { "type": "Point", "coordinates": [ -3.180491688, 51.476939582 ] } },
{ "type": "Feature", "properties": { "AADT": 1907, "TR_AADT": 40, "2W_AADT": 3, "raw_name": "C", "raw_oneway": true, "raw_direction": null, "raw_techno": "Manual count", "osm_name": "Heol Trelai", "osm_type": "residential", "osm_lanes": null, "osm_oneway": "True", "osm_distance": 0.0064704995132124424, "osm_maxspeed": null, "osmid": 45552137.0 }, "geometry": { "type": "Point", "coordinates": [ -3.238540681, 51.473373338 ] } },
{ "type": "Feature", "properties": { "AADT": 1421, "TR_AADT": 6, "2W_AADT": 27, "raw_name": "U", "raw_oneway": true, "raw_direction": null, "raw_techno": "Manual count", "osm_name": "Harris Avenue", "osm_type": "residential", "osm_lanes": null, "osm_oneway": null, "osm_distance": 0.20275496293540746, "osm_maxspeed": null, "osmid": 24844860.0 }, "geometry": { "type": "Point", "coordinates": [ -3.114284683, 51.513051414 ] } },
{ "type": "Feature", "properties": { "AADT": 561, "TR_AADT": 6, "2W_AADT": 0, "raw_name": "U", "raw_oneway": true, "raw_direction": null, "raw_techno": "Manual count", "osm_name": "Rachel Close", "osm_type": "residential", "osm_lanes": null, "osm_oneway": null, "osm_distance": 0.87424361452509236, "osm_maxspeed": null, "osmid": 54937299.0 }, "geometry": { "type": "Point", "coordinates": [ -3.241154973, 51.504430869 ] } }
]
}
