{
"type": "FeatureCollection",
"name": "Hamburg_AADT_AAWT_2018",
"crs": { "type": "name", "properties": { "name": "urn:ogc:def:crs:OGC:1.3:CRS84" } },
"features": [
{ "type": "Feature", "properties": { "AADT": 51000.0, "AAWT": 56000.0, "TR_pct_AAWT": 5.0, "raw_name": "Krohnstieg NO Garstedter Weg", "osm_name": "Krohnstieg", "osm_type": "trunk", "osm_lanes": 3.0, "osm_oneway": "True", "osm_distance": 3.8485406193767755, "osm_maxspeed": 60.0, "osmid": 911730207.0 }, "geometry": { "type": "Point", "coordinates": [ 9.975571801620166, 53.645786024326448 ] } },
{ "type": "Feature", "properties": { "AADT": 12000.0, "AAWT": 14000.0, "TR_pct_AAWT": 4.0, "raw_name": "Garstedter Weg SW Krohnstieg", "osm_name": "Garstedter Weg", "osm_type": "secondary", "osm_lanes": 2.0, "osm_oneway": "True", "osm_distance": 2.1667715166833665, "osm_maxspeed": 50.0, "osmid": 1302476473.0 }, "geometry": { "type": "Point", "coordinates": [ 9.974236219947695, 53.644942960647612 ] } },
{ "type": "Feature", "properties": { "AADT": 42000.0, "AAWT": 45000.0, "TR_pct_AAWT": 5.0, "raw_name": "Swebenweg W Krohnstieg", "osm_name": "Swebenweg", "osm_type": "primary", "osm_lanes": 2.0, "osm_oneway": "True", "osm_distance": 4.1953220859012923, "osm_maxspeed": 70.0, "osmid": 220656011.0 }, "geometry": { "type": "Point", "coordinates": [ 9.973854771998335, 53.645458427849157 ] } },
{ "type": "Feature", "properties": { "AADT": 47000.0, "AAWT": 52000.0, "TR_pct_AAWT": 4.0, "raw_name": "Zeppelinstraße N Terminalzufahrten (UFu)", "osm_name": "Zeppelinstraße", "osm_type": "trunk", "osm_lanes": 2.0, "osm_oneway": "True", "osm_distance": 6.722815722404972, "osm_maxspeed": 80.0, "osmid": 34581238.0 }, "geometry": { "type": "Point", "coordinates": [ 10.009629407555602, 53.63582263630272 ] } },
{ "type": "Feature", "properties": { "AADT": 51000.0, "AAWT": 58000.0, "TR_pct_AAWT": 4.0, "raw_name": "Kollaustraße SO Vogt-Cordes-Damm", "osm_name": "Kollaustraße", "osm_type": "primary", "osm_lanes": 3.0, "osm_oneway": "True", "osm_distance": 5.9889969910110512, "osm_maxspeed": 50.0, "osmid": 1113393902.0 }, "geometry": { "type": "Point", "coordinates": [ 9.952570520938089, 53.613269833346983 ] } },
{ "type": "Feature", "properties": { "AADT": 75000.0, "AAWT": 80000.0, "TR_pct_AAWT": 10.0, "raw_name": "A23 NW AD Hamburg-Nordwest", "osm_name": null, "osm_type": "motorway", "osm_lanes": 2.0, "osm_oneway": "True", "osm_distance": 5.9181188205932971, "osm_maxspeed": 100.0, "osmid": 46895891.0 }, "geometry": { "type": "Point", "coordinates": [ 9.908967219409531, 53.617851673099814 ] } },
{ "type": "Feature", "properties": { "AADT": 91000.0, "AAWT": 96000.0, "TR_pct_AAWT": 14.0, "raw_name": "A7 NO AD Hamburg-Nordwest", "osm_name": null, "osm_type": "motorway", "osm_lanes": 3.0, "osm_oneway": "True", "osm_distance": 8.6503279363166303, "osm_maxspeed": 80.0, "osmid": 131023303.0 }, "geometry": { "type": "Point", "coordinates": [ 9.915905828023268, 53.622014536971484 ] } },
{ "type": "Feature", "properties": { "AADT": 120000.0, "AAWT": 127000.0, "TR_pct_AAWT": 15.0, "raw_name": "A7 SO AD Hamburg-Nordwest", "osm_name": null, "osm_type": "motorway", "osm_lanes": 5.0, "osm_oneway": "True", "osm_distance": 1.0269388814596125, "osm_maxspeed": 80.0, "osmid": 1080326861.0 }, "geometry": { "type": "Point", "coordinates": [ 9.916265133077262, 53.611377995213424 ] } },
{ "type": "Feature", "properties": { "AADT": 23000.0, "AAWT": 25000.0, "TR_pct_AAWT": 6.0, "raw_name": "Luruper Hauptstraße O Engelbrechtweg (Landesgrenze)", "osm_name": "Luruper Hauptstraße", "osm_type": "primary", "osm_lanes": 2.0, "osm_oneway": "True", "osm_distance": 4.1648785810193942, "osm_maxspeed": 50.0, "osmid": 759539873.0 }, "geometry": { "type": "Point", "coordinates": [ 9.854463263513416, 53.598217155229769 ] } },
{ "type": "Feature", "properties": { "AADT": 45000.0, "AAWT": 50000.0, "TR_pct_AAWT": 6.0, "raw_name": "Fruchtallee NW Emilienstraße", "osm_name": "Fruchtallee", "osm_type": "primary", "osm_lanes": 3.0, "osm_oneway": "True", "osm_distance": 3.8199702729830718, "osm_maxspeed": 50.0, "osmid": 362847063.0 }, "geometry": { "type": "Point", "coordinates": [ 9.95259712248666, 53.571462256237353 ] } },
{ "type": "Feature", "properties": { "AADT": 35000.0, "AAWT": 37000.0, "TR_pct_AAWT": 4.0, "raw_name": "Doormannsweg SW Fruchtallee", "osm_name": "Doormannsweg", "osm_type": "primary", "osm_lanes": 3.0, "osm_oneway": "True", "osm_distance": 4.2957721685428227, "osm_maxspeed": 50.0, "osmid": 44365497.0 }, "geometry": { "type": "Point", "coordinates": [ 9.955296796530462, 53.569966542679481 ] } },
{ "type": "Feature", "properties": { "AADT": 41000.0, "AAWT": 44000.0, "TR_pct_AAWT": 6.0, "raw_name": "Habichtstraße NW Meisenstraße", "osm_name": "Habichtstraße", "osm_type": "primary", "osm_lanes": 4.0, "osm_oneway": null, "osm_distance": 0.16012005135456073, "osm_maxspeed": 50.0, "osmid": 31824201.0 }, "geometry": { "type": "Point", "coordinates": [ 10.057372050740295, 53.590816246774942 ] } },
{ "type": "Feature", "properties": { "AADT": 36000.0, "AAWT": 40000.0, "TR_pct_AAWT": 4.0, "raw_name": "Wandsbeker Marktstraße SW Wandsbeker Königstraße", "osm_name": "Wandsbeker Marktstraße", "osm_type": "primary", "osm_lanes": 6.0, "osm_oneway": null, "osm_distance": 0.22224110056268964, "osm_maxspeed": 50.0, "osmid": 39632037.0 }, "geometry": { "type": "Point", "coordinates": [ 10.062720383949005, 53.570939117477543 ] } },
{ "type": "Feature", "properties": { "AADT": 58000.0, "AAWT": 63000.0, "TR_pct_AAWT": 7.0, "raw_name": "Deichtortunnel O Meßberg", "osm_name": "Willy-Brandt-Straße", "osm_type": "primary", "osm_lanes": 2.0, "osm_oneway": "True", "osm_distance": 2.6509116747308448, "osm_maxspeed": 50.0, "osmid": 142944546.0 }, "geometry": { "type": "Point", "coordinates": [ 10.003131326850319, 53.547390149162595 ] } },
{ "type": "Feature", "properties": { "AADT": 14000.0, "AAWT": 16000.0, "TR_pct_AAWT": 4.0, "raw_name": "Oberbaumbrücke NO Poggenmühle", "osm_name": "Oberbaumbrücke", "osm_type": "secondary", "osm_lanes": 3.0, "osm_oneway": null, "osm_distance": 0.17874422080547608, "osm_maxspeed": 50.0, "osmid": 46239724.0 }, "geometry": { "type": "Point", "coordinates": [ 10.003757445844327, 53.546423072088999 ] } },
{ "type": "Feature", "properties": { "AADT": 13000.0, "AAWT": 15000.0, "TR_pct_AAWT": 7.0, "raw_name": "Überseeallee O Shanghaiallee", "osm_name": "Überseeallee", "osm_type": "secondary", "osm_lanes": 2.0, "osm_oneway": "True", "osm_distance": 4.0418665357128649, "osm_maxspeed": 50.0, "osmid": 258130590.0 }, "geometry": { "type": "Point", "coordinates": [ 10.004754650663118, 53.540733643199658 ] } },
{ "type": "Feature", "properties": { "AADT": 117000.0, "AAWT": 124000.0, "TR_pct_AAWT": 18.0, "raw_name": "A7 SO AS HH-Othmarschen (Elbtunnel)", "osm_name": null, "osm_type": "motorway", "osm_lanes": 2.0, "osm_oneway": "True", "osm_distance": 2.5154530785188687, "osm_maxspeed": 80.0, "osmid": 33817648.0 }, "geometry": { "type": "Point", "coordinates": [ 9.918966078806536, 53.541513562107639 ] } },
{ "type": "Feature", "properties": { "AADT": 33000.0, "AAWT": 40000.0, "TR_pct_AAWT": 33.0, "raw_name": "Köhlbrandbrücke O Waltershofer Damm", "osm_name": "Köhlbrandbrücke", "osm_type": "primary", "osm_lanes": 2.0, "osm_oneway": "True", "osm_distance": 2.5427730048701496, "osm_maxspeed": 50.0, "osmid": 26037500.0 }, "geometry": { "type": "Point", "coordinates": [ 9.938826969009067, 53.521790286705908 ] } },
{ "type": "Feature", "properties": { "AADT": 24000.0, "AAWT": 28000.0, "TR_pct_AAWT": 27.0, "raw_name": "Veddeler Damm O Worthdamm", "osm_name": "Veddeler Damm", "osm_type": "primary", "osm_lanes": 2.0, "osm_oneway": "True", "osm_distance": 3.4994967232078982, "osm_maxspeed": 50.0, "osmid": 31028501.0 }, "geometry": { "type": "Point", "coordinates": [ 9.981481084539936, 53.527524318170215 ] } },
{ "type": "Feature", "properties": { "AADT": 116000.0, "AAWT": 128000.0, "TR_pct_AAWT": 8.0, "raw_name": "Neue Elbbrücke NO Veddeler Marktplatz", "osm_name": null, "osm_type": "service", "osm_lanes": 2.0, "osm_oneway": "False", "osm_distance": 0.79425286401472994, "osm_maxspeed": null, "osmid": 30996532.0 }, "geometry": { "type": "Point", "coordinates": [ 10.026043723386458, 53.531833505324343 ] } },
{ "type": "Feature", "properties": { "AADT": 67000.0, "AAWT": 72000.0, "TR_pct_AAWT": 12.0, "raw_name": "B75 W AS HH-Elbinsel", "osm_name": null, "osm_type": "trunk", "osm_lanes": 3.0, "osm_oneway": "True", "osm_distance": 3.9974653767178525, "osm_maxspeed": 80.0, "osmid": 148332685.0 }, "geometry": { "type": "Point", "coordinates": [ 10.021443232991006, 53.517463443291732 ] } },
{ "type": "Feature", "properties": { "AADT": 125000.0, "AAWT": 135000.0, "TR_pct_AAWT": 17.0, "raw_name": "A1 S AD Hamburg-Norderelbe", "osm_name": null, "osm_type": "motorway", "osm_lanes": 4.0, "osm_oneway": "True", "osm_distance": 11.350452746744031, "osm_maxspeed": 100.0, "osmid": 30323341.0 }, "geometry": { "type": "Point", "coordinates": [ 10.038442886163791, 53.499644440148799 ] } },
{ "type": "Feature", "properties": { "AADT": 112000.0, "AAWT": 122000.0, "TR_pct_AAWT": 24.0, "raw_name": "A1 O AD Hamburg-Südost", "osm_name": null, "osm_type": "motorway", "osm_lanes": 3.0, "osm_oneway": "True", "osm_distance": 5.0081509399677779, "osm_maxspeed": null, "osmid": 158071119.0 }, "geometry": { "type": "Point", "coordinates": [ 10.086826698514612, 53.507475313497004 ] } },
{ "type": "Feature", "properties": { "AADT": 48000.0, "AAWT": 54000.0, "TR_pct_AAWT": 11.0, "raw_name": "A25 SO AD Hamburg-Südost", "osm_name": null, "osm_type": "motorway", "osm_lanes": 2.0, "osm_oneway": "True", "osm_distance": 4.7835199622700513, "osm_maxspeed": 100.0, "osmid": 151224444.0 }, "geometry": { "type": "Point", "coordinates": [ 10.087053650646792, 53.501612332580478 ] } },
{ "type": "Feature", "properties": { "AADT": 127000.0, "AAWT": 137000.0, "TR_pct_AAWT": 21.0, "raw_name": "A1 W AD Hamburg-Südost", "osm_name": null, "osm_type": "motorway", "osm_lanes": 3.0, "osm_oneway": "True", "osm_distance": 5.1658297688571579, "osm_maxspeed": 60.0, "osmid": 158070666.0 }, "geometry": { "type": "Point", "coordinates": [ 10.059368448419255, 53.509312878975848 ] } },
{ "type": "Feature", "properties": { "AADT": 47000.0, "AAWT": 52000.0, "TR_pct_AAWT": 8.0, "raw_name": "Europabrücke N AS HH-Neuland (B75)", "osm_name": null, "osm_type": "trunk", "osm_lanes": 2.0, "osm_oneway": "True", "osm_distance": 5.6706296606672488, "osm_maxspeed": 80.0, "osmid": 10614696.0 }, "geometry": { "type": "Point", "coordinates": [ 9.995903905735414, 53.473515598754396 ] } },
{ "type": "Feature", "properties": { "AADT": 30000.0, "AAWT": 34000.0, "TR_pct_AAWT": 6.0, "raw_name": "Buxtehuder Straße NW Bleicherweg", "osm_name": "Buxtehuder Straße", "osm_type": "primary", "osm_lanes": 4.0, "osm_oneway": null, "osm_distance": 0.30833048173180816, "osm_maxspeed": 50.0, "osmid": 1291235936.0 }, "geometry": { "type": "Point", "coordinates": [ 9.97509940338306, 53.465749804137523 ] } },
{ "type": "Feature", "properties": { "AADT": 18000.0, "AAWT": 20000.0, "TR_pct_AAWT": 3.0, "raw_name": "Tarpen W Essener Straße (Landesgrenze)", "osm_name": "Tarpen", "osm_type": "secondary", "osm_lanes": 3.0, "osm_oneway": null, "osm_distance": 0.33141033255184338, "osm_maxspeed": null, "osmid": 27051340.0 }, "geometry": { "type": "Point", "coordinates": [ 9.991159756256096, 53.666035676788908 ] } },
{ "type": "Feature", "properties": { "AADT": 6000.0, "AAWT": 7000.0, "TR_pct_AAWT": 6.0, "raw_name": "Meenkwiese W Meenkbrücke", "osm_name": "Meenkwiese", "osm_type": "tertiary", "osm_lanes": 2.0, "osm_oneway": null, "osm_distance": 0.34247311118649948, "osm_maxspeed": 50.0, "osmid": 20338755.0 }, "geometry": { "type": "Point", "coordinates": [ 9.991413302752948, 53.598787842130861 ] } },
{ "type": "Feature", "properties": { "AADT": 9000.0, "AAWT": 10000.0, "TR_pct_AAWT": 6.0, "raw_name": "Pinneberger Straße NW Siloahweg (Landesgrenze)", "osm_name": "Pinneberger Straße", "osm_type": "secondary", "osm_lanes": 2.0, "osm_oneway": null, "osm_distance": 0.50260618751672093, "osm_maxspeed": 50.0, "osmid": 1217056167.0 }, "geometry": { "type": "Point", "coordinates": [ 9.90014404663305, 53.635886983818942 ] } },
{ "type": "Feature", "properties": { "AADT": 15000.0, "AAWT": 16000.0, "TR_pct_AAWT": 3.0, "raw_name": "Holsteiner Chaussee N Schleswiger Damm (Landesgrenze)", "osm_name": "Holsteiner Chaussee", "osm_type": "primary", "osm_lanes": 3.0, "osm_oneway": null, "osm_distance": 0.1067226021168594, "osm_maxspeed": 50.0, "osmid": 762836220.0 }, "geometry": { "type": "Point", "coordinates": [ 9.907195805130835, 53.650863006116133 ] } },
{ "type": "Feature", "properties": { "AADT": 8000.0, "AAWT": 9000.0, "TR_pct_AAWT": 4.0, "raw_name": "Holsteiner Chaussee S Marek-James-Straße", "osm_name": "Holsteiner Chaussee", "osm_type": "primary", "osm_lanes": 2.0, "osm_oneway": "False", "osm_distance": 0.24066705494484947, "osm_maxspeed": 50.0, "osmid": 80982464.0 }, "geometry": { "type": "Point", "coordinates": [ 9.908420246303127, 53.645181800088359 ] } },
{ "type": "Feature", "properties": { "AADT": 9000.0, "AAWT": 10000.0, "TR_pct_AAWT": 4.0, "raw_name": "Schleswiger Damm SO Marek-James-Straße", "osm_name": "Schleswiger Damm", "osm_type": "secondary", "osm_lanes": 3.0, "osm_oneway": null, "osm_distance": 0.63104595413571729, "osm_maxspeed": 50.0, "osmid": 936656313.0 }, "geometry": { "type": "Point", "coordinates": [ 9.911658815797887, 53.645939207336106 ] } },
{ "type": "Feature", "properties": { "AADT": 27000.0, "AAWT": 30000.0, "TR_pct_AAWT": 5.0, "raw_name": "Holsteiner Chaussee S A23 AS HH-Eidelstedt", "osm_name": "Holsteiner Chaussee", "osm_type": "primary", "osm_lanes": 2.0, "osm_oneway": "True", "osm_distance": 7.7773194598470345, "osm_maxspeed": 50.0, "osmid": 38664958.0 }, "geometry": { "type": "Point", "coordinates": [ 9.907301115597448, 53.617001387534231 ] } },
{ "type": "Feature", "properties": { "AADT": 22000.0, "AAWT": 24000.0, "TR_pct_AAWT": 6.0, "raw_name": "Holsteiner Chaussee N A23 AS HH-Eidelstedt", "osm_name": "Holsteiner Chaussee", "osm_type": "primary", "osm_lanes": 3.0, "osm_oneway": "True", "osm_distance": 4.5448709793039699, "osm_maxspeed": 50.0, "osmid": 38665084.0 }, "geometry": { "type": "Point", "coordinates": [ 9.908289836795653, 53.620805150306076 ] } },
{ "type": "Feature", "properties": { "AADT": 72000.0, "AAWT": 77000.0, "TR_pct_AAWT": 10.0, "raw_name": "A23 NW AS HH-Eidelstedt", "osm_name": null, "osm_type": "motorway", "osm_lanes": 3.0, "osm_oneway": "True", "osm_distance": 3.1703022650507235, "osm_maxspeed": 100.0, "osmid": 481449830.0 }, "geometry": { "type": "Point", "coordinates": [ 9.901833876651876, 53.621510152362681 ] } },
{ "type": "Feature", "properties": { "AADT": 26000.0, "AAWT": 29000.0, "TR_pct_AAWT": 3.0, "raw_name": "Papenreye O Kollaustraße", "osm_name": "Papenreye", "osm_type": "secondary", "osm_lanes": 2.0, "osm_oneway": null, "osm_distance": 0.36604072707011809, "osm_maxspeed": 50.0, "osmid": 206553466.0 }, "geometry": { "type": "Point", "coordinates": [ 9.957456876823251, 53.61209824315673 ] } },
{ "type": "Feature", "properties": { "AADT": 28000.0, "AAWT": 30000.0, "TR_pct_AAWT": 3.0, "raw_name": "Schleswiger Damm NW Wendlohstraße", "osm_name": "Schleswiger Damm", "osm_type": "primary", "osm_lanes": 4.0, "osm_oneway": null, "osm_distance": 1.1016977219057094, "osm_maxspeed": 50.0, "osmid": 23299741.0 }, "geometry": { "type": "Point", "coordinates": [ 9.927292647159774, 53.631751649446123 ] } },
{ "type": "Feature", "properties": { "AADT": 7000.0, "AAWT": 8000.0, "TR_pct_AAWT": 2.0, "raw_name": "Wendlohstraße NO Frohmestraße", "osm_name": "Wendlohstraße", "osm_type": "tertiary", "osm_lanes": 2.0, "osm_oneway": "False", "osm_distance": 0.11224837490814846, "osm_maxspeed": 50.0, "osmid": 149136709.0 }, "geometry": { "type": "Point", "coordinates": [ 9.93166229170127, 53.629650289861893 ] } },
{ "type": "Feature", "properties": { "AADT": 35000.0, "AAWT": 39000.0, "TR_pct_AAWT": 3.0, "raw_name": "Frohmestraße SO Wendlohstraße", "osm_name": "Frohmestraße", "osm_type": "primary", "osm_lanes": 2.0, "osm_oneway": "True", "osm_distance": 1.1487915270045637, "osm_maxspeed": 50.0, "osmid": 30267570.0 }, "geometry": { "type": "Point", "coordinates": [ 9.931928178776854, 53.628677426635882 ] } },
{ "type": "Feature", "properties": { "AADT": 18000.0, "AAWT": 20000.0, "TR_pct_AAWT": 4.0, "raw_name": "Frohmestraße W Schleswiger Damm", "osm_name": "Frohmestraße", "osm_type": "secondary", "osm_lanes": 4.0, "osm_oneway": "False", "osm_distance": 0.92327877533970348, "osm_maxspeed": 50.0, "osmid": 674053457.0 }, "geometry": { "type": "Point", "coordinates": [ 9.929823713860962, 53.629251099902106 ] } },
{ "type": "Feature", "properties": { "AADT": 23000.0, "AAWT": 25000.0, "TR_pct_AAWT": 4.0, "raw_name": "Borsteler Chaussee NW Alsterkrugchaussee", "osm_name": "Borsteler Chaussee", "osm_type": "secondary", "osm_lanes": 6.0, "osm_oneway": null, "osm_distance": 0.75124663812595827, "osm_maxspeed": 50.0, "osmid": 136122688.0 }, "geometry": { "type": "Point", "coordinates": [ 9.986361153263132, 53.603764506666288 ] } },
{ "type": "Feature", "properties": { "AADT": 36000.0, "AAWT": 40000.0, "TR_pct_AAWT": 2.0, "raw_name": "Alsterkrugchaussee NO Deelböge", "osm_name": "Alsterkrugchaussee", "osm_type": "primary", "osm_lanes": 2.0, "osm_oneway": "True", "osm_distance": 21.255817497916784, "osm_maxspeed": 50.0, "osmid": 1235190966.0 }, "geometry": { "type": "Point", "coordinates": [ 9.987942895688244, 53.604191914960879 ] } },
{ "type": "Feature", "properties": { "AADT": 48000.0, "AAWT": 53000.0, "TR_pct_AAWT": 3.0, "raw_name": "Deelböge SO Alsterkrugchaussee", "osm_name": "Deelböge", "osm_type": "primary", "osm_lanes": 3.0, "osm_oneway": "True", "osm_distance": 5.9169968633111978, "osm_maxspeed": 50.0, "osmid": 696906755.0 }, "geometry": { "type": "Point", "coordinates": [ 9.989019497665618, 53.603050419164013 ] } },
{ "type": "Feature", "properties": { "AADT": 61000.0, "AAWT": 67000.0, "TR_pct_AAWT": 3.0, "raw_name": "Rosenbrook SW Deelböge", "osm_name": "Rosenbrook", "osm_type": "primary", "osm_lanes": 3.0, "osm_oneway": "True", "osm_distance": 10.835431552700248, "osm_maxspeed": 50.0, "osmid": 143824768.0 }, "geometry": { "type": "Point", "coordinates": [ 9.985830493558884, 53.602393576550213 ] } },
{ "type": "Feature", "properties": { "AADT": 20000.0, "AAWT": 22000.0, "TR_pct_AAWT": 3.0, "raw_name": "Nedderfeld O Kollaustraße", "osm_name": "Nedderfeld", "osm_type": "secondary", "osm_lanes": 2.0, "osm_oneway": "True", "osm_distance": 0.57812933151035839, "osm_maxspeed": 50.0, "osmid": 650779289.0 }, "geometry": { "type": "Point", "coordinates": [ 9.963882678457209, 53.603534188547115 ] } },
{ "type": "Feature", "properties": { "AADT": 10000.0, "AAWT": 11000.0, "TR_pct_AAWT": 3.0, "raw_name": "Pinneberger Chaussee NW Wildacker (Landesgrenze)", "osm_name": "Pinneberger Chaussee", "osm_type": "secondary", "osm_lanes": 2.0, "osm_oneway": null, "osm_distance": 0.8901350587202157, "osm_maxspeed": 50.0, "osmid": 73989407.0 }, "geometry": { "type": "Point", "coordinates": [ 9.885210056722311, 53.621867962419238 ] } },
{ "type": "Feature", "properties": { "AADT": 27000.0, "AAWT": 30000.0, "TR_pct_AAWT": 5.0, "raw_name": "Norderstedt - Niendorfer Straße N Krohnstieg (Landesgrenze)", "osm_name": "Niendorfer Straße", "osm_type": "secondary", "osm_lanes": 4.0, "osm_oneway": null, "osm_distance": 1.7284047245562248, "osm_maxspeed": null, "osmid": 463126110.0 }, "geometry": { "type": "Point", "coordinates": [ 9.986518293523956, 53.651997501793048 ] } },
{ "type": "Feature", "properties": { "AADT": 21000.0, "AAWT": 23000.0, "TR_pct_AAWT": 8.0, "raw_name": "Oldesloer Straße NO Swebenweg (Landesgrenze)", "osm_name": "Oldesloer Straße", "osm_type": "primary", "osm_lanes": 2.0, "osm_oneway": "True", "osm_distance": 1.840540039987012, "osm_maxspeed": 50.0, "osmid": 749892944.0 }, "geometry": { "type": "Point", "coordinates": [ 9.949718582682245, 53.650533254211446 ] } },
{ "type": "Feature", "properties": { "AADT": 65000.0, "AAWT": 68000.0, "TR_pct_AAWT": 16.0, "raw_name": "A7 N AS HH-Schnelsen-Nord (Landesgrenze)", "osm_name": null, "osm_type": "motorway", "osm_lanes": 3.0, "osm_oneway": "True", "osm_distance": 9.9945198453378552, "osm_maxspeed": 120.0, "osmid": 46742299.0 }, "geometry": { "type": "Point", "coordinates": [ 9.930730336422329, 53.652579004905327 ] } },
{ "type": "Feature", "properties": { "AADT": 54000.0, "AAWT": 59000.0, "TR_pct_AAWT": 6.0, "raw_name": "Oldesloer Straße NO A7 AS HH-Schnelsen-Nord", "osm_name": "Oldesloer Straße", "osm_type": "primary", "osm_lanes": 2.0, "osm_oneway": "True", "osm_distance": 4.2756533220955442, "osm_maxspeed": 70.0, "osmid": 1268220913.0 }, "geometry": { "type": "Point", "coordinates": [ 9.932467185402677, 53.646264342800741 ] } },
{ "type": "Feature", "properties": { "AADT": 88000.0, "AAWT": 93000.0, "TR_pct_AAWT": 13.0, "raw_name": "A7 S AS HH-Schnelsen-Nord", "osm_name": null, "osm_type": "motorway", "osm_lanes": 4.0, "osm_oneway": "True", "osm_distance": 10.05127441738693, "osm_maxspeed": 80.0, "osmid": 323606074.0 }, "geometry": { "type": "Point", "coordinates": [ 9.926910090975467, 53.639826568000061 ] } },
{ "type": "Feature", "properties": { "AADT": 17000.0, "AAWT": 19000.0, "TR_pct_AAWT": 4.0, "raw_name": "Oldesloer Straße SW A7 AS HH-Schnelsen-Nord", "osm_name": "Oldesloer Straße", "osm_type": "secondary", "osm_lanes": 2.0, "osm_oneway": "True", "osm_distance": 6.9089307954402566, "osm_maxspeed": 50.0, "osmid": 446860591.0 }, "geometry": { "type": "Point", "coordinates": [ 9.928436420534288, 53.643895658710314 ] } },
{ "type": "Feature", "properties": { "AADT": 20000.0, "AAWT": 22000.0, "TR_pct_AAWT": 4.0, "raw_name": "Schleswiger Damm NW AS HH-Schnelsen", "osm_name": "Schleswiger Damm", "osm_type": "secondary", "osm_lanes": 2.0, "osm_oneway": "True", "osm_distance": 0.21431553759328156, "osm_maxspeed": 50.0, "osmid": 136485974.0 }, "geometry": { "type": "Point", "coordinates": [ 9.922362635427989, 53.635223465918664 ] } },
{ "type": "Feature", "properties": { "AADT": 43000.0, "AAWT": 47000.0, "TR_pct_AAWT": 4.0, "raw_name": "Kollaustraße N Osterfeldstraße", "osm_name": "Kollaustraße", "osm_type": "primary", "osm_lanes": 3.0, "osm_oneway": "True", "osm_distance": 4.5796653364535223, "osm_maxspeed": 50.0, "osmid": 144246643.0 }, "geometry": { "type": "Point", "coordinates": [ 9.963254683893204, 53.600509988598546 ] } },
{ "type": "Feature", "properties": { "AADT": 34000.0, "AAWT": 38000.0, "TR_pct_AAWT": 4.0, "raw_name": "Osterfeldstraße O Kollaustraße", "osm_name": "Osterfeldstraße", "osm_type": "primary", "osm_lanes": 3.0, "osm_oneway": "True", "osm_distance": 3.0309236614779165, "osm_maxspeed": 50.0, "osmid": 597871087.0 }, "geometry": { "type": "Point", "coordinates": [ 9.965375596740612, 53.599414229187374 ] } },
{ "type": "Feature", "properties": { "AADT": 29000.0, "AAWT": 32000.0, "TR_pct_AAWT": 4.0, "raw_name": "Lokstedter Steindamm S Osterfeldstraße", "osm_name": "Lokstedter Steindamm", "osm_type": "primary", "osm_lanes": 2.0, "osm_oneway": "True", "osm_distance": 6.1335669170759033, "osm_maxspeed": 50.0, "osmid": 143961993.0 }, "geometry": { "type": "Point", "coordinates": [ 9.965249141339871, 53.598507370593268 ] } },
{ "type": "Feature", "properties": { "AADT": 46000.0, "AAWT": 51000.0, "TR_pct_AAWT": 4.0, "raw_name": "Vogt-Wells-Straße W Lokstedter Steindamm", "osm_name": "Vogt-Wells-Straße", "osm_type": "primary", "osm_lanes": 2.0, "osm_oneway": "True", "osm_distance": 1.5207017628933337, "osm_maxspeed": 50.0, "osmid": 553348780.0 }, "geometry": { "type": "Point", "coordinates": [ 9.962738505160923, 53.599741097698512 ] } },
{ "type": "Feature", "properties": { "AADT": 4000.0, "AAWT": 4000.0, "TR_pct_AAWT": 3.0, "raw_name": "Ohkamp S Flughafenstraße", "osm_name": "Ohkamp", "osm_type": "residential", "osm_lanes": null, "osm_oneway": null, "osm_distance": 0.31489751535731525, "osm_maxspeed": 30.0, "osmid": 1297411831.0 }, "geometry": { "type": "Point", "coordinates": [ 10.020263404759778, 53.639013418076594 ] } },
{ "type": "Feature", "properties": { "AADT": 18000.0, "AAWT": 19000.0, "TR_pct_AAWT": 4.0, "raw_name": "Hummelsbütteler Landstraße N Brombeerweg", "osm_name": "Hummelsbütteler Landstraße", "osm_type": "secondary", "osm_lanes": 4.0, "osm_oneway": null, "osm_distance": 1.0133033917257186, "osm_maxspeed": 50.0, "osmid": 22817671.0 }, "geometry": { "type": "Point", "coordinates": [ 10.026181371378431, 53.629821127741522 ] } },
{ "type": "Feature", "properties": { "AADT": 14000.0, "AAWT": 15000.0, "TR_pct_AAWT": 6.0, "raw_name": "Karlshöher Weg NW Berner Heerweg", "osm_name": "Karlshöher Weg", "osm_type": "tertiary", "osm_lanes": 2.0, "osm_oneway": null, "osm_distance": 0.31260489215770104, "osm_maxspeed": 50.0, "osmid": 32921081.0 }, "geometry": { "type": "Point", "coordinates": [ 10.140041922323384, 53.629914447364911 ] } },
{ "type": "Feature", "properties": { "AADT": 14000.0, "AAWT": 16000.0, "TR_pct_AAWT": 2.0, "raw_name": "Berner Heerweg NO Berner Brücke", "osm_name": "Berner Heerweg", "osm_type": "secondary", "osm_lanes": 2.0, "osm_oneway": null, "osm_distance": 1.5875124726378349, "osm_maxspeed": 50.0, "osmid": 233486003.0 }, "geometry": { "type": "Point", "coordinates": [ 10.141543052690542, 53.630061942464536 ] } },
{ "type": "Feature", "properties": { "AADT": 24000.0, "AAWT": 26000.0, "TR_pct_AAWT": 4.0, "raw_name": "Berner Brücke SO Berner Heerweg", "osm_name": "Berner Brücke", "osm_type": "secondary", "osm_lanes": 4.0, "osm_oneway": null, "osm_distance": 0.61169739428709102, "osm_maxspeed": 50.0, "osmid": 151565263.0 }, "geometry": { "type": "Point", "coordinates": [ 10.141839272017487, 53.628710766379918 ] } },
{ "type": "Feature", "properties": { "AADT": 19000.0, "AAWT": 21000.0, "TR_pct_AAWT": 3.0, "raw_name": "Berner Heerweg SW Berner Allee", "osm_name": "Berner Heerweg", "osm_type": "secondary", "osm_lanes": 3.0, "osm_oneway": "True", "osm_distance": 7.2625907701532215, "osm_maxspeed": 50.0, "osmid": 263877898.0 }, "geometry": { "type": "Point", "coordinates": [ 10.140214576779313, 53.628465573277367 ] } },
{ "type": "Feature", "properties": { "AADT": 12000.0, "AAWT": 13000.0, "TR_pct_AAWT": 3.0, "raw_name": "Berner Allee W Berner Heerweg", "osm_name": "Berner Allee", "osm_type": "tertiary", "osm_lanes": 2.0, "osm_oneway": null, "osm_distance": 0.38663105246470603, "osm_maxspeed": 50.0, "osmid": 609333779.0 }, "geometry": { "type": "Point", "coordinates": [ 10.138762860038636, 53.62902772283698 ] } },
{ "type": "Feature", "properties": { "AADT": 34000.0, "AAWT": 37000.0, "TR_pct_AAWT": 2.0, "raw_name": "Steilshooper Allee O Eichenlohweg", "osm_name": "Steilshooper Allee", "osm_type": "secondary", "osm_lanes": 2.0, "osm_oneway": "True", "osm_distance": 3.0637012522445919, "osm_maxspeed": 50.0, "osmid": 5171303.0 }, "geometry": { "type": "Point", "coordinates": [ 10.047046357016516, 53.608273732120736 ] } },
{ "type": "Feature", "properties": { "AADT": 8000.0, "AAWT": 9000.0, "TR_pct_AAWT": 2.0, "raw_name": "Alsterdorfer Damm NW Rathenaustraße", "osm_name": "Alsterdorfer Damm", "osm_type": "tertiary", "osm_lanes": 2.0, "osm_oneway": null, "osm_distance": 0.01465407593338664, "osm_maxspeed": 50.0, "osmid": 20340114.0 }, "geometry": { "type": "Point", "coordinates": [ 10.001041831338776, 53.611678686963778 ] } },
{ "type": "Feature", "properties": { "AADT": 15000.0, "AAWT": 17000.0, "TR_pct_AAWT": 4.0, "raw_name": "Hindenburgstraße NW Rathenaustraße", "osm_name": "Hindenburgstraße", "osm_type": "secondary", "osm_lanes": 2.0, "osm_oneway": null, "osm_distance": 0.47114717949036389, "osm_maxspeed": 50.0, "osmid": 24227627.0 }, "geometry": { "type": "Point", "coordinates": [ 10.009879602041314, 53.612098825982869 ] } },
{ "type": "Feature", "properties": { "AADT": 39000.0, "AAWT": 42000.0, "TR_pct_AAWT": 4.0, "raw_name": "Sengelmannstraße NW Rathenaustraße", "osm_name": "Sengelmannstraße", "osm_type": "primary", "osm_lanes": 2.0, "osm_oneway": "True", "osm_distance": 4.2547953947120147, "osm_maxspeed": null, "osmid": 21340100.0 }, "geometry": { "type": "Point", "coordinates": [ 10.018057182990864, 53.615229595374736 ] } },
{ "type": "Feature", "properties": { "AADT": 15000.0, "AAWT": 16000.0, "TR_pct_AAWT": 3.0, "raw_name": "Tangstedter Landstraße S Am Ochsenzoll (Landesgrenze)", "osm_name": "Tangstedter Landstraße", "osm_type": "tertiary", "osm_lanes": 2.0, "osm_oneway": null, "osm_distance": 0.353215939512808, "osm_maxspeed": 50.0, "osmid": 194542068.0 }, "geometry": { "type": "Point", "coordinates": [ 10.031249082703225, 53.681346714486686 ] } },
{ "type": "Feature", "properties": { "AADT": 11000.0, "AAWT": 13000.0, "TR_pct_AAWT": 5.0, "raw_name": "Glashütter Landstraße N Glashütter Stieg (Landesgrenze)", "osm_name": "Glashütter Landstraße", "osm_type": "tertiary", "osm_lanes": 2.0, "osm_oneway": null, "osm_distance": 0.99256333902222282, "osm_maxspeed": null, "osmid": 440384735.0 }, "geometry": { "type": "Point", "coordinates": [ 10.046512780446941, 53.679578343181667 ] } },
{ "type": "Feature", "properties": { "AADT": 15000.0, "AAWT": 16000.0, "TR_pct_AAWT": 5.0, "raw_name": "Harksheider Straße NW Kupferteichweg (Landesgrenze)", "osm_name": "Harksheider Straße", "osm_type": "secondary", "osm_lanes": 2.0, "osm_oneway": null, "osm_distance": 0.89889100756536733, "osm_maxspeed": 50.0, "osmid": 693943212.0 }, "geometry": { "type": "Point", "coordinates": [ 10.055845766842275, 53.674390754605852 ] } },
{ "type": "Feature", "properties": { "AADT": 20000.0, "AAWT": 22000.0, "TR_pct_AAWT": 3.0, "raw_name": "Meiendorfer Straße N Oldenfelder Stieg", "osm_name": "Meiendorfer Straße", "osm_type": "primary", "osm_lanes": 3.0, "osm_oneway": "True", "osm_distance": 0.47148975346531052, "osm_maxspeed": 50.0, "osmid": 222326668.0 }, "geometry": { "type": "Point", "coordinates": [ 10.156399277225928, 53.614781812213778 ] } },
{ "type": "Feature", "properties": { "AADT": 25000.0, "AAWT": 28000.0, "TR_pct_AAWT": 5.0, "raw_name": "Oldenfelder Stieg O Bargteheider Straße", "osm_name": "Oldenfelder Stieg", "osm_type": "secondary", "osm_lanes": 2.0, "osm_oneway": "True", "osm_distance": 3.3685822511256527, "osm_maxspeed": 50.0, "osmid": 222320594.0 }, "geometry": { "type": "Point", "coordinates": [ 10.156779203087861, 53.614301721345939 ] } },
{ "type": "Feature", "properties": { "AADT": 28000.0, "AAWT": 31000.0, "TR_pct_AAWT": 4.0, "raw_name": "Bargteheider Straße S Oldenfelder Stieg", "osm_name": "Bargteheider Straße", "osm_type": "primary", "osm_lanes": 3.0, "osm_oneway": "True", "osm_distance": 5.7302489431813237, "osm_maxspeed": 50.0, "osmid": 222326665.0 }, "geometry": { "type": "Point", "coordinates": [ 10.155729767004784, 53.614069156570338 ] } },
{ "type": "Feature", "properties": { "AADT": 31000.0, "AAWT": 35000.0, "TR_pct_AAWT": 5.0, "raw_name": "Berner Straße W Meiendorfer Straße", "osm_name": "Berner Straße", "osm_type": "secondary", "osm_lanes": 2.0, "osm_oneway": "True", "osm_distance": 3.2697701967455663, "osm_maxspeed": 50.0, "osmid": 222320582.0 }, "geometry": { "type": "Point", "coordinates": [ 10.155499982243164, 53.614511838359817 ] } },
{ "type": "Feature", "properties": { "AADT": 15000.0, "AAWT": 16000.0, "TR_pct_AAWT": 3.0, "raw_name": "Halenreie S Buckhorn", "osm_name": "Halenreie", "osm_type": "secondary", "osm_lanes": 2.0, "osm_oneway": null, "osm_distance": 1.1284656531586659, "osm_maxspeed": 50.0, "osmid": 8156807.0 }, "geometry": { "type": "Point", "coordinates": [ 10.160631519746522, 53.655532985726623 ] } },
{ "type": "Feature", "properties": { "AADT": 18000.0, "AAWT": 20000.0, "TR_pct_AAWT": 1.0, "raw_name": "Wellingsbütteler Landstraße NO Fuhlsbüttler Straße", "osm_name": "Wellingsbütteler Landstraße", "osm_type": "secondary", "osm_lanes": 2.0, "osm_oneway": "True", "osm_distance": 0.45843555309468664, "osm_maxspeed": 50.0, "osmid": 417807005.0 }, "geometry": { "type": "Point", "coordinates": [ 10.034549690137345, 53.628194011542611 ] } },
{ "type": "Feature", "properties": { "AADT": 39000.0, "AAWT": 43000.0, "TR_pct_AAWT": 3.0, "raw_name": "Fuhlsbüttler Straße S Wellingsbütteler Landstraße", "osm_name": "Fuhlsbüttler Straße", "osm_type": "secondary", "osm_lanes": 3.0, "osm_oneway": "True", "osm_distance": 3.1939144162257422, "osm_maxspeed": 50.0, "osmid": 188558052.0 }, "geometry": { "type": "Point", "coordinates": [ 10.031895314701829, 53.625385417177732 ] } },
{ "type": "Feature", "properties": { "AADT": 38000.0, "AAWT": 42000.0, "TR_pct_AAWT": 4.0, "raw_name": "Wellingsbütteler Landstraße W Fuhlsbüttler Straße", "osm_name": "Ratsmühlendamm", "osm_type": "secondary", "osm_lanes": 3.0, "osm_oneway": "True", "osm_distance": 0.49099770546685501, "osm_maxspeed": 50.0, "osmid": 89813151.0 }, "geometry": { "type": "Point", "coordinates": [ 10.030413324493198, 53.626000441653602 ] } },
{ "type": "Feature", "properties": { "AADT": 22000.0, "AAWT": 24000.0, "TR_pct_AAWT": 6.0, "raw_name": "Fuhlsbüttler Straße S Meister-Bertram-Straße", "osm_name": "Fuhlsbüttler Straße", "osm_type": "secondary", "osm_lanes": 3.0, "osm_oneway": null, "osm_distance": 0.64530958883481071, "osm_maxspeed": 50.0, "osmid": 51366010.0 }, "geometry": { "type": "Point", "coordinates": [ 10.039332031000432, 53.606192621567097 ] } },
{ "type": "Feature", "properties": { "AADT": 30000.0, "AAWT": 33000.0, "TR_pct_AAWT": 5.0, "raw_name": "Poppenbütteler Weg W Lademannbogen", "osm_name": "Gehlengraben", "osm_type": "primary", "osm_lanes": 2.0, "osm_oneway": "True", "osm_distance": 3.2962510030439982, "osm_maxspeed": 50.0, "osmid": 40554440.0 }, "geometry": { "type": "Point", "coordinates": [ 10.031483227992881, 53.650027530405168 ] } },
{ "type": "Feature", "properties": { "AADT": 24000.0, "AAWT": 26000.0, "TR_pct_AAWT": 4.0, "raw_name": "Langenhorner Chaussee S Am Ochsenzoll (Landesgrenze)", "osm_name": "Langenhorner Chaussee", "osm_type": "secondary", "osm_lanes": 3.0, "osm_oneway": null, "osm_distance": 1.4162463073342755, "osm_maxspeed": 50.0, "osmid": 222924398.0 }, "geometry": { "type": "Point", "coordinates": [ 10.000680963909362, 53.680770061001517 ] } },
{ "type": "Feature", "properties": { "AADT": 17000.0, "AAWT": 19000.0, "TR_pct_AAWT": 4.0, "raw_name": "Lemsahler Landstraße N An der Alsterschleife", "osm_name": "Lemsahler Landstraße", "osm_type": "secondary", "osm_lanes": 2.0, "osm_oneway": null, "osm_distance": 1.0243057546728294, "osm_maxspeed": 50.0, "osmid": 32433660.0 }, "geometry": { "type": "Point", "coordinates": [ 10.090899804210693, 53.672368674335509 ] } },
{ "type": "Feature", "properties": { "AADT": 55000.0, "AAWT": 60000.0, "TR_pct_AAWT": 5.0, "raw_name": "Saseler Damm W Poppenbüttler Landstraße", "osm_name": "Saseler Damm", "osm_type": "primary", "osm_lanes": 3.0, "osm_oneway": "True", "osm_distance": 3.6993895106424892, "osm_maxspeed": 50.0, "osmid": 22794040.0 }, "geometry": { "type": "Point", "coordinates": [ 10.087242739210074, 53.656149994018975 ] } },
{ "type": "Feature", "properties": { "AADT": 37000.0, "AAWT": 40000.0, "TR_pct_AAWT": 5.0, "raw_name": "Bramfelder Chaussee NO Werner-Otto-Straße", "osm_name": "Bramfelder Chaussee", "osm_type": "primary", "osm_lanes": 4.0, "osm_oneway": null, "osm_distance": 0.1014833394943624, "osm_maxspeed": 50.0, "osmid": 31060230.0 }, "geometry": { "type": "Point", "coordinates": [ 10.069256745147682, 53.601955849229498 ] } },
{ "type": "Feature", "properties": { "AADT": 13000.0, "AAWT": 15000.0, "TR_pct_AAWT": 6.0, "raw_name": "Werner-Otto-Straße SO Bramfelder Chaussee", "osm_name": "Werner-Otto-Straße", "osm_type": "secondary", "osm_lanes": 3.0, "osm_oneway": "True", "osm_distance": 1.8765178532290714, "osm_maxspeed": 50.0, "osmid": 1109686127.0 }, "geometry": { "type": "Point", "coordinates": [ 10.069328232567258, 53.600597874372241 ] } },
{ "type": "Feature", "properties": { "AADT": 28000.0, "AAWT": 30000.0, "TR_pct_AAWT": 4.0, "raw_name": "Bramfelder Chaussee SW Werner-Otto-Straße", "osm_name": "Bramfelder Chaussee", "osm_type": "primary", "osm_lanes": 2.0, "osm_oneway": "True", "osm_distance": 4.1237908114588038, "osm_maxspeed": 50.0, "osmid": 1109686119.0 }, "geometry": { "type": "Point", "coordinates": [ 10.068225295373489, 53.600607725642355 ] } },
{ "type": "Feature", "properties": { "AADT": 14000.0, "AAWT": 16000.0, "TR_pct_AAWT": 5.0, "raw_name": "August-Krogmann-Straße N Am Luisenhof", "osm_name": "August-Krogmann-Straße", "osm_type": "secondary", "osm_lanes": 2.0, "osm_oneway": null, "osm_distance": 1.7349772773114618, "osm_maxspeed": 50.0, "osmid": 40152296.0 }, "geometry": { "type": "Point", "coordinates": [ 10.116748634022324, 53.607985150114551 ] } },
{ "type": "Feature", "properties": { "AADT": 33000.0, "AAWT": 37000.0, "TR_pct_AAWT": 5.0, "raw_name": "August-Krogmann-Straße SO Am Luisenhof", "osm_name": "August-Krogmann-Straße", "osm_type": "secondary", "osm_lanes": 2.0, "osm_oneway": "True", "osm_distance": 2.5931757833388436, "osm_maxspeed": 50.0, "osmid": 22744341.0 }, "geometry": { "type": "Point", "coordinates": [ 10.117376347736281, 53.607143312301893 ] } },
{ "type": "Feature", "properties": { "AADT": 24000.0, "AAWT": 26000.0, "TR_pct_AAWT": 4.0, "raw_name": "Am Luisenhof W August-Krogmann-Straße", "osm_name": "Am Luisenhof", "osm_type": "secondary", "osm_lanes": 2.0, "osm_oneway": null, "osm_distance": 0.39517759210919196, "osm_maxspeed": 50.0, "osmid": 40152268.0 }, "geometry": { "type": "Point", "coordinates": [ 10.115872373082972, 53.607427016495812 ] } },
{ "type": "Feature", "properties": { "AADT": 31000.0, "AAWT": 34000.0, "TR_pct_AAWT": 4.0, "raw_name": "Langenhorner Chaussee N Erdkampsweg", "osm_name": "Langenhorner Chaussee", "osm_type": "secondary", "osm_lanes": 6.0, "osm_oneway": null, "osm_distance": 1.869130885878183, "osm_maxspeed": 50.0, "osmid": 1303383561.0 }, "geometry": { "type": "Point", "coordinates": [ 10.016159983834566, 53.635057255991889 ] } },
{ "type": "Feature", "properties": { "AADT": 13000.0, "AAWT": 15000.0, "TR_pct_AAWT": 3.0, "raw_name": "Erdkampsweg O Langenhorner Chaussee", "osm_name": "Erdkampsweg", "osm_type": "secondary", "osm_lanes": 2.0, "osm_oneway": null, "osm_distance": 0.68866365963699083, "osm_maxspeed": null, "osmid": 40557639.0 }, "geometry": { "type": "Point", "coordinates": [ 10.016871325007029, 53.634448959978926 ] } },
{ "type": "Feature", "properties": { "AADT": 19000.0, "AAWT": 21000.0, "TR_pct_AAWT": 4.0, "raw_name": "Alsterkrugchaussee S Erdkampsweg", "osm_name": "Alsterkrugchaussee", "osm_type": "secondary", "osm_lanes": 3.0, "osm_oneway": null, "osm_distance": 0.96433686138531793, "osm_maxspeed": 50.0, "osmid": 193455579.0 }, "geometry": { "type": "Point", "coordinates": [ 10.015911356235991, 53.634151488742432 ] } },
{ "type": "Feature", "properties": { "AADT": 30000.0, "AAWT": 33000.0, "TR_pct_AAWT": 3.0, "raw_name": "Bramfelder Chaussee NO Berner Chaussee", "osm_name": "Bramfelder Chaussee", "osm_type": "primary", "osm_lanes": 2.0, "osm_oneway": "True", "osm_distance": 0.26136674803878396, "osm_maxspeed": 50.0, "osmid": 777575366.0 }, "geometry": { "type": "Point", "coordinates": [ 10.081027480916029, 53.619630286066574 ] } },
{ "type": "Feature", "properties": { "AADT": 13000.0, "AAWT": 15000.0, "TR_pct_AAWT": 3.0, "raw_name": "Berner Chaussee O Bramfelder Chaussee", "osm_name": "Berner Chaussee", "osm_type": "tertiary", "osm_lanes": 2.0, "osm_oneway": null, "osm_distance": 0.88703825408343318, "osm_maxspeed": 50.0, "osmid": 4087798.0 }, "geometry": { "type": "Point", "coordinates": [ 10.08156331881337, 53.618708570550005 ] } },
{ "type": "Feature", "properties": { "AADT": 38000.0, "AAWT": 41000.0, "TR_pct_AAWT": 4.0, "raw_name": "Bramfelder Chaussee SW Berner Chaussee", "osm_name": "Bramfelder Chaussee", "osm_type": "primary", "osm_lanes": 2.0, "osm_oneway": "True", "osm_distance": 3.1644095520250195, "osm_maxspeed": 50.0, "osmid": 777575375.0 }, "geometry": { "type": "Point", "coordinates": [ 10.079607274320058, 53.618483529197185 ] } },
{ "type": "Feature", "properties": { "AADT": 38000.0, "AAWT": 42000.0, "TR_pct_AAWT": 4.0, "raw_name": "Jahnbrücke O Saarlandstraße", "osm_name": "Jahnbrücke", "osm_type": "primary", "osm_lanes": 3.0, "osm_oneway": "True", "osm_distance": 4.6388367227178664, "osm_maxspeed": 50.0, "osmid": 146160673.0 }, "geometry": { "type": "Point", "coordinates": [ 10.034356700342299, 53.601130007818014 ] } },
{ "type": "Feature", "properties": { "AADT": 27000.0, "AAWT": 30000.0, "TR_pct_AAWT": 3.0, "raw_name": "Saarlandstraße S Jahnbrücke", "osm_name": "Saarlandstraße", "osm_type": "secondary", "osm_lanes": 2.0, "osm_oneway": "True", "osm_distance": 6.5837808663012831, "osm_maxspeed": 50.0, "osmid": 373657509.0 }, "geometry": { "type": "Point", "coordinates": [ 10.031381093954428, 53.59871069775761 ] } },
{ "type": "Feature", "properties": { "AADT": 59000.0, "AAWT": 66000.0, "TR_pct_AAWT": 4.0, "raw_name": "Jahnring W Saarlandstraße", "osm_name": "Jahnring", "osm_type": "primary", "osm_lanes": 3.0, "osm_oneway": "True", "osm_distance": 7.5560166440214847, "osm_maxspeed": 50.0, "osmid": 531387874.0 }, "geometry": { "type": "Point", "coordinates": [ 10.027396319602797, 53.600147253737319 ] } },
{ "type": "Feature", "properties": { "AADT": 16000.0, "AAWT": 18000.0, "TR_pct_AAWT": 3.0, "raw_name": "Bergstedter Chaussee NO Volksdorfer Grenzweg (Landesgrenze)", "osm_name": "Bergstedter Chaussee", "osm_type": "primary", "osm_lanes": 2.0, "osm_oneway": null, "osm_distance": 0.57406472729670643, "osm_maxspeed": 50.0, "osmid": 130603846.0 }, "geometry": { "type": "Point", "coordinates": [ 10.142986406102469, 53.676736881880963 ] } },
{ "type": "Feature", "properties": { "AADT": 27000.0, "AAWT": 30000.0, "TR_pct_AAWT": 3.0, "raw_name": "Saseler Chaussee N Stadtbahnstraße", "osm_name": "Saseler Chaussee", "osm_type": "primary", "osm_lanes": 5.0, "osm_oneway": null, "osm_distance": 1.0204259714613668, "osm_maxspeed": 50.0, "osmid": 464180562.0 }, "geometry": { "type": "Point", "coordinates": [ 10.107261792540459, 53.654393469504555 ] } },
{ "type": "Feature", "properties": { "AADT": 28000.0, "AAWT": 30000.0, "TR_pct_AAWT": 4.0, "raw_name": "Stadtbahnstraße O Saseler Chaussee", "osm_name": "Stadtbahnstraße", "osm_type": "secondary", "osm_lanes": 4.0, "osm_oneway": null, "osm_distance": 2.0461839529439638, "osm_maxspeed": 50.0, "osmid": 464180560.0 }, "geometry": { "type": "Point", "coordinates": [ 10.108076143469235, 53.653711765204591 ] } },
{ "type": "Feature", "properties": { "AADT": 24000.0, "AAWT": 26000.0, "TR_pct_AAWT": 2.0, "raw_name": "Saseler Chaussee S Stadtbahnstraße", "osm_name": "Saseler Chaussee", "osm_type": "primary", "osm_lanes": 5.0, "osm_oneway": null, "osm_distance": 0.47539784828819887, "osm_maxspeed": 50.0, "osmid": 464175428.0 }, "geometry": { "type": "Point", "coordinates": [ 10.106589004376383, 53.65297044865553 ] } },
{ "type": "Feature", "properties": { "AADT": 41000.0, "AAWT": 46000.0, "TR_pct_AAWT": 4.0, "raw_name": "Stadtbahnstraße W Saseler Chaussee", "osm_name": "Stadtbahnstraße", "osm_type": "primary", "osm_lanes": 5.0, "osm_oneway": null, "osm_distance": 0.12099966612448959, "osm_maxspeed": 50.0, "osmid": 464180559.0 }, "geometry": { "type": "Point", "coordinates": [ 10.105739214598186, 53.653454713579222 ] } },
{ "type": "Feature", "properties": { "AADT": 32000.0, "AAWT": 35000.0, "TR_pct_AAWT": 3.0, "raw_name": "Brombeerweg N Ratsmühlendamm", "osm_name": "Brombeerweg", "osm_type": "secondary", "osm_lanes": 2.0, "osm_oneway": "True", "osm_distance": 7.2604378007129178, "osm_maxspeed": 50.0, "osmid": 39999834.0 }, "geometry": { "type": "Point", "coordinates": [ 10.026729201470843, 53.627470325883287 ] } },
{ "type": "Feature", "properties": { "AADT": 26000.0, "AAWT": 28000.0, "TR_pct_AAWT": 5.0, "raw_name": "Langenhorner Chaussee N Krohnstieg", "osm_name": "Langenhorner Chaussee", "osm_type": "secondary", "osm_lanes": 2.0, "osm_oneway": "True", "osm_distance": 3.6847558495868182, "osm_maxspeed": 50.0, "osmid": 1312248817.0 }, "geometry": { "type": "Point", "coordinates": [ 10.009917957088033, 53.649168674446074 ] } },
{ "type": "Feature", "properties": { "AADT": 32000.0, "AAWT": 36000.0, "TR_pct_AAWT": 6.0, "raw_name": "Krohnstieg O Langenhorner Chaussee", "osm_name": "Krohnstieg", "osm_type": "primary", "osm_lanes": 4.0, "osm_oneway": "True", "osm_distance": 4.6415335189112694, "osm_maxspeed": 50.0, "osmid": 39517054.0 }, "geometry": { "type": "Point", "coordinates": [ 10.011061540455232, 53.64890733431109 ] } },
{ "type": "Feature", "properties": { "AADT": 32000.0, "AAWT": 35000.0, "TR_pct_AAWT": 4.0, "raw_name": "Langenhorner Chaussee S Krohnstieg", "osm_name": "Langenhorner Chaussee", "osm_type": "secondary", "osm_lanes": 2.0, "osm_oneway": "True", "osm_distance": 4.283409512252204, "osm_maxspeed": 50.0, "osmid": 136485966.0 }, "geometry": { "type": "Point", "coordinates": [ 10.010741820402327, 53.648190924946569 ] } },
{ "type": "Feature", "properties": { "AADT": 25000.0, "AAWT": 28000.0, "TR_pct_AAWT": 5.0, "raw_name": "Krohnstieg W Langenhorner Chaussee", "osm_name": "Krohnstieg", "osm_type": "primary", "osm_lanes": 2.0, "osm_oneway": "True", "osm_distance": 2.8281905936503975, "osm_maxspeed": 50.0, "osmid": 135264295.0 }, "geometry": { "type": "Point", "coordinates": [ 10.009476816129581, 53.648435308255245 ] } },
{ "type": "Feature", "properties": { "AADT": 12000.0, "AAWT": 13000.0, "TR_pct_AAWT": 2.0, "raw_name": "Meiendorfer Straße NO Nornenweg (Landesgrenze)", "osm_name": "Meiendorfer Straße", "osm_type": "primary", "osm_lanes": 2.0, "osm_oneway": null, "osm_distance": 0.53827507950121578, "osm_maxspeed": 80.0, "osmid": 305770863.0 }, "geometry": { "type": "Point", "coordinates": [ 10.192484417391315, 53.63784417928683 ] } },
{ "type": "Feature", "properties": { "AADT": 11000.0, "AAWT": 12000.0, "TR_pct_AAWT": 4.0, "raw_name": "Sieker Landstraße NO Stapelfelder Straße", "osm_name": "Sieker Landstraße", "osm_type": "secondary", "osm_lanes": 3.0, "osm_oneway": "False", "osm_distance": 0.026728244944836641, "osm_maxspeed": 50.0, "osmid": 4449996.0 }, "geometry": { "type": "Point", "coordinates": [ 10.167815023915413, 53.606095399634306 ] } },
{ "type": "Feature", "properties": { "AADT": 10000.0, "AAWT": 11000.0, "TR_pct_AAWT": 4.0, "raw_name": "Stapelfelder Straße O Sieker Landstraße", "osm_name": "Stapelfelder Straße", "osm_type": "tertiary", "osm_lanes": 2.0, "osm_oneway": "False", "osm_distance": 0.0737145473503341, "osm_maxspeed": 50.0, "osmid": 35917426.0 }, "geometry": { "type": "Point", "coordinates": [ 10.167803370685709, 53.605673027409708 ] } },
{ "type": "Feature", "properties": { "AADT": 16000.0, "AAWT": 18000.0, "TR_pct_AAWT": 4.0, "raw_name": "Rahlstedter Straße W Sieker Landstraße", "osm_name": "Rahlstedter Straße", "osm_type": "secondary", "osm_lanes": 2.0, "osm_oneway": "False", "osm_distance": 0.71487421946302943, "osm_maxspeed": 50.0, "osmid": 35917425.0 }, "geometry": { "type": "Point", "coordinates": [ 10.166612650284046, 53.60579251058855 ] } },
{ "type": "Feature", "properties": { "AADT": 20000.0, "AAWT": 22000.0, "TR_pct_AAWT": 4.0, "raw_name": "Wedeler Landstraße W Schulauer Moorweg (Landesgrenze)", "osm_name": "Wedeler Landstraße", "osm_type": "primary", "osm_lanes": 4.0, "osm_oneway": null, "osm_distance": 0.47726446907084946, "osm_maxspeed": 50.0, "osmid": 894647066.0 }, "geometry": { "type": "Point", "coordinates": [ 9.737926025025224, 53.585113921430079 ] } },
{ "type": "Feature", "properties": { "AADT": 7000.0, "AAWT": 8000.0, "TR_pct_AAWT": 4.0, "raw_name": "Nincoper Straße O Nincoper Ort", "osm_name": "Nincoper Straße", "osm_type": "secondary", "osm_lanes": 2.0, "osm_oneway": null, "osm_distance": 0.74945822383554594, "osm_maxspeed": 50.0, "osmid": 154660656.0 }, "geometry": { "type": "Point", "coordinates": [ 9.801270038315762, 53.514188906612198 ] } },
{ "type": "Feature", "properties": { "AADT": 22000.0, "AAWT": 25000.0, "TR_pct_AAWT": 5.0, "raw_name": "Neuenfelder Hauptdeich W Am Rosengarten", "osm_name": "Neuenfelder Hauptdeich", "osm_type": "secondary", "osm_lanes": 2.0, "osm_oneway": null, "osm_distance": 0.74819680862129478, "osm_maxspeed": 50.0, "osmid": 672875650.0 }, "geometry": { "type": "Point", "coordinates": [ 9.808738483368339, 53.529410760145254 ] } },
{ "type": "Feature", "properties": { "AADT": 16000.0, "AAWT": 18000.0, "TR_pct_AAWT": 5.0, "raw_name": "Schenefelder Landstraße N Holtbarg (Landesgrenze)", "osm_name": "Schenefelder Landstraße", "osm_type": "secondary", "osm_lanes": 2.0, "osm_oneway": null, "osm_distance": 1.9002444225024637, "osm_maxspeed": 50.0, "osmid": 286460770.0 }, "geometry": { "type": "Point", "coordinates": [ 9.822368780961323, 53.584275668568679 ] } },
{ "type": "Feature", "properties": { "AADT": 8000.0, "AAWT": 8000.0, "TR_pct_AAWT": 4.0, "raw_name": "Schulauer Weg W Tinsdaler Heideweg (Landesgrenze)", "osm_name": "Schulauer Weg", "osm_type": "tertiary", "osm_lanes": null, "osm_oneway": null, "osm_distance": 0.4264725158201797, "osm_maxspeed": 50.0, "osmid": 12864234.0 }, "geometry": { "type": "Point", "coordinates": [ 9.735546272691861, 53.569856650701638 ] } },
{ "type": "Feature", "properties": { "AADT": 23000.0, "AAWT": 26000.0, "TR_pct_AAWT": 4.0, "raw_name": "Elbchaussee NW Schenefelder Landstraße", "osm_name": "Elbchaussee", "osm_type": "secondary", "osm_lanes": 3.0, "osm_oneway": null, "osm_distance": 0.23265839231022556, "osm_maxspeed": 50.0, "osmid": 841294106.0 }, "geometry": { "type": "Point", "coordinates": [ 9.822489117082739, 53.560903872321745 ] } },
{ "type": "Feature", "properties": { "AADT": 12000.0, "AAWT": 14000.0, "TR_pct_AAWT": 6.0, "raw_name": "Schenefelder Landstraße N Elbchaussee", "osm_name": "Schenefelder Landstraße", "osm_type": "secondary", "osm_lanes": 2.0, "osm_oneway": null, "osm_distance": 0.073942236849285997, "osm_maxspeed": 50.0, "osmid": 126758922.0 }, "geometry": { "type": "Point", "coordinates": [ 9.823853313653283, 53.561182127253616 ] } },
{ "type": "Feature", "properties": { "AADT": 5000.0, "AAWT": 6000.0, "TR_pct_AAWT": 1.0, "raw_name": "Ottenser Marktplatz W Museumstraße", "osm_name": "Ottenser Marktplatz", "osm_type": "tertiary", "osm_lanes": 2.0, "osm_oneway": null, "osm_distance": 0.25049882145689439, "osm_maxspeed": 30.0, "osmid": 143553243.0 }, "geometry": { "type": "Point", "coordinates": [ 9.933592458842107, 53.547836360936188 ] } },
{ "type": "Feature", "properties": { "AADT": 30000.0, "AAWT": 33000.0, "TR_pct_AAWT": 4.0, "raw_name": "Klopstockstraße W Kaistraße", "osm_name": null, "osm_type": null, "osm_lanes": null, "osm_oneway": null, "osm_distance": null, "osm_maxspeed": null, "osmid": null }, "geometry": { "type": "Point", "coordinates": [ 9.933562394552013, 53.546470275190003 ] } },
{ "type": "Feature", "properties": { "AADT": 14000.0, "AAWT": 17000.0, "TR_pct_AAWT": 31.0, "raw_name": "Neuhöfer Straße O Neuhöfer Damm (Reiherstiegbrücke)", "osm_name": "Neuhöfer Straße", "osm_type": "secondary", "osm_lanes": 2.0, "osm_oneway": null, "osm_distance": 0.10984697075925895, "osm_maxspeed": null, "osmid": 23495356.0 }, "geometry": { "type": "Point", "coordinates": [ 9.97122357530114, 53.51239865865886 ] } },
{ "type": "Feature", "properties": { "AADT": 25000.0, "AAWT": 27000.0, "TR_pct_AAWT": 3.0, "raw_name": "Messeplatz N St. Petersburger Straße", "osm_name": "Messeplatz", "osm_type": "secondary", "osm_lanes": 5.0, "osm_oneway": null, "osm_distance": 0.90650076018921066, "osm_maxspeed": 50.0, "osmid": 521045494.0 }, "geometry": { "type": "Point", "coordinates": [ 9.976414349811936, 53.563027351070531 ] } },
{ "type": "Feature", "properties": { "AADT": 5000.0, "AAWT": 5000.0, "TR_pct_AAWT": 1.0, "raw_name": "Eppendorfer Weg SW Falkenried", "osm_name": "Eppendorfer Weg", "osm_type": "residential", "osm_lanes": 2.0, "osm_oneway": null, "osm_distance": 0.19639550268215122, "osm_maxspeed": 50.0, "osmid": 137247330.0 }, "geometry": { "type": "Point", "coordinates": [ 9.974635598923891, 53.582853490235365 ] } },
{ "type": "Feature", "properties": { "AADT": 8000.0, "AAWT": 9000.0, "TR_pct_AAWT": 8.0, "raw_name": "Ebertallee S Luruper Chaussee", "osm_name": null, "osm_type": "service", "osm_lanes": null, "osm_oneway": null, "osm_distance": 3.3611591513240056, "osm_maxspeed": null, "osmid": 59316129.0 }, "geometry": { "type": "Point", "coordinates": [ 9.891206859380155, 53.572780321679112 ] } },
{ "type": "Feature", "properties": { "AADT": 10000.0, "AAWT": 11000.0, "TR_pct_AAWT": 7.0, "raw_name": "Am Barls NW Rapsweg (Landesgrenze)", "osm_name": "Am Barls", "osm_type": "tertiary", "osm_lanes": 2.0, "osm_oneway": null, "osm_distance": 0.62583464596128213, "osm_maxspeed": 50.0, "osmid": 126874360.0 }, "geometry": { "type": "Point", "coordinates": [ 9.849630879017433, 53.596867286649527 ] } },
{ "type": "Feature", "properties": { "AADT": 37000.0, "AAWT": 40000.0, "TR_pct_AAWT": 4.0, "raw_name": "Stresemannstraße O Tasköprüstraße", "osm_name": "Stresemannstraße", "osm_type": "primary", "osm_lanes": 4.0, "osm_oneway": null, "osm_distance": 0.73649174200729883, "osm_maxspeed": 50.0, "osmid": 314355595.0 }, "geometry": { "type": "Point", "coordinates": [ 9.932548936885494, 53.56353019740687 ] } },
{ "type": "Feature", "properties": { "AADT": 27000.0, "AAWT": 29000.0, "TR_pct_AAWT": 8.0, "raw_name": "Stresemannstraße NW Neuer Pferdemarkt", "osm_name": "Stresemannstraße", "osm_type": "primary", "osm_lanes": 2.0, "osm_oneway": "True", "osm_distance": 2.9626256950672194, "osm_maxspeed": 30.0, "osmid": 618750333.0 }, "geometry": { "type": "Point", "coordinates": [ 9.962622656088742, 53.558743541888745 ] } },
{ "type": "Feature", "properties": { "AADT": 11000.0, "AAWT": 13000.0, "TR_pct_AAWT": 3.0, "raw_name": "Schanzenstraße N Neuer Pferdemarkt", "osm_name": "Neuer Pferdemarkt", "osm_type": "tertiary", "osm_lanes": 3.0, "osm_oneway": "True", "osm_distance": 7.1944037509883287, "osm_maxspeed": 50.0, "osmid": 143018813.0 }, "geometry": { "type": "Point", "coordinates": [ 9.964069870021252, 53.558650985049574 ] } },
{ "type": "Feature", "properties": { "AADT": 37000.0, "AAWT": 41000.0, "TR_pct_AAWT": 7.0, "raw_name": "Neuer Pferdemarkt S Stresemannstraße", "osm_name": "Neuer Pferdemarkt", "osm_type": "primary", "osm_lanes": 4.0, "osm_oneway": "True", "osm_distance": 13.152910851473477, "osm_maxspeed": 50.0, "osmid": 1377971929.0 }, "geometry": { "type": "Point", "coordinates": [ 9.964043920151196, 53.557509596621415 ] } },
{ "type": "Feature", "properties": { "AADT": 33000.0, "AAWT": 36000.0, "TR_pct_AAWT": 7.0, "raw_name": "Finkenwerder Straße W Dradenauer Deichweg", "osm_name": "Finkenwerder Straße", "osm_type": "secondary", "osm_lanes": 2.0, "osm_oneway": "True", "osm_distance": 1.5278551606927901, "osm_maxspeed": 60.0, "osmid": 31506929.0 }, "geometry": { "type": "Point", "coordinates": [ 9.894288369975193, 53.516252940522961 ] } },
{ "type": "Feature", "properties": { "AADT": 22000.0, "AAWT": 25000.0, "TR_pct_AAWT": 8.0, "raw_name": "Kieler Straße N Langenfelder Straße", "osm_name": "Kieler Straße", "osm_type": "primary", "osm_lanes": 4.0, "osm_oneway": null, "osm_distance": 0.78737338271747237, "osm_maxspeed": 50.0, "osmid": 102262552.0 }, "geometry": { "type": "Point", "coordinates": [ 9.944138179697086, 53.569336020451978 ] } },
{ "type": "Feature", "properties": { "AADT": 40000.0, "AAWT": 44000.0, "TR_pct_AAWT": 7.0, "raw_name": "Kieler Straße N Warnstedtstraße", "osm_name": "Kieler Straße", "osm_type": "primary", "osm_lanes": 3.0, "osm_oneway": "True", "osm_distance": 6.7153428055422459, "osm_maxspeed": 50.0, "osmid": 996085257.0 }, "geometry": { "type": "Point", "coordinates": [ 9.933559174410822, 53.584035011985371 ] } },
{ "type": "Feature", "properties": { "AADT": 13000.0, "AAWT": 14000.0, "TR_pct_AAWT": 4.0, "raw_name": "Langenfelder Damm SO Kieler Straße", "osm_name": "Langenfelder Damm", "osm_type": "tertiary", "osm_lanes": 2.0, "osm_oneway": null, "osm_distance": 0.20621924266544728, "osm_maxspeed": 50.0, "osmid": 996085253.0 }, "geometry": { "type": "Point", "coordinates": [ 9.934579303894322, 53.583029279925931 ] } },
{ "type": "Feature", "properties": { "AADT": 35000.0, "AAWT": 38000.0, "TR_pct_AAWT": 7.0, "raw_name": "Kieler Straße S Langenfelder Damm", "osm_name": "Kieler Straße", "osm_type": "primary", "osm_lanes": 4.0, "osm_oneway": "True", "osm_distance": 7.4902581347421515, "osm_maxspeed": 50.0, "osmid": 367138616.0 }, "geometry": { "type": "Point", "coordinates": [ 9.933862921356919, 53.582738240270416 ] } },
{ "type": "Feature", "properties": { "AADT": 29000.0, "AAWT": 32000.0, "TR_pct_AAWT": 6.0, "raw_name": "Holstenstraße N Max-Brauer-Allee", "osm_name": "Holstenstraße", "osm_type": "secondary", "osm_lanes": 4.0, "osm_oneway": null, "osm_distance": 1.5549549360206405, "osm_maxspeed": 50.0, "osmid": 183779182.0 }, "geometry": { "type": "Point", "coordinates": [ 9.948826603529801, 53.559536939214659 ] } },
{ "type": "Feature", "properties": { "AADT": 13000.0, "AAWT": 14000.0, "TR_pct_AAWT": 4.0, "raw_name": "Max-Brauer-Allee NO Holstenstraße", "osm_name": "Max-Brauer-Allee", "osm_type": "secondary", "osm_lanes": 4.0, "osm_oneway": null, "osm_distance": 2.1874370488289245, "osm_maxspeed": 50.0, "osmid": 1379200264.0 }, "geometry": { "type": "Point", "coordinates": [ 9.950399857366492, 53.559003089786167 ] } },
{ "type": "Feature", "properties": { "AADT": 23000.0, "AAWT": 26000.0, "TR_pct_AAWT": 5.0, "raw_name": "Holstenstraße S Max-Brauer-Allee", "osm_name": "Holstenstraße", "osm_type": "secondary", "osm_lanes": 5.0, "osm_oneway": null, "osm_distance": 0.24119150873863912, "osm_maxspeed": 50.0, "osmid": 1379200262.0 }, "geometry": { "type": "Point", "coordinates": [ 9.949636276829681, 53.557939470194839 ] } },
{ "type": "Feature", "properties": { "AADT": 22000.0, "AAWT": 24000.0, "TR_pct_AAWT": 6.0, "raw_name": "Max-Brauer-Allee SW Holstenstraße", "osm_name": "Max-Brauer-Allee", "osm_type": "secondary", "osm_lanes": 2.0, "osm_oneway": "True", "osm_distance": 3.8122742237423144, "osm_maxspeed": 50.0, "osmid": 702926426.0 }, "geometry": { "type": "Point", "coordinates": [ 9.948559153087539, 53.558379486736648 ] } },
{ "type": "Feature", "properties": { "AADT": 38000.0, "AAWT": 42000.0, "TR_pct_AAWT": 6.0, "raw_name": "Schäferkampsallee NW Beim Schlump", "osm_name": "Schäferkampsallee", "osm_type": "primary", "osm_lanes": 3.0, "osm_oneway": "True", "osm_distance": 5.5465520722596411, "osm_maxspeed": 50.0, "osmid": 521056815.0 }, "geometry": { "type": "Point", "coordinates": [ 9.969278710027602, 53.567912453951486 ] } },
{ "type": "Feature", "properties": { "AADT": 16000.0, "AAWT": 17000.0, "TR_pct_AAWT": 5.0, "raw_name": "Beim Schlump NO Schäferkampsallee", "osm_name": "Beim Schlump", "osm_type": "secondary", "osm_lanes": 3.0, "osm_oneway": "True", "osm_distance": 4.5177567704434338, "osm_maxspeed": 50.0, "osmid": 52092679.0 }, "geometry": { "type": "Point", "coordinates": [ 9.970723339777823, 53.567693993498388 ] } },
{ "type": "Feature", "properties": { "AADT": 36000.0, "AAWT": 39000.0, "TR_pct_AAWT": 5.0, "raw_name": "Schröderstiftstraße SO Beim Schlump", "osm_name": "Schröderstiftstraße", "osm_type": "primary", "osm_lanes": 3.0, "osm_oneway": "True", "osm_distance": 4.2039598438168104, "osm_maxspeed": 50.0, "osmid": 220112331.0 }, "geometry": { "type": "Point", "coordinates": [ 9.971087187382036, 53.567097769618407 ] } },
{ "type": "Feature", "properties": { "AADT": 14000.0, "AAWT": 15000.0, "TR_pct_AAWT": 5.0, "raw_name": "Kleiner Schäferkamp SW Schäferkampsallee", "osm_name": "Kleiner Schäferkamp", "osm_type": "secondary", "osm_lanes": 2.0, "osm_oneway": null, "osm_distance": 0.13161895704145293, "osm_maxspeed": 50.0, "osmid": 136784585.0 }, "geometry": { "type": "Point", "coordinates": [ 9.969080280291939, 53.567158990090952 ] } },
{ "type": "Feature", "properties": { "AADT": 31000.0, "AAWT": 34000.0, "TR_pct_AAWT": 5.0, "raw_name": "Hoheluftchaussee N Gärtnerstraße", "osm_name": null, "osm_type": "service", "osm_lanes": 2.0, "osm_oneway": null, "osm_distance": 1.6823022863742707, "osm_maxspeed": null, "osmid": 339819574.0 }, "geometry": { "type": "Point", "coordinates": [ 9.969222943552595, 53.584623335432724 ] } },
{ "type": "Feature", "properties": { "AADT": 28000.0, "AAWT": 31000.0, "TR_pct_AAWT": 2.0, "raw_name": "Breitenfelder Straße NO Hoheluftchaussee", "osm_name": "Breitenfelder Straße", "osm_type": "primary", "osm_lanes": 2.0, "osm_oneway": "True", "osm_distance": 5.1194091632940202, "osm_maxspeed": 50.0, "osmid": 137247326.0 }, "geometry": { "type": "Point", "coordinates": [ 9.970392781106803, 53.584254295777065 ] } },
{ "type": "Feature", "properties": { "AADT": 28000.0, "AAWT": 31000.0, "TR_pct_AAWT": 4.0, "raw_name": "Hoheluftchaussee SO Gärtnerstraße", "osm_name": null, "osm_type": "service", "osm_lanes": 2.0, "osm_oneway": "False", "osm_distance": 0.68698790443800795, "osm_maxspeed": 50.0, "osmid": 1383270102.0 }, "geometry": { "type": "Point", "coordinates": [ 9.970150177010199, 53.583555127187026 ] } },
{ "type": "Feature", "properties": { "AADT": 32000.0, "AAWT": 35000.0, "TR_pct_AAWT": 3.0, "raw_name": "Gärtnerstraße SW Hoheluftchaussee", "osm_name": "Gärtnerstraße", "osm_type": "primary", "osm_lanes": 2.0, "osm_oneway": "True", "osm_distance": 3.4324735820481309, "osm_maxspeed": 50.0, "osmid": 142762604.0 }, "geometry": { "type": "Point", "coordinates": [ 9.968739321101991, 53.583953083145836 ] } },
{ "type": "Feature", "properties": { "AADT": 18000.0, "AAWT": 20000.0, "TR_pct_AAWT": 3.0, "raw_name": "Rugenfeld NO Osdorfer Landstraße", "osm_name": "Rugenfeld", "osm_type": "primary", "osm_lanes": 4.0, "osm_oneway": null, "osm_distance": 0.053499929168421216, "osm_maxspeed": 50.0, "osmid": 147291102.0 }, "geometry": { "type": "Point", "coordinates": [ 9.837901777095967, 53.57454984108945 ] } },
{ "type": "Feature", "properties": { "AADT": 28000.0, "AAWT": 31000.0, "TR_pct_AAWT": 4.0, "raw_name": "Osdorfer Landstraße O Rugenfeld", "osm_name": "Osdorfer Landstraße", "osm_type": "primary", "osm_lanes": 2.0, "osm_oneway": "True", "osm_distance": 3.7930422563234236, "osm_maxspeed": 50.0, "osmid": 30471655.0 }, "geometry": { "type": "Point", "coordinates": [ 9.838456567850281, 53.573584147827127 ] } },
{ "type": "Feature", "properties": { "AADT": 8000.0, "AAWT": 9000.0, "TR_pct_AAWT": 3.0, "raw_name": "Isfeldstraße SW Osdorfer Landstraße", "osm_name": "Isfeldstraße", "osm_type": "secondary", "osm_lanes": 2.0, "osm_oneway": "True", "osm_distance": 6.6959032816330391, "osm_maxspeed": 50.0, "osmid": 746558989.0 }, "geometry": { "type": "Point", "coordinates": [ 9.836575283284693, 53.573147876448488 ] } },
{ "type": "Feature", "properties": { "AADT": 38000.0, "AAWT": 42000.0, "TR_pct_AAWT": 4.0, "raw_name": "Osdorfer Landstraße W Rugenfeld", "osm_name": "Osdorfer Landstraße", "osm_type": "primary", "osm_lanes": 2.0, "osm_oneway": "True", "osm_distance": 4.6905079980336586, "osm_maxspeed": 50.0, "osmid": 562055464.0 }, "geometry": { "type": "Point", "coordinates": [ 9.835613101336495, 53.574134384933174 ] } },
{ "type": "Feature", "properties": { "AADT": 26000.0, "AAWT": 28000.0, "TR_pct_AAWT": 5.0, "raw_name": "Baumwall W Niederbaumbrücke", "osm_name": "Baumwall", "osm_type": "secondary", "osm_lanes": 2.0, "osm_oneway": "True", "osm_distance": 9.974331589418064, "osm_maxspeed": 50.0, "osmid": 23925231.0 }, "geometry": { "type": "Point", "coordinates": [ 9.980855970725147, 53.54421303774609 ] } },
{ "type": "Feature", "properties": { "AADT": 51000.0, "AAWT": 56000.0, "TR_pct_AAWT": 7.0, "raw_name": "Ludwig-Erhard-Straße W Admiralitätstraße", "osm_name": "Ludwig-Erhard-Straße", "osm_type": "primary", "osm_lanes": 3.0, "osm_oneway": "True", "osm_distance": 4.0175425970904124, "osm_maxspeed": 50.0, "osmid": 142944367.0 }, "geometry": { "type": "Point", "coordinates": [ 9.983743308916734, 53.548324256501033 ] } },
{ "type": "Feature", "properties": { "AADT": 13000.0, "AAWT": 14000.0, "TR_pct_AAWT": 7.0, "raw_name": "Stadthausbrücke N Neuer Wall", "osm_name": "Stadthausbrücke", "osm_type": "secondary", "osm_lanes": 2.0, "osm_oneway": "True", "osm_distance": 0.53722396851703724, "osm_maxspeed": 50.0, "osmid": 45741811.0 }, "geometry": { "type": "Point", "coordinates": [ 9.985926007869542, 53.550670385860087 ] } },
{ "type": "Feature", "properties": { "AADT": 12000.0, "AAWT": 13000.0, "TR_pct_AAWT": 12.0, "raw_name": "Jungfernstieg NW Neuer Wall", "osm_name": "Jungfernstieg", "osm_type": "residential", "osm_lanes": null, "osm_oneway": "True", "osm_distance": 4.054780658881632, "osm_maxspeed": 30.0, "osmid": 957081048.0 }, "geometry": { "type": "Point", "coordinates": [ 9.992493240912262, 53.55330377420092 ] } },
{ "type": "Feature", "properties": { "AADT": 37000.0, "AAWT": 41000.0, "TR_pct_AAWT": 4.0, "raw_name": "Neuer Jungfernstieg N Esplanade", "osm_name": "Neuer Jungfernstieg", "osm_type": "secondary", "osm_lanes": 3.0, "osm_oneway": "True", "osm_distance": 22.361908641615152, "osm_maxspeed": 50.0, "osmid": 603876235.0 }, "geometry": { "type": "Point", "coordinates": [ 9.993709110225435, 53.558165707581423 ] } },
{ "type": "Feature", "properties": { "AADT": 15000.0, "AAWT": 17000.0, "TR_pct_AAWT": 8.0, "raw_name": "Dammtordamm N Esplanade", "osm_name": "Dammtordamm", "osm_type": "tertiary", "osm_lanes": 2.0, "osm_oneway": "True", "osm_distance": 2.4357981301017841, "osm_maxspeed": 50.0, "osmid": 220109544.0 }, "geometry": { "type": "Point", "coordinates": [ 9.989421586682301, 53.558812502781819 ] } },
{ "type": "Feature", "properties": { "AADT": 11000.0, "AAWT": 12000.0, "TR_pct_AAWT": 3.0, "raw_name": "St. Benedictstraße NO Heilwigstraße", "osm_name": "Maria-Louisen-Straße", "osm_type": "secondary", "osm_lanes": 2.0, "osm_oneway": null, "osm_distance": 0.68993477547775284, "osm_maxspeed": 50.0, "osmid": 11136864.0 }, "geometry": { "type": "Point", "coordinates": [ 9.995425339346355, 53.583680092218778 ] } },
{ "type": "Feature", "properties": { "AADT": 6000.0, "AAWT": 7000.0, "TR_pct_AAWT": 1.0, "raw_name": "Heilwigstraße N Isestraße", "osm_name": "Heilwigstraße", "osm_type": "tertiary", "osm_lanes": 2.0, "osm_oneway": null, "osm_distance": 0.68616121424179055, "osm_maxspeed": 50.0, "osmid": 20339298.0 }, "geometry": { "type": "Point", "coordinates": [ 9.993965694724441, 53.584564155372696 ] } },
{ "type": "Feature", "properties": { "AADT": 6000.0, "AAWT": 7000.0, "TR_pct_AAWT": 1.0, "raw_name": "Oderfelder Straße N Isestraße", "osm_name": "Oderfelder Straße", "osm_type": "tertiary", "osm_lanes": 2.0, "osm_oneway": null, "osm_distance": 0.49844441633898051, "osm_maxspeed": null, "osmid": 16232760.0 }, "geometry": { "type": "Point", "coordinates": [ 9.988292483012378, 53.584853855012874 ] } },
{ "type": "Feature", "properties": { "AADT": 16000.0, "AAWT": 18000.0, "TR_pct_AAWT": 3.0, "raw_name": "Eppendorfer Baum SO Hegestraße", "osm_name": "Eppendorfer Baum", "osm_type": "secondary", "osm_lanes": 4.0, "osm_oneway": null, "osm_distance": 0.030464493917095384, "osm_maxspeed": null, "osmid": 20339301.0 }, "geometry": { "type": "Point", "coordinates": [ 9.984140203685708, 53.58363862098561 ] } },
{ "type": "Feature", "properties": { "AADT": 10000.0, "AAWT": 11000.0, "TR_pct_AAWT": 1.0, "raw_name": "Lehmweg S Hegestraße", "osm_name": "Lehmweg", "osm_type": "tertiary", "osm_lanes": 2.0, "osm_oneway": null, "osm_distance": 1.3378982678909077, "osm_maxspeed": 50.0, "osmid": 167905851.0 }, "geometry": { "type": "Point", "coordinates": [ 9.979781849951431, 53.581993462476504 ] } },
{ "type": "Feature", "properties": { "AADT": 11000.0, "AAWT": 12000.0, "TR_pct_AAWT": 5.0, "raw_name": "Martinistraße NO Lokstedter Steindamm", "osm_name": "Martinistraße", "osm_type": "tertiary", "osm_lanes": 2.0, "osm_oneway": "False", "osm_distance": 0.3212110135389224, "osm_maxspeed": 50.0, "osmid": 682409959.0 }, "geometry": { "type": "Point", "coordinates": [ 9.969629244135257, 53.586534683501682 ] } },
{ "type": "Feature", "properties": { "AADT": 25000.0, "AAWT": 28000.0, "TR_pct_AAWT": 5.0, "raw_name": "St. Pauli Hafenstraße W Helgoländer Allee", "osm_name": "St. Pauli Hafenstraße", "osm_type": "secondary", "osm_lanes": 3.0, "osm_oneway": null, "osm_distance": 0.78424376781928529, "osm_maxspeed": 50.0, "osmid": 107609625.0 }, "geometry": { "type": "Point", "coordinates": [ 9.968101428587921, 53.546114765656611 ] } },
{ "type": "Feature", "properties": { "AADT": 12000.0, "AAWT": 14000.0, "TR_pct_AAWT": 6.0, "raw_name": "Feldstraße O Sternstraße", "osm_name": "Neuer Kamp", "osm_type": "secondary", "osm_lanes": 2.0, "osm_oneway": "True", "osm_distance": 2.3609576940742665, "osm_maxspeed": 50.0, "osmid": 566711302.0 }, "geometry": { "type": "Point", "coordinates": [ 9.967573009743603, 53.557355253929984 ] } },
{ "type": "Feature", "properties": { "AADT": 13000.0, "AAWT": 14000.0, "TR_pct_AAWT": 2.0, "raw_name": "Platz der Republik W Max-Brauer-Allee", "osm_name": "Platz der Republik", "osm_type": "residential", "osm_lanes": 2.0, "osm_oneway": "True", "osm_distance": 3.8059631968794569, "osm_maxspeed": 50.0, "osmid": 38967881.0 }, "geometry": { "type": "Point", "coordinates": [ 9.935412752705972, 53.550303087061451 ] } },
{ "type": "Feature", "properties": { "AADT": 14000.0, "AAWT": 15000.0, "TR_pct_AAWT": 2.0, "raw_name": "Julius-Leber-Straße W Harkortstraße", "osm_name": "Lessingtunnel", "osm_type": "secondary", "osm_lanes": 1.0, "osm_oneway": "True", "osm_distance": 3.6972429656721535, "osm_maxspeed": 50.0, "osmid": 309413335.0 }, "geometry": { "type": "Point", "coordinates": [ 9.935063998290216, 53.55570816888325 ] } },
{ "type": "Feature", "properties": { "AADT": 7000.0, "AAWT": 7000.0, "TR_pct_AAWT": 10.0, "raw_name": "Plöner Straße O Schleswiger Straße", "osm_name": "Plöner Straße", "osm_type": "tertiary", "osm_lanes": 2.0, "osm_oneway": null, "osm_distance": 0.27576203022388368, "osm_maxspeed": 50.0, "osmid": 41758523.0 }, "geometry": { "type": "Point", "coordinates": [ 9.934084945849648, 53.566772202868918 ] } },
{ "type": "Feature", "properties": { "AADT": 31000.0, "AAWT": 34000.0, "TR_pct_AAWT": 7.0, "raw_name": "Holstenkamp W Große Bahnstraße", "osm_name": "Holstenkamp", "osm_type": "secondary", "osm_lanes": 4.0, "osm_oneway": null, "osm_distance": 0.21883424377413427, "osm_maxspeed": 50.0, "osmid": 15548764.0 }, "geometry": { "type": "Point", "coordinates": [ 9.930649745334929, 53.573306952589931 ] } },
{ "type": "Feature", "properties": { "AADT": 43000.0, "AAWT": 47000.0, "TR_pct_AAWT": 5.0, "raw_name": "Sportplatzring O Kieler Straße", "osm_name": "Sportplatzring", "osm_type": "primary", "osm_lanes": 2.0, "osm_oneway": "True", "osm_distance": 3.1037499332088569, "osm_maxspeed": 50.0, "osmid": 403754292.0 }, "geometry": { "type": "Point", "coordinates": [ 9.932808989741599, 53.592499408018398 ] } },
{ "type": "Feature", "properties": { "AADT": 24000.0, "AAWT": 26000.0, "TR_pct_AAWT": 6.0, "raw_name": "Luruper Chaussee SO Ebertallee", "osm_name": "Luruper Chaussee", "osm_type": "secondary", "osm_lanes": 2.0, "osm_oneway": "True", "osm_distance": 0.43804729886359239, "osm_maxspeed": 50.0, "osmid": 243095356.0 }, "geometry": { "type": "Point", "coordinates": [ 9.893079072444841, 53.573476480958355 ] } },
{ "type": "Feature", "properties": { "AADT": 22000.0, "AAWT": 24000.0, "TR_pct_AAWT": 7.0, "raw_name": "Kieler Straße NW A7 AS HH-Stellingen", "osm_name": "Kieler Straße", "osm_type": "primary", "osm_lanes": 3.0, "osm_oneway": "True", "osm_distance": 0.36716915309892489, "osm_maxspeed": 50.0, "osmid": 239301565.0 }, "geometry": { "type": "Point", "coordinates": [ 9.922127094551376, 53.596672144128547 ] } },
{ "type": "Feature", "properties": { "AADT": 57000.0, "AAWT": 63000.0, "TR_pct_AAWT": 6.0, "raw_name": "Kieler Straße SO A7 AS HH-Stellingen", "osm_name": "Kieler Straße", "osm_type": "primary", "osm_lanes": 2.0, "osm_oneway": "True", "osm_distance": 4.6317436161201115, "osm_maxspeed": 50.0, "osmid": 47135496.0 }, "geometry": { "type": "Point", "coordinates": [ 9.924774901935589, 53.594755057762455 ] } },
{ "type": "Feature", "properties": { "AADT": 114000.0, "AAWT": 121000.0, "TR_pct_AAWT": 14.0, "raw_name": "A7 SW AS HH-Stellingen", "osm_name": null, "osm_type": "motorway", "osm_lanes": 6.0, "osm_oneway": "True", "osm_distance": 8.7073609944617925, "osm_maxspeed": 80.0, "osmid": 544411425.0 }, "geometry": { "type": "Point", "coordinates": [ 9.920652744925649, 53.592800304892016 ] } },
{ "type": "Feature", "properties": { "AADT": 103000.0, "AAWT": 108000.0, "TR_pct_AAWT": 15.0, "raw_name": "A7 N AS HH-Bahrenfeld", "osm_name": null, "osm_type": "motorway", "osm_lanes": 3.0, "osm_oneway": "True", "osm_distance": 16.648958596522785, "osm_maxspeed": 60.0, "osmid": 1080557747.0 }, "geometry": { "type": "Point", "coordinates": [ 9.901080288352665, 53.568364723520695 ] } },
{ "type": "Feature", "properties": { "AADT": 37000.0, "AAWT": 40000.0, "TR_pct_AAWT": 4.0, "raw_name": "Bahrenfelder Marktplatz O AS HH-Bahrenfeld", "osm_name": "Bahrenfelder Marktplatz", "osm_type": "primary", "osm_lanes": 1.0, "osm_oneway": "True", "osm_distance": 4.0004568922937356, "osm_maxspeed": 50.0, "osmid": 1026837499.0 }, "geometry": { "type": "Point", "coordinates": [ 9.901111844167355, 53.564876793538218 ] } },
{ "type": "Feature", "properties": { "AADT": 112000.0, "AAWT": 118000.0, "TR_pct_AAWT": 14.0, "raw_name": "A7 S AS HH-Bahrenfeld", "osm_name": null, "osm_type": "motorway", "osm_lanes": 3.0, "osm_oneway": "True", "osm_distance": 8.5531018309033815, "osm_maxspeed": 60.0, "osmid": 1080557747.0 }, "geometry": { "type": "Point", "coordinates": [ 9.89871373572459, 53.562153220623486 ] } },
{ "type": "Feature", "properties": { "AADT": 42000.0, "AAWT": 46000.0, "TR_pct_AAWT": 4.0, "raw_name": "Osdorfer Weg W AS HH-Bahrenfeld", "osm_name": "Osdorfer Weg", "osm_type": "primary", "osm_lanes": 3.0, "osm_oneway": "True", "osm_distance": 5.3478152680863085, "osm_maxspeed": 50.0, "osmid": 223336657.0 }, "geometry": { "type": "Point", "coordinates": [ 9.898073340523204, 53.565421001077155 ] } },
{ "type": "Feature", "properties": { "AADT": 11000.0, "AAWT": 12000.0, "TR_pct_AAWT": 2.0, "raw_name": "Sierichstraße SO Hudtwalckerstraße", "osm_name": "Sierichstraße", "osm_type": "secondary", "osm_lanes": 2.0, "osm_oneway": "reversible", "osm_distance": 0.42393285886923404, "osm_maxspeed": 50.0, "osmid": 44417212.0 }, "geometry": { "type": "Point", "coordinates": [ 9.996965835453626, 53.59329441840277 ] } },
{ "type": "Feature", "properties": { "AADT": 12000.0, "AAWT": 13000.0, "TR_pct_AAWT": 1.0, "raw_name": "Krugkoppel SW Leinpfad", "osm_name": "Krugkoppel", "osm_type": "tertiary", "osm_lanes": 2.0, "osm_oneway": null, "osm_distance": 0.10716112491253474, "osm_maxspeed": 50.0, "osmid": 11136853.0 }, "geometry": { "type": "Point", "coordinates": [ 9.999098246596205, 53.579928050877029 ] } },
{ "type": "Feature", "properties": { "AADT": 27000.0, "AAWT": 29000.0, "TR_pct_AAWT": 7.0, "raw_name": "Budapester Straße NW Simon-von-Utrecht-Straße", "osm_name": "Budapester Straße", "osm_type": "primary", "osm_lanes": 2.0, "osm_oneway": "True", "osm_distance": 6.42489118236709, "osm_maxspeed": 50.0, "osmid": 43664476.0 }, "geometry": { "type": "Point", "coordinates": [ 9.968135802965504, 53.551588772635277 ] } },
{ "type": "Feature", "properties": { "AADT": 39000.0, "AAWT": 43000.0, "TR_pct_AAWT": 6.0, "raw_name": "Budapester Straße SO Simon-von-Utrecht-Straße", "osm_name": "Budapester Straße", "osm_type": "primary", "osm_lanes": 4.0, "osm_oneway": "True", "osm_distance": 6.2246267249058338, "osm_maxspeed": 50.0, "osmid": 790005551.0 }, "geometry": { "type": "Point", "coordinates": [ 9.969450728247022, 53.551002826988999 ] } },
{ "type": "Feature", "properties": { "AADT": 14000.0, "AAWT": 16000.0, "TR_pct_AAWT": 3.0, "raw_name": "Simon-von-Utrecht-Straße W Budapester Straße", "osm_name": "Simon-von-Utrecht-Straße", "osm_type": "secondary", "osm_lanes": 2.0, "osm_oneway": "True", "osm_distance": 0.35995342090420862, "osm_maxspeed": 50.0, "osmid": 143065638.0 }, "geometry": { "type": "Point", "coordinates": [ 9.967957692538361, 53.551059865043584 ] } },
{ "type": "Feature", "properties": { "AADT": 42000.0, "AAWT": 47000.0, "TR_pct_AAWT": 4.0, "raw_name": "Kennedybrücke W Ferdinandstor", "osm_name": "Kennedybrücke", "osm_type": "primary", "osm_lanes": 4.0, "osm_oneway": null, "osm_distance": 0.90360125663850077, "osm_maxspeed": 50.0, "osmid": 142770547.0 }, "geometry": { "type": "Point", "coordinates": [ 9.997925897132227, 53.55772609497145 ] } },
{ "type": "Feature", "properties": { "AADT": 51000.0, "AAWT": 57000.0, "TR_pct_AAWT": 4.0, "raw_name": "Lombardsbrücke W Ballindamm", "osm_name": "Lombardsbrücke", "osm_type": "secondary", "osm_lanes": 5.0, "osm_oneway": null, "osm_distance": 0.89082901275686721, "osm_maxspeed": 50.0, "osmid": 142770548.0 }, "geometry": { "type": "Point", "coordinates": [ 9.997287183212149, 53.556886457818948 ] } },
{ "type": "Feature", "properties": { "AADT": 37000.0, "AAWT": 41000.0, "TR_pct_AAWT": 4.0, "raw_name": "Hudtwalckerstraße SW Sierichstraße", "osm_name": "Hudtwalckerstraße", "osm_type": "primary", "osm_lanes": 3.0, "osm_oneway": "True", "osm_distance": 3.2510020938169801, "osm_maxspeed": 50.0, "osmid": 953955147.0 }, "geometry": { "type": "Point", "coordinates": [ 9.995085129055854, 53.593633675629796 ] } },
{ "type": "Feature", "properties": { "AADT": 28000.0, "AAWT": 31000.0, "TR_pct_AAWT": 5.0, "raw_name": "Reeperbahn W Millerntorplatz", "osm_name": "Reeperbahn", "osm_type": "secondary", "osm_lanes": 3.0, "osm_oneway": "True", "osm_distance": 2.848151575670034, "osm_maxspeed": 50.0, "osmid": 704160492.0 }, "geometry": { "type": "Point", "coordinates": [ 9.968235929932719, 53.550023881058557 ] } },
{ "type": "Feature", "properties": { "AADT": 14000.0, "AAWT": 16000.0, "TR_pct_AAWT": 4.0, "raw_name": "Elbgaustraße NO Farnhornweg", "osm_name": "Elbgaustraße", "osm_type": "primary", "osm_lanes": 2.0, "osm_oneway": null, "osm_distance": 0.35056917415490391, "osm_maxspeed": 50.0, "osmid": 601226592.0 }, "geometry": { "type": "Point", "coordinates": [ 9.883189947188898, 53.593900677056695 ] } },
{ "type": "Feature", "properties": { "AADT": 27000.0, "AAWT": 30000.0, "TR_pct_AAWT": 4.0, "raw_name": "Farnhornweg O Elbgaustraße", "osm_name": "Farnhornweg", "osm_type": "primary", "osm_lanes": 2.0, "osm_oneway": "True", "osm_distance": 1.0711591122046722, "osm_maxspeed": 50.0, "osmid": 305871915.0 }, "geometry": { "type": "Point", "coordinates": [ 9.883673668302574, 53.593186986875253 ] } },
{ "type": "Feature", "properties": { "AADT": 31000.0, "AAWT": 34000.0, "TR_pct_AAWT": 4.0, "raw_name": "Elbgaustraße SW Farnhornweg", "osm_name": "Elbgaustraße", "osm_type": "primary", "osm_lanes": 4.0, "osm_oneway": "False", "osm_distance": 1.5199319038050769, "osm_maxspeed": 50.0, "osmid": 603657368.0 }, "geometry": { "type": "Point", "coordinates": [ 9.881985382383027, 53.592651123835886 ] } },
{ "type": "Feature", "properties": { "AADT": 8000.0, "AAWT": 8000.0, "TR_pct_AAWT": 3.0, "raw_name": "Halbmondsweg N Elbchaussee", "osm_name": "Halbmondsweg", "osm_type": "tertiary", "osm_lanes": 2.0, "osm_oneway": null, "osm_distance": 0.067762116147425333, "osm_maxspeed": 50.0, "osmid": 145225379.0 }, "geometry": { "type": "Point", "coordinates": [ 9.889885071988965, 53.547225731965625 ] } },
{ "type": "Feature", "properties": { "AADT": 21000.0, "AAWT": 23000.0, "TR_pct_AAWT": 3.0, "raw_name": "Elbchaussee O Halbmondsweg", "osm_name": "Elbchaussee", "osm_type": "secondary", "osm_lanes": 2.0, "osm_oneway": "True", "osm_distance": 0.51831965983304418, "osm_maxspeed": 50.0, "osmid": 813914618.0 }, "geometry": { "type": "Point", "coordinates": [ 9.890839163273512, 53.546661315872598 ] } },
{ "type": "Feature", "properties": { "AADT": 23000.0, "AAWT": 25000.0, "TR_pct_AAWT": 4.0, "raw_name": "Elbchaussee W Halbmondsweg", "osm_name": "Elbchaussee", "osm_type": "secondary", "osm_lanes": 2.0, "osm_oneway": "True", "osm_distance": 0.45569764451626177, "osm_maxspeed": 50.0, "osmid": 813914614.0 }, "geometry": { "type": "Point", "coordinates": [ 9.888873090284326, 53.546469199703743 ] } },
{ "type": "Feature", "properties": { "AADT": 17000.0, "AAWT": 19000.0, "TR_pct_AAWT": 4.0, "raw_name": "Barsbütteler Straße W Holsteiner Tor (Landesgrenze)", "osm_name": "Barsbütteler Straße", "osm_type": "secondary", "osm_lanes": 2.0, "osm_oneway": null, "osm_distance": 1.8722405779429194, "osm_maxspeed": 50.0, "osmid": 520042143.0 }, "geometry": { "type": "Point", "coordinates": [ 10.145622139082574, 53.570155894653965 ] } },
{ "type": "Feature", "properties": { "AADT": 46000.0, "AAWT": 50000.0, "TR_pct_AAWT": 9.0, "raw_name": "Wilhelmsburger Reichsstraße N AS HH-Wilhelmsburg", "osm_name": null, "osm_type": "trunk", "osm_lanes": 2.0, "osm_oneway": "True", "osm_distance": 1.6281529819298408, "osm_maxspeed": 80.0, "osmid": 331515726.0 }, "geometry": { "type": "Point", "coordinates": [ 10.005038961018748, 53.511957348584367 ] } },
{ "type": "Feature", "properties": { "AADT": 102000.0, "AAWT": 113000.0, "TR_pct_AAWT": 9.0, "raw_name": "A255 S AS HH-Veddel", "osm_name": null, "osm_type": "motorway", "osm_lanes": 2.0, "osm_oneway": "True", "osm_distance": 6.5754780404736923, "osm_maxspeed": 80.0, "osmid": 25565202.0 }, "geometry": { "type": "Point", "coordinates": [ 10.024761405534774, 53.521839687568246 ] } },
{ "type": "Feature", "properties": { "AADT": 10000.0, "AAWT": 11000.0, "TR_pct_AAWT": 2.0, "raw_name": "Eilbektal SW Mühlenstraße", "osm_name": "Eilbektal", "osm_type": "tertiary", "osm_lanes": 2.0, "osm_oneway": "True", "osm_distance": 0.13779320502840781, "osm_maxspeed": 50.0, "osmid": 181911732.0 }, "geometry": { "type": "Point", "coordinates": [ 10.057437208819394, 53.575875958924456 ] } },
{ "type": "Feature", "properties": { "AADT": 17000.0, "AAWT": 19000.0, "TR_pct_AAWT": 2.0, "raw_name": "Schwanenwik S Armgartstraße", "osm_name": "Schwanenwik", "osm_type": "secondary", "osm_lanes": 3.0, "osm_oneway": "True", "osm_distance": 1.4440241540207994, "osm_maxspeed": 50.0, "osmid": 23854402.0 }, "geometry": { "type": "Point", "coordinates": [ 10.016934423346491, 53.564721226156848 ] } },
{ "type": "Feature", "properties": { "AADT": 17000.0, "AAWT": 19000.0, "TR_pct_AAWT": 4.0, "raw_name": "Krausestraße SO Lämmersieth", "osm_name": "Krausestraße", "osm_type": "secondary", "osm_lanes": 2.0, "osm_oneway": null, "osm_distance": 0.23952794872953101, "osm_maxspeed": 50.0, "osmid": 23838683.0 }, "geometry": { "type": "Point", "coordinates": [ 10.0545471503019, 53.583551108851744 ] } },
{ "type": "Feature", "properties": { "AADT": 6000.0, "AAWT": 7000.0, "TR_pct_AAWT": 12.0, "raw_name": "Wilhelmsburger Brücke N Veddeler Straße", "osm_name": "Wilhelmsburger Brücke", "osm_type": "tertiary", "osm_lanes": 2.0, "osm_oneway": null, "osm_distance": 0.064347553924780476, "osm_maxspeed": null, "osmid": 157109028.0 }, "geometry": { "type": "Point", "coordinates": [ 10.014977098167913, 53.522057986715581 ] } },
{ "type": "Feature", "properties": { "AADT": 10000.0, "AAWT": 11000.0, "TR_pct_AAWT": 2.0, "raw_name": "Hufnerstraße N Osterbekstraße", "osm_name": "Hufnerstraße", "osm_type": "secondary", "osm_lanes": 3.0, "osm_oneway": "False", "osm_distance": 0.9874744109957686, "osm_maxspeed": 50.0, "osmid": 147278983.0 }, "geometry": { "type": "Point", "coordinates": [ 10.042198036654836, 53.58508857124761 ] } },
{ "type": "Feature", "properties": { "AADT": 29000.0, "AAWT": 32000.0, "TR_pct_AAWT": 3.0, "raw_name": "Adolph-Schönfelder-Straße NW Hamburger Straße", "osm_name": "Adolph-Schönfelder-Straße", "osm_type": "secondary", "osm_lanes": 2.0, "osm_oneway": "True", "osm_distance": 5.2551614291399122, "osm_maxspeed": 50.0, "osmid": 188578071.0 }, "geometry": { "type": "Point", "coordinates": [ 10.034239568799419, 53.575916961504198 ] } },
{ "type": "Feature", "properties": { "AADT": 44000.0, "AAWT": 49000.0, "TR_pct_AAWT": 3.0, "raw_name": "Hamburger Straße NO Wagnerstraße", "osm_name": "Hamburger Straße", "osm_type": "primary", "osm_lanes": 4.0, "osm_oneway": "True", "osm_distance": 6.301502185095452, "osm_maxspeed": 50.0, "osmid": 1111521535.0 }, "geometry": { "type": "Point", "coordinates": [ 10.036177151376522, 53.575477711957653 ] } },
{ "type": "Feature", "properties": { "AADT": 17000.0, "AAWT": 19000.0, "TR_pct_AAWT": 2.0, "raw_name": "Wagnerstraße SO Hamburger Straße", "osm_name": "Wagnerstraße", "osm_type": "secondary", "osm_lanes": 3.0, "osm_oneway": "True", "osm_distance": 0.016556003144221034, "osm_maxspeed": 50.0, "osmid": 5008719.0 }, "geometry": { "type": "Point", "coordinates": [ 10.036306392496545, 53.574586682356305 ] } },
{ "type": "Feature", "properties": { "AADT": 58000.0, "AAWT": 64000.0, "TR_pct_AAWT": 3.0, "raw_name": "Hamburger Straße SW Wagnerstraße", "osm_name": "Hamburger Straße", "osm_type": "primary", "osm_lanes": 3.0, "osm_oneway": "True", "osm_distance": 10.920073489891243, "osm_maxspeed": 50.0, "osmid": 185093747.0 }, "geometry": { "type": "Point", "coordinates": [ 10.034261583225177, 53.574343698125872 ] } },
{ "type": "Feature", "properties": { "AADT": 28000.0, "AAWT": 31000.0, "TR_pct_AAWT": 4.0, "raw_name": "Mühlendamm N Lübecker Straße", "osm_name": "Mühlendamm", "osm_type": "secondary", "osm_lanes": 2.0, "osm_oneway": "True", "osm_distance": 3.145844124934011, "osm_maxspeed": 50.0, "osmid": 926327572.0 }, "geometry": { "type": "Point", "coordinates": [ 10.025745661123532, 53.559450347334973 ] } },
{ "type": "Feature", "properties": { "AADT": 37000.0, "AAWT": 41000.0, "TR_pct_AAWT": 3.0, "raw_name": "Lübecker Straße NO Mühlendamm", "osm_name": "Lübecker Straße", "osm_type": "primary", "osm_lanes": 4.0, "osm_oneway": "True", "osm_distance": 2.5344011757602076, "osm_maxspeed": 50.0, "osmid": 926327558.0 }, "geometry": { "type": "Point", "coordinates": [ 10.026903784026439, 53.559269618552854 ] } },
{ "type": "Feature", "properties": { "AADT": 39000.0, "AAWT": 43000.0, "TR_pct_AAWT": 4.0, "raw_name": "Steinhauerdamm S Lübecker Straße", "osm_name": "Steinhauerdamm", "osm_type": "primary", "osm_lanes": 3.0, "osm_oneway": "True", "osm_distance": 5.1479521325108903, "osm_maxspeed": 50.0, "osmid": 926327573.0 }, "geometry": { "type": "Point", "coordinates": [ 10.026006573563842, 53.558378417780787 ] } },
{ "type": "Feature", "properties": { "AADT": 26000.0, "AAWT": 29000.0, "TR_pct_AAWT": 2.0, "raw_name": "Lübecker Straße W Mühlendamm", "osm_name": "Lübecker Straße", "osm_type": "secondary", "osm_lanes": 3.0, "osm_oneway": "True", "osm_distance": 2.5937889453042642, "osm_maxspeed": 50.0, "osmid": 926327568.0 }, "geometry": { "type": "Point", "coordinates": [ 10.025108544615604, 53.558700733148392 ] } },
{ "type": "Feature", "properties": { "AADT": 8000.0, "AAWT": 9000.0, "TR_pct_AAWT": 2.0, "raw_name": "Eilbeker Weg SW Brauhausstraße", "osm_name": "Eilbeker Weg", "osm_type": "tertiary", "osm_lanes": 3.0, "osm_oneway": "True", "osm_distance": 0.74588766411382057, "osm_maxspeed": 50.0, "osmid": 181911729.0 }, "geometry": { "type": "Point", "coordinates": [ 10.057905286639917, 53.574056040635433 ] } },
{ "type": "Feature", "properties": { "AADT": 15000.0, "AAWT": 17000.0, "TR_pct_AAWT": 2.0, "raw_name": "Krausestraße N Dehnhaide", "osm_name": "Krausestraße", "osm_type": "secondary", "osm_lanes": 2.0, "osm_oneway": null, "osm_distance": 0.1624247710654754, "osm_maxspeed": 50.0, "osmid": 47706630.0 }, "geometry": { "type": "Point", "coordinates": [ 10.056935348454015, 53.580581642834552 ] } },
{ "type": "Feature", "properties": { "AADT": 17000.0, "AAWT": 18000.0, "TR_pct_AAWT": 4.0, "raw_name": "Straßburger Straße O Probsteier Straße", "osm_name": "Straßburger Straße", "osm_type": "secondary", "osm_lanes": null, "osm_oneway": "True", "osm_distance": 6.2489284160942082, "osm_maxspeed": 30.0, "osmid": 40151750.0 }, "geometry": { "type": "Point", "coordinates": [ 10.058105645419099, 53.580265671730487 ] } },
{ "type": "Feature", "properties": { "AADT": 18000.0, "AAWT": 20000.0, "TR_pct_AAWT": 3.0, "raw_name": "Krausestraße S Dehnhaide", "osm_name": "Krausestraße", "osm_type": "secondary", "osm_lanes": 2.0, "osm_oneway": "False", "osm_distance": 0.16956750918061975, "osm_maxspeed": 50.0, "osmid": 1254548045.0 }, "geometry": { "type": "Point", "coordinates": [ 10.057484312333477, 53.579579012456641 ] } },
{ "type": "Feature", "properties": { "AADT": 18000.0, "AAWT": 20000.0, "TR_pct_AAWT": 3.0, "raw_name": "Dehnhaide W Krausestraße", "osm_name": "Dehnhaide", "osm_type": "secondary", "osm_lanes": 2.0, "osm_oneway": "True", "osm_distance": 4.4808432070892117, "osm_maxspeed": 50.0, "osmid": 10560412.0 }, "geometry": { "type": "Point", "coordinates": [ 10.056238746565928, 53.57990463114988 ] } },
{ "type": "Feature", "properties": { "AADT": 14000.0, "AAWT": 15000.0, "TR_pct_AAWT": 3.0, "raw_name": "Sievekingsallee NW Rennbahnstraße", "osm_name": "Sievekingsallee", "osm_type": "secondary", "osm_lanes": 2.0, "osm_oneway": "True", "osm_distance": 5.9677825831186047, "osm_maxspeed": 50.0, "osmid": 951645159.0 }, "geometry": { "type": "Point", "coordinates": [ 10.082093314205578, 53.555466078931261 ] } },
{ "type": "Feature", "properties": { "AADT": 37000.0, "AAWT": 41000.0, "TR_pct_AAWT": 7.0, "raw_name": "Rennbahnstraße N Hermannstal", "osm_name": "Rennbahnstraße", "osm_type": "primary", "osm_lanes": 2.0, "osm_oneway": "True", "osm_distance": 4.6913793458322521, "osm_maxspeed": 50.0, "osmid": 30153831.0 }, "geometry": { "type": "Point", "coordinates": [ 10.082921853695037, 53.555988934219691 ] } },
{ "type": "Feature", "properties": { "AADT": 15000.0, "AAWT": 17000.0, "TR_pct_AAWT": 4.0, "raw_name": "Hermannstal O Rennbahnstraße", "osm_name": "Hermannstal", "osm_type": "tertiary", "osm_lanes": 4.0, "osm_oneway": null, "osm_distance": 1.1539442035970939, "osm_maxspeed": 50.0, "osmid": 315681063.0 }, "geometry": { "type": "Point", "coordinates": [ 10.085592856973319, 53.554769174636611 ] } },
{ "type": "Feature", "properties": { "AADT": 35000.0, "AAWT": 39000.0, "TR_pct_AAWT": 8.0, "raw_name": "Rennbahnstraße S Hermannstal", "osm_name": null, "osm_type": null, "osm_lanes": null, "osm_oneway": null, "osm_distance": null, "osm_maxspeed": null, "osmid": null }, "geometry": { "type": "Point", "coordinates": [ 10.08414484213132, 53.554224987606496 ] } },
{ "type": "Feature", "properties": { "AADT": 8000.0, "AAWT": 9000.0, "TR_pct_AAWT": 7.0, "raw_name": "Washingtonallee SO Bauerberg", "osm_name": "Washingtonallee", "osm_type": "tertiary", "osm_lanes": 1.0, "osm_oneway": "True", "osm_distance": 5.9850172442187262, "osm_maxspeed": 50.0, "osmid": 633997552.0 }, "geometry": { "type": "Point", "coordinates": [ 10.085381989375973, 53.553018221106356 ] } },
{ "type": "Feature", "properties": { "AADT": 27000.0, "AAWT": 29000.0, "TR_pct_AAWT": 8.0, "raw_name": "Rennbahnstraße S Bauerberg", "osm_name": "Rennbahnstraße", "osm_type": "primary", "osm_lanes": 2.0, "osm_oneway": "True", "osm_distance": 6.4166933667039849, "osm_maxspeed": 50.0, "osmid": 40274421.0 }, "geometry": { "type": "Point", "coordinates": [ 10.084255553989696, 53.552650897911164 ] } },
{ "type": "Feature", "properties": { "AADT": 17000.0, "AAWT": 19000.0, "TR_pct_AAWT": 5.0, "raw_name": "Willinghusener Weg N Glinder Straße (Landesgrenze)", "osm_name": "Willinghusener Weg", "osm_type": "tertiary", "osm_lanes": 5.0, "osm_oneway": null, "osm_distance": 6.4755457193932964, "osm_maxspeed": 50.0, "osmid": 675705219.0 }, "geometry": { "type": "Point", "coordinates": [ 10.152239377797729, 53.54359241186495 ] } },
{ "type": "Feature", "properties": { "AADT": 20000.0, "AAWT": 22000.0, "TR_pct_AAWT": 4.0, "raw_name": "Möllner Landstraße O Oststeinbeker Weg (Landesgrenze)", "osm_name": "Möllner Landstraße", "osm_type": "secondary", "osm_lanes": 2.0, "osm_oneway": "True", "osm_distance": 3.3886338631028732, "osm_maxspeed": 50.0, "osmid": 675791735.0 }, "geometry": { "type": "Point", "coordinates": [ 10.152805587338047, 53.542768943094842 ] } },
{ "type": "Feature", "properties": { "AADT": 23000.0, "AAWT": 25000.0, "TR_pct_AAWT": 5.0, "raw_name": "Glinder Straße W Oststeinbeker Weg", "osm_name": "Glinder Straße", "osm_type": "secondary", "osm_lanes": 6.0, "osm_oneway": null, "osm_distance": 1.0504490575940679, "osm_maxspeed": 50.0, "osmid": 993263411.0 }, "geometry": { "type": "Point", "coordinates": [ 10.15064343807453, 53.543176300311686 ] } },
{ "type": "Feature", "properties": { "AADT": 29000.0, "AAWT": 32000.0, "TR_pct_AAWT": 6.0, "raw_name": "Jenfelder Allee N Rodigallee", "osm_name": "Jenfelder Allee", "osm_type": "secondary", "osm_lanes": 4.0, "osm_oneway": "True", "osm_distance": 1.1046819677504223, "osm_maxspeed": 50.0, "osmid": 79269698.0 }, "geometry": { "type": "Point", "coordinates": [ 10.124890407420148, 53.571386396900309 ] } },
{ "type": "Feature", "properties": { "AADT": 22000.0, "AAWT": 24000.0, "TR_pct_AAWT": 5.0, "raw_name": "Rodigallee O Jenfelder Allee", "osm_name": "Rodigallee", "osm_type": "secondary", "osm_lanes": 3.0, "osm_oneway": "True", "osm_distance": 0.32291338296232541, "osm_maxspeed": 50.0, "osmid": 253918277.0 }, "geometry": { "type": "Point", "coordinates": [ 10.125573937627895, 53.570966469684251 ] } },
{ "type": "Feature", "properties": { "AADT": 44000.0, "AAWT": 48000.0, "TR_pct_AAWT": 5.0, "raw_name": "Schiffbeker Weg S Rodigallee", "osm_name": "Schiffbeker Weg", "osm_type": "secondary", "osm_lanes": 2.0, "osm_oneway": "True", "osm_distance": 5.9441840621804669, "osm_maxspeed": 50.0, "osmid": 253918283.0 }, "geometry": { "type": "Point", "coordinates": [ 10.124417200090331, 53.570626774735565 ] } },
{ "type": "Feature", "properties": { "AADT": 21000.0, "AAWT": 23000.0, "TR_pct_AAWT": 6.0, "raw_name": "Rodigallee W Jenfelder Allee", "osm_name": "Rodigallee", "osm_type": "secondary", "osm_lanes": 6.0, "osm_oneway": null, "osm_distance": 0.6572138927075063, "osm_maxspeed": 50.0, "osmid": 31684419.0 }, "geometry": { "type": "Point", "coordinates": [ 10.123671604220442, 53.570984354875854 ] } },
{ "type": "Feature", "properties": { "AADT": 28000.0, "AAWT": 31000.0, "TR_pct_AAWT": 4.0, "raw_name": "Saarlandstraße N Osterbekstraße", "osm_name": "Saarlandstraße", "osm_type": "secondary", "osm_lanes": 2.0, "osm_oneway": "True", "osm_distance": 7.2141692886749764, "osm_maxspeed": 50.0, "osmid": 145893957.0 }, "geometry": { "type": "Point", "coordinates": [ 10.033670532161569, 53.584785014745762 ] } },
{ "type": "Feature", "properties": { "AADT": 35000.0, "AAWT": 38000.0, "TR_pct_AAWT": 3.0, "raw_name": "Barmbeker Straße N Weidestraße", "osm_name": "Bachstraße", "osm_type": "primary", "osm_lanes": 4.0, "osm_oneway": "True", "osm_distance": 6.2141687868625217, "osm_maxspeed": 50.0, "osmid": 949176682.0 }, "geometry": { "type": "Point", "coordinates": [ 10.019556750502218, 53.582092577649256 ] } },
{ "type": "Feature", "properties": { "AADT": 13000.0, "AAWT": 14000.0, "TR_pct_AAWT": 6.0, "raw_name": "Hofweg S Körnerstraße", "osm_name": "Hofweg", "osm_type": "tertiary", "osm_lanes": 3.0, "osm_oneway": "False", "osm_distance": 0.63141417470077588, "osm_maxspeed": 50.0, "osmid": 5142771.0 }, "geometry": { "type": "Point", "coordinates": [ 10.01325433719277, 53.579422465814403 ] } },
{ "type": "Feature", "properties": { "AADT": 13000.0, "AAWT": 15000.0, "TR_pct_AAWT": 2.0, "raw_name": "Herbert-Weichmann-Straße N Am Langenzug", "osm_name": "Herbert-Weichmann-Straße", "osm_type": "secondary", "osm_lanes": 2.0, "osm_oneway": "reversible", "osm_distance": 0.35979668640954027, "osm_maxspeed": 50.0, "osmid": 25716172.0 }, "geometry": { "type": "Point", "coordinates": [ 10.010021012945057, 53.57748122427958 ] } },
{ "type": "Feature", "properties": { "AADT": 60000.0, "AAWT": 66000.0, "TR_pct_AAWT": 6.0, "raw_name": "Amsinckstraße SO Süderstraße", "osm_name": "Amsinckstraße", "osm_type": "primary", "osm_lanes": 3.0, "osm_oneway": "True", "osm_distance": 7.6800283401228935, "osm_maxspeed": 50.0, "osmid": 25469049.0 }, "geometry": { "type": "Point", "coordinates": [ 10.030089991466326, 53.541273165703828 ] } },
{ "type": "Feature", "properties": { "AADT": 52000.0, "AAWT": 58000.0, "TR_pct_AAWT": 6.0, "raw_name": "Heidenkampsweg SO Bullerdeich", "osm_name": "Heidenkampsweg", "osm_type": "primary", "osm_lanes": 5.0, "osm_oneway": "True", "osm_distance": 7.2077007552291512, "osm_maxspeed": 50.0, "osmid": 25469035.0 }, "geometry": { "type": "Point", "coordinates": [ 10.032848443916453, 53.542381991080561 ] } },
{ "type": "Feature", "properties": { "AADT": 34000.0, "AAWT": 38000.0, "TR_pct_AAWT": 5.0, "raw_name": "Eiffestraße O Ausschläger Weg", "osm_name": null, "osm_type": "service", "osm_lanes": null, "osm_oneway": null, "osm_distance": 3.8566358185679341, "osm_maxspeed": null, "osmid": 940905366.0 }, "geometry": { "type": "Point", "coordinates": [ 10.035522446387811, 53.552390623883831 ] } },
{ "type": "Feature", "properties": { "AADT": 26000.0, "AAWT": 29000.0, "TR_pct_AAWT": 3.0, "raw_name": "Borgfelder Straße O Ausschläger Weg", "osm_name": "Borgfelder Straße", "osm_type": "secondary", "osm_lanes": 4.0, "osm_oneway": "True", "osm_distance": 1.7779740497123828, "osm_maxspeed": 50.0, "osmid": 239371692.0 }, "geometry": { "type": "Point", "coordinates": [ 10.034039404744515, 53.55471363368941 ] } },
{ "type": "Feature", "properties": { "AADT": 30000.0, "AAWT": 33000.0, "TR_pct_AAWT": 4.0, "raw_name": "Bürgerweide O Alfredstraße", "osm_name": "Bürgerweide", "osm_type": "primary", "osm_lanes": 2.0, "osm_oneway": "True", "osm_distance": 5.5055228157260441, "osm_maxspeed": 50.0, "osmid": 76468122.0 }, "geometry": { "type": "Point", "coordinates": [ 10.033142231252842, 53.557543938046123 ] } },
{ "type": "Feature", "properties": { "AADT": 37000.0, "AAWT": 40000.0, "TR_pct_AAWT": 3.0, "raw_name": "Mundsburger Damm NO Armgartstraße", "osm_name": "Mundsburger Damm", "osm_type": "primary", "osm_lanes": 5.0, "osm_oneway": null, "osm_distance": 1.3319696622675321, "osm_maxspeed": 50.0, "osmid": 25738126.0 }, "geometry": { "type": "Point", "coordinates": [ 10.019471478434385, 53.565364814998162 ] } },
{ "type": "Feature", "properties": { "AADT": 14000.0, "AAWT": 15000.0, "TR_pct_AAWT": 16.0, "raw_name": "Steintordamm O Steintorwall", "osm_name": "Steintordamm", "osm_type": "secondary", "osm_lanes": 3.0, "osm_oneway": "True", "osm_distance": 0.25010324235057774, "osm_maxspeed": 50.0, "osmid": 572210301.0 }, "geometry": { "type": "Point", "coordinates": [ 10.007148054178487, 53.551922803428113 ] } },
{ "type": "Feature", "properties": { "AADT": 9000.0, "AAWT": 10000.0, "TR_pct_AAWT": 4.0, "raw_name": "Ernst-Merck-Straße NO Glockengießerwall", "osm_name": "Ernst-Merck-Straße", "osm_type": "tertiary", "osm_lanes": 2.0, "osm_oneway": "True", "osm_distance": 3.4947623565368566, "osm_maxspeed": 50.0, "osmid": 186821029.0 }, "geometry": { "type": "Point", "coordinates": [ 10.00433341285208, 53.554175744026772 ] } },
{ "type": "Feature", "properties": { "AADT": 26000.0, "AAWT": 29000.0, "TR_pct_AAWT": 2.0, "raw_name": "Ferdinandstor NO Lombardsbrücke", "osm_name": null, "osm_type": null, "osm_lanes": null, "osm_oneway": null, "osm_distance": null, "osm_maxspeed": null, "osmid": null }, "geometry": { "type": "Point", "coordinates": [ 10.001809067692701, 53.556587987024884 ] } },
{ "type": "Feature", "properties": { "AADT": 12000.0, "AAWT": 13000.0, "TR_pct_AAWT": 15.0, "raw_name": "Freihafenelbbrücke S Versmannstraße", "osm_name": "Freihafenelbbrücke", "osm_type": "secondary", "osm_lanes": 2.0, "osm_oneway": null, "osm_distance": 0.1603808927551284, "osm_maxspeed": 50.0, "osmid": 129273989.0 }, "geometry": { "type": "Point", "coordinates": [ 10.022180935632699, 53.533071121272116 ] } },
{ "type": "Feature", "properties": { "AADT": 11000.0, "AAWT": 12000.0, "TR_pct_AAWT": 5.0, "raw_name": "Kuehnstraße SW Jenfelder Allee", "osm_name": "Kuehnstraße", "osm_type": "tertiary", "osm_lanes": 2.0, "osm_oneway": null, "osm_distance": 0.24197110691614584, "osm_maxspeed": 50.0, "osmid": 609325000.0 }, "geometry": { "type": "Point", "coordinates": [ 10.125824978096372, 53.581553228020482 ] } },