{
"type": "FeatureCollection",
"name": "Manchester_AADT_2018",
"crs": { "type": "name", "properties": { "name": "urn:ogc:def:crs:OGC:1.3:CRS84" } },
"features": [
{ "type": "Feature", "properties": { "AADT": 108867, "TR_AADT": 6030, "2W_AADT": 294, "raw_name": "M56", "raw_oneway": true, "raw_direction": "4-->LA Boundary", "raw_techno": "Estimated using previous year's AADF on this link", "osm_name": "Sharston Link", "osm_type": "motorway", "osm_lanes": 1.0, "osm_oneway": "True", "osm_distance": 1.4388817523086692, "osmid": 4966827.0 }, "geometry": { "type": "Point", "coordinates": [ -2.2480935, 53.395961 ] } },
{ "type": "Feature", "properties": { "AADT": 154855, "TR_AADT": 8900, "2W_AADT": 288, "raw_name": "M56", "raw_oneway": true, "raw_direction": "5-->4", "raw_techno": "Estimated using previous year's AADF on this link", "osm_name": null, "osm_type": "motorway", "osm_lanes": 4.0, "osm_oneway": "True", "osm_distance": 11.805506553064196, "osmid": 3991964.0 }, "geometry": { "type": "Point", "coordinates": [ -2.2786731, 53.380865 ] } },
{ "type": "Feature", "properties": { "AADT": 46801, "TR_AADT": 1821, "2W_AADT": 211, "raw_name": "A57M", "raw_oneway": true, "raw_direction": "A34-->A6", "raw_techno": "Manual count", "osm_name": "Mancunian Way", "osm_type": "motorway", "osm_lanes": 2.0, "osm_oneway": "True", "osm_distance": 2.9791885150927153, "osmid": 206553998.0 }, "geometry": { "type": "Point", "coordinates": [ -2.2324235, 53.473105 ] } },
{ "type": "Feature", "properties": { "AADT": 14708, "TR_AADT": 214, "2W_AADT": 164, "raw_name": "A56", "raw_oneway": true, "raw_direction": "A6042-->LA Boundary", "raw_techno": "Estimated using previous year's AADF on this link", "osm_name": "Bury New Road", "osm_type": "trunk", "osm_lanes": 3.0, "osm_oneway": null, "osm_distance": 3.218271346090416, "osmid": 165524110.0 }, "geometry": { "type": "Point", "coordinates": [ -2.2527502, 53.496434 ] } },
{ "type": "Feature", "properties": { "AADT": 18017, "TR_AADT": 233, "2W_AADT": 87, "raw_name": "A665", "raw_oneway": true, "raw_direction": "A6042-->A6010", "raw_techno": "Estimated using previous year's AADF on this link", "osm_name": "Cheetham Hill Road", "osm_type": "trunk", "osm_lanes": 4.0, "osm_oneway": "False", "osm_distance": 3.0255928947552935, "osmid": 154695511.0 }, "geometry": { "type": "Point", "coordinates": [ -2.2379629, 53.496464 ] } },
{ "type": "Feature", "properties": { "AADT": 105468, "TR_AADT": 3295, "2W_AADT": 267, "raw_name": "A5103", "raw_oneway": true, "raw_direction": "M56-->M60", "raw_techno": "Manual count", "osm_name": "Princess Parkway", "osm_type": "trunk", "osm_lanes": 4.0, "osm_oneway": "True", "osm_distance": 8.1429401909812622, "osmid": 4018899.0 }, "geometry": { "type": "Point", "coordinates": [ -2.2668269, 53.409664 ] } },
{ "type": "Feature", "properties": { "AADT": 11710, "TR_AADT": 77, "2W_AADT": 55, "raw_name": "A5145", "raw_oneway": true, "raw_direction": "A5103-->A34", "raw_techno": "Estimated using previous year's AADF on this link", "osm_name": null, "osm_type": "service", "osm_lanes": null, "osm_oneway": null, "osm_distance": 2.7105124978444599, "osmid": 4966657.0 }, "geometry": { "type": "Point", "coordinates": [ -2.2268609, 53.410376 ] } },
{ "type": "Feature", "properties": { "AADT": 17366, "TR_AADT": 162, "2W_AADT": 141, "raw_name": "A34", "raw_oneway": true, "raw_direction": "A5079-->A6010", "raw_techno": "Estimated using previous year's AADF on this link", "osm_name": "Birchfields Road", "osm_type": "trunk", "osm_lanes": 2.0, "osm_oneway": null, "osm_distance": 2.6338907907225169, "osmid": 155291843.0 }, "geometry": { "type": "Point", "coordinates": [ -2.209538089, 53.451576929 ] } },
{ "type": "Feature", "properties": { "AADT": 17086, "TR_AADT": 415, "2W_AADT": 91, "raw_name": "A6010", "raw_oneway": true, "raw_direction": "A62-->A664", "raw_techno": "Manual count", "osm_name": "Queens Road", "osm_type": "trunk", "osm_lanes": 1.0, "osm_oneway": "True", "osm_distance": 0.72755128529611623, "osmid": 4947586.0 }, "geometry": { "type": "Point", "coordinates": [ -2.2136561, 53.49794 ] } },
{ "type": "Feature", "properties": { "AADT": 34516, "TR_AADT": 730, "2W_AADT": 191, "raw_name": "A665", "raw_oneway": true, "raw_direction": "Pin Mill Brow-->A662", "raw_techno": "Manual count", "osm_name": "Great Ancoats Street", "osm_type": "trunk", "osm_lanes": 2.0, "osm_oneway": null, "osm_distance": 1.6618939232499601, "osmid": 896118858.0 }, "geometry": { "type": "Point", "coordinates": [ -2.2210319, 53.47852 ] } },
{ "type": "Feature", "properties": { "AADT": 5325, "TR_AADT": 43, "2W_AADT": 65, "raw_name": "A6143", "raw_oneway": true, "raw_direction": "A57-->A56", "raw_techno": "Estimated using previous year's AADF on this link", "osm_name": "Liverpool Road", "osm_type": "primary", "osm_lanes": 2.0, "osm_oneway": null, "osm_distance": 2.5160367351059962, "osmid": 732478288.0 }, "geometry": { "type": "Point", "coordinates": [ -2.2576066, 53.476982 ] } },
{ "type": "Feature", "properties": { "AADT": 17358, "TR_AADT": 325, "2W_AADT": 90, "raw_name": "A6", "raw_oneway": true, "raw_direction": "A5079-->A6010", "raw_techno": "Manual count", "osm_name": "Stockport Road", "osm_type": "trunk", "osm_lanes": 2.0, "osm_oneway": null, "osm_distance": 0.13358948044056076, "osmid": 1342703953.0 }, "geometry": { "type": "Point", "coordinates": [ -2.1988657, 53.455602 ] } },
{ "type": "Feature", "properties": { "AADT": 8590, "TR_AADT": 90, "2W_AADT": 118, "raw_name": "A34", "raw_oneway": true, "raw_direction": "A6042-->A56", "raw_techno": "Estimated using previous year's AADF on this link", "osm_name": "John Dalton Street", "osm_type": "primary", "osm_lanes": 2.0, "osm_oneway": null, "osm_distance": 1.3956440333806444, "osmid": 1334549232.0 }, "geometry": { "type": "Point", "coordinates": [ -2.2470806, 53.48059 ] } },
{ "type": "Feature", "properties": { "AADT": 9914, "TR_AADT": 162, "2W_AADT": 83, "raw_name": "A34", "raw_oneway": true, "raw_direction": "A6042-->A56", "raw_techno": "Estimated using previous year's AADF on this link", "osm_name": "Peter Street", "osm_type": "primary", "osm_lanes": null, "osm_oneway": null, "osm_distance": 0.3982802061818006, "osmid": 197713164.0 }, "geometry": { "type": "Point", "coordinates": [ -2.2470654, 53.477975 ] } },
{ "type": "Feature", "properties": { "AADT": 10975, "TR_AADT": 182, "2W_AADT": 84, "raw_name": "A56", "raw_oneway": true, "raw_direction": "A6143-->A34", "raw_techno": "Estimated using previous year's AADF on this link", "osm_name": "Deansgate", "osm_type": "tertiary", "osm_lanes": 2.0, "osm_oneway": "True", "osm_distance": 1.0051912188774701, "osmid": 250134165.0 }, "geometry": { "type": "Point", "coordinates": [ -2.2505232, 53.476664 ] } },
{ "type": "Feature", "properties": { "AADT": 11659, "TR_AADT": 205, "2W_AADT": 35, "raw_name": "A62", "raw_oneway": true, "raw_direction": "A6-->A665", "raw_techno": "Estimated using previous year's AADF on this link", "osm_name": "Newton Street", "osm_type": "primary", "osm_lanes": 2.0, "osm_oneway": null, "osm_distance": 0.87778271870012781, "osmid": 1226575034.0 }, "geometry": { "type": "Point", "coordinates": [ -2.2324582, 53.482211 ] } },
{ "type": "Feature", "properties": { "AADT": 133543, "TR_AADT": 8419, "2W_AADT": 297, "raw_name": "M56", "raw_oneway": true, "raw_direction": "6-->5", "raw_techno": "Automatic counter", "osm_name": null, "osm_type": "motorway", "osm_lanes": 4.0, "osm_oneway": "True", "osm_distance": 3.8943148369317253, "osmid": 142880354.0 }, "geometry": { "type": "Point", "coordinates": [ -2.2911611, 53.371406 ] } },
{ "type": "Feature", "properties": { "AADT": 24000, "TR_AADT": 216, "2W_AADT": 169, "raw_name": "A34", "raw_oneway": true, "raw_direction": "A5145-->A5079", "raw_techno": "Estimated using previous year's AADF on this link", "osm_name": "Kingsway", "osm_type": "trunk", "osm_lanes": 2.0, "osm_oneway": "True", "osm_distance": 5.6963657565757408, "osmid": 154832279.0 }, "geometry": { "type": "Point", "coordinates": [ -2.2116174, 53.424606 ] } },
{ "type": "Feature", "properties": { "AADT": 6556, "TR_AADT": 110, "2W_AADT": 61, "raw_name": "A56", "raw_oneway": true, "raw_direction": "A34-->A6", "raw_techno": "Manual count", "osm_name": "Deansgate", "osm_type": "tertiary", "osm_lanes": null, "osm_oneway": "True", "osm_distance": 1.0279249670045496, "osmid": 119862628.0 }, "geometry": { "type": "Point", "coordinates": [ -2.2470301, 53.482271 ] } },
{ "type": "Feature", "properties": { "AADT": 16594, "TR_AADT": 572, "2W_AADT": 122, "raw_name": "A57", "raw_oneway": true, "raw_direction": "A6-->A665", "raw_techno": "Estimated using previous year's AADF on this link", "osm_name": "Hyde Road", "osm_type": "trunk", "osm_lanes": null, "osm_oneway": null, "osm_distance": 0.60143558162517796, "osmid": 1290072194.0 }, "geometry": { "type": "Point", "coordinates": [ -2.219901, 53.469624 ] } },
{ "type": "Feature", "properties": { "AADT": 24901, "TR_AADT": 844, "2W_AADT": 130, "raw_name": "A62", "raw_oneway": true, "raw_direction": "A6010-->LA Boundary", "raw_techno": "Manual count", "osm_name": "Oldham Road", "osm_type": "trunk", "osm_lanes": null, "osm_oneway": null, "osm_distance": 3.2085679679278156, "osmid": 1112105284.0 }, "geometry": { "type": "Point", "coordinates": [ -2.2082826, 53.49652 ] } },
{ "type": "Feature", "properties": { "AADT": 47279, "TR_AADT": 730, "2W_AADT": 263, "raw_name": "A5103", "raw_oneway": true, "raw_direction": "A5145-->A6010", "raw_techno": "Estimated using previous year's AADF on this link", "osm_name": "Princess Road", "osm_type": "trunk", "osm_lanes": 2.0, "osm_oneway": "True", "osm_distance": 4.4299499133198612, "osmid": 4243889.0 }, "geometry": { "type": "Point", "coordinates": [ -2.247605, 53.433525 ] } },
{ "type": "Feature", "properties": { "AADT": 13153, "TR_AADT": 320, "2W_AADT": 57, "raw_name": "A6104", "raw_oneway": true, "raw_direction": "A664-->LA Boundary", "raw_techno": "Estimated using previous year's AADF on this link", "osm_name": "Victoria Ave East", "osm_type": "primary", "osm_lanes": 2.0, "osm_oneway": null, "osm_distance": 1.754148219652903, "osmid": 4957514.0 }, "geometry": { "type": "Point", "coordinates": [ -2.1824881, 53.527356 ] } },
{ "type": "Feature", "properties": { "AADT": 31687, "TR_AADT": 803, "2W_AADT": 341, "raw_name": "A6042", "raw_oneway": true, "raw_direction": "A56-->A665", "raw_techno": "Estimated using previous year's AADF on this link", "osm_name": "Trinity Way", "osm_type": "trunk", "osm_lanes": 3.0, "osm_oneway": "True", "osm_distance": 0.20011380897093087, "osmid": 589896289.0 }, "geometry": { "type": "Point", "coordinates": [ -2.2426097, 53.489264 ] } },
{ "type": "Feature", "properties": { "AADT": 5413, "TR_AADT": 65, "2W_AADT": 88, "raw_name": "A34", "raw_oneway": true, "raw_direction": "Upper Brook St-->A5103", "raw_techno": "Manual count", "osm_name": "Oxford Road", "osm_type": "secondary", "osm_lanes": 2.0, "osm_oneway": "False", "osm_distance": 3.087750649994125, "osmid": 28047780.0 }, "geometry": { "type": "Point", "coordinates": [ -2.2398055, 53.473091 ] } },
{ "type": "Feature", "properties": { "AADT": 22959, "TR_AADT": 706, "2W_AADT": 214, "raw_name": "A57", "raw_oneway": true, "raw_direction": "A6010-->LA Boundary", "raw_techno": "Estimated using previous year's AADF on this link", "osm_name": "Hyde Road", "osm_type": "trunk", "osm_lanes": 4.0, "osm_oneway": null, "osm_distance": 1.6138458264562763, "osmid": 165547645.0 }, "geometry": { "type": "Point", "coordinates": [ -2.1852253, 53.463301 ] } },
{ "type": "Feature", "properties": { "AADT": 43293, "TR_AADT": 850, "2W_AADT": 245, "raw_name": "A576", "raw_oneway": true, "raw_direction": "A6044-->A6104", "raw_techno": "Estimated using previous year's AADF on this link", "osm_name": "Middleton Road", "osm_type": "trunk", "osm_lanes": 2.0, "osm_oneway": "True", "osm_distance": 1.2202070906704297, "osmid": 4958075.0 }, "geometry": { "type": "Point", "coordinates": [ -2.2458634, 53.530604 ] } },
{ "type": "Feature", "properties": { "AADT": 29210, "TR_AADT": 649, "2W_AADT": 229, "raw_name": "A665", "raw_oneway": true, "raw_direction": "A6042-->A6042", "raw_techno": "Manual count", "osm_name": "Cheetham Hill Road", "osm_type": "trunk", "osm_lanes": 4.0, "osm_oneway": "False", "osm_distance": 2.3148430270786871, "osmid": 353455896.0 }, "geometry": { "type": "Point", "coordinates": [ -2.2406454, 53.488369 ] } },
{ "type": "Feature", "properties": { "AADT": 14428, "TR_AADT": 274, "2W_AADT": 108, "raw_name": "A6010", "raw_oneway": true, "raw_direction": "A665-->LA Boundary", "raw_techno": "Estimated using previous year's AADF on this link", "osm_name": "Elizabeth Street", "osm_type": "trunk", "osm_lanes": null, "osm_oneway": null, "osm_distance": 0.95245573131761663, "osmid": 169246827.0 }, "geometry": { "type": "Point", "coordinates": [ -2.2426728, 53.500311 ] } },
{ "type": "Feature", "properties": { "AADT": 14209, "TR_AADT": 194, "2W_AADT": 86, "raw_name": "A5103", "raw_oneway": true, "raw_direction": "A34-->A6", "raw_techno": "Estimated using previous year's AADF on this link", "osm_name": "Portland Street", "osm_type": "primary", "osm_lanes": null, "osm_oneway": null, "osm_distance": 1.7471961537431278, "osmid": 828579403.0 }, "geometry": { "type": "Point", "coordinates": [ -2.2385101, 53.478486 ] } },
{ "type": "Feature", "properties": { "AADT": 5409, "TR_AADT": 87, "2W_AADT": 75, "raw_name": "A6042", "raw_oneway": true, "raw_direction": "A34-->A34", "raw_techno": "Estimated using previous year's AADF on this link", "osm_name": "Mount Street", "osm_type": "unclassified", "osm_lanes": 2.0, "osm_oneway": "True", "osm_distance": 8.9383718218643864, "osmid": 4721469.0 }, "geometry": { "type": "Point", "coordinates": [ -2.2452606, 53.478545 ] } },
{ "type": "Feature", "properties": { "AADT": 163045, "TR_AADT": 8696, "2W_AADT": 370, "raw_name": "M56", "raw_oneway": true, "raw_direction": "4-->3", "raw_techno": "Automatic counter", "osm_name": null, "osm_type": "motorway", "osm_lanes": 4.0, "osm_oneway": "True", "osm_distance": 2.3652996470030061, "osmid": 134426648.0 }, "geometry": { "type": "Point", "coordinates": [ -2.273622571, 53.390325043 ] } },
{ "type": "Feature", "properties": { "AADT": 79287, "TR_AADT": 3141, "2W_AADT": 230, "raw_name": "M60", "raw_oneway": true, "raw_direction": "M60 spur-->LA Boundary", "raw_techno": "Automatic counter", "osm_name": null, "osm_type": "motorway", "osm_lanes": 3.0, "osm_oneway": "True", "osm_distance": 4.2742308984393214, "osmid": 4972540.0 }, "geometry": { "type": "Point", "coordinates": [ -2.2461357, 53.403273 ] } },
{ "type": "Feature", "properties": { "AADT": 19256, "TR_AADT": 502, "2W_AADT": 224, "raw_name": "A6", "raw_oneway": true, "raw_direction": "A57-->A57(M)", "raw_techno": "Manual count", "osm_name": "Downing Street", "osm_type": "trunk", "osm_lanes": 2.0, "osm_oneway": "True", "osm_distance": 1.2692953967741485, "osmid": 167121162.0 }, "geometry": { "type": "Point", "coordinates": [ -2.2282003, 53.472215 ] } },
{ "type": "Feature", "properties": { "AADT": 25676, "TR_AADT": 253, "2W_AADT": 97, "raw_name": "A560", "raw_oneway": true, "raw_direction": "LA Boundary-->M56", "raw_techno": "Manual count", "osm_name": "Altrincham Road", "osm_type": "trunk", "osm_lanes": null, "osm_oneway": "True", "osm_distance": 10.325700904654697, "osmid": 300113827.0 }, "geometry": { "type": "Point", "coordinates": [ -2.3022677, 53.401041 ] } },
{ "type": "Feature", "properties": { "AADT": 42287, "TR_AADT": 894, "2W_AADT": 156, "raw_name": "A576", "raw_oneway": true, "raw_direction": "A6104-->M60", "raw_techno": "Estimated using previous year's AADF on this link", "osm_name": "Middleton Road", "osm_type": "trunk", "osm_lanes": null, "osm_oneway": "True", "osm_distance": 5.5655272547796297, "osmid": 150205527.0 }, "geometry": { "type": "Point", "coordinates": [ -2.2428771, 53.536003 ] } },
{ "type": "Feature", "properties": { "AADT": 26940, "TR_AADT": 1012, "2W_AADT": 242, "raw_name": "A635", "raw_oneway": true, "raw_direction": "A665-->A6010", "raw_techno": "Estimated using previous year's AADF on this link", "osm_name": "Ashton Old Road", "osm_type": "trunk", "osm_lanes": null, "osm_oneway": null, "osm_distance": 1.5142828784110376, "osmid": 24781758.0 }, "geometry": { "type": "Point", "coordinates": [ -2.212396, 53.475066 ] } },
{ "type": "Feature", "properties": { "AADT": 16741, "TR_AADT": 576, "2W_AADT": 51, "raw_name": "A663", "raw_oneway": true, "raw_direction": "LA Boundary-->LA Boundary", "raw_techno": "Estimated using previous year's AADF on this link", "osm_name": "Broadway", "osm_type": "trunk", "osm_lanes": null, "osm_oneway": "True", "osm_distance": 3.5262224045446691, "osmid": 929366868.0 }, "geometry": { "type": "Point", "coordinates": [ -2.1697656, 53.514558 ] } },
{ "type": "Feature", "properties": { "AADT": 13946, "TR_AADT": 186, "2W_AADT": 69, "raw_name": "A664", "raw_oneway": true, "raw_direction": "Addington St-->A6010", "raw_techno": "Estimated using previous year's AADF on this link", "osm_name": "Rochdale Road", "osm_type": "trunk", "osm_lanes": null, "osm_oneway": null, "osm_distance": 1.985300370326027, "osmid": 317875198.0 }, "geometry": { "type": "Point", "coordinates": [ -2.2216985, 53.496541 ] } },
{ "type": "Feature", "properties": { "AADT": 17292, "TR_AADT": 862, "2W_AADT": 56, "raw_name": "A665", "raw_oneway": true, "raw_direction": "A57-->A635", "raw_techno": "Estimated using previous year's AADF on this link", "osm_name": "Devonshire Street North", "osm_type": "trunk", "osm_lanes": 2.0, "osm_oneway": null, "osm_distance": 12.809864571896693, "osmid": 4808622.0 }, "geometry": { "type": "Point", "coordinates": [ -2.2158332, 53.469541 ] } },
{ "type": "Feature", "properties": { "AADT": 9877, "TR_AADT": 52, "2W_AADT": 57, "raw_name": "A5184", "raw_oneway": true, "raw_direction": "A34-->A6", "raw_techno": "Estimated using previous year's AADF on this link", "osm_name": "Plymouth Grove", "osm_type": "primary", "osm_lanes": 2.0, "osm_oneway": "False", "osm_distance": 2.8380324737685507, "osmid": 457097115.0 }, "geometry": { "type": "Point", "coordinates": [ -2.2100643, 53.460563 ] } },
{ "type": "Feature", "properties": { "AADT": 13151, "TR_AADT": 157, "2W_AADT": 55, "raw_name": "A6010", "raw_oneway": true, "raw_direction": "A5103-->B5093", "raw_techno": "Estimated using previous year's AADF on this link", "osm_name": "Wilbraham Road", "osm_type": "trunk", "osm_lanes": null, "osm_oneway": "False", "osm_distance": 9.48486423366192, "osmid": 4270615.0 }, "geometry": { "type": "Point", "coordinates": [ -2.2272932, 53.443453 ] } },
{ "type": "Feature", "properties": { "AADT": 25511, "TR_AADT": 767, "2W_AADT": 157, "raw_name": "A6010", "raw_oneway": true, "raw_direction": "A662-->A62", "raw_techno": "Estimated using previous year's AADF on this link", "osm_name": "Alan Turing Way", "osm_type": "trunk", "osm_lanes": null, "osm_oneway": "True", "osm_distance": 6.7898679341779857, "osmid": 28036930.0 }, "geometry": { "type": "Point", "coordinates": [ -2.1991962, 53.487547 ] } },
{ "type": "Feature", "properties": { "AADT": 6695, "TR_AADT": 124, "2W_AADT": 66, "raw_name": "A34", "raw_oneway": true, "raw_direction": "A56-->LA Boundary", "raw_techno": "Estimated using previous year's AADF on this link", "osm_name": "Bridge Street", "osm_type": "primary", "osm_lanes": 1.0, "osm_oneway": "True", "osm_distance": 0.53290895973760266, "osmid": 122110077.0 }, "geometry": { "type": "Point", "coordinates": [ -2.2516061, 53.481426 ] } },
{ "type": "Feature", "properties": { "AADT": 12631, "TR_AADT": 152, "2W_AADT": 99, "raw_name": "A34", "raw_oneway": true, "raw_direction": "A56 Deansgate-->LA Boundary", "raw_techno": "Estimated using previous year's AADF on this link", "osm_name": "New Quay Street", "osm_type": "primary", "osm_lanes": null, "osm_oneway": null, "osm_distance": 6.9992817549790756, "osmid": 172858483.0 }, "geometry": { "type": "Point", "coordinates": [ -2.2553662, 53.480249 ] } },
{ "type": "Feature", "properties": { "AADT": 14791, "TR_AADT": 174, "2W_AADT": 67, "raw_name": "A665", "raw_oneway": true, "raw_direction": "A6010-->LA Boundary", "raw_techno": "Estimated using previous year's AADF on this link", "osm_name": "Cheetham Hill Road", "osm_type": "trunk", "osm_lanes": null, "osm_oneway": null, "osm_distance": 4.4072043877267202, "osmid": 1301797497.0 }, "geometry": { "type": "Point", "coordinates": [ -2.2427227, 53.509039 ] } },
{ "type": "Feature", "properties": { "AADT": 14572, "TR_AADT": 331, "2W_AADT": 59, "raw_name": "A56", "raw_oneway": true, "raw_direction": "A6-->A6", "raw_techno": "Estimated using previous year's AADF on this link", "osm_name": "Deansgate", "osm_type": "tertiary", "osm_lanes": null, "osm_oneway": null, "osm_distance": 5.1466505707562114, "osmid": 3697942.0 }, "geometry": { "type": "Point", "coordinates": [ -2.2458941, 53.483864 ] } },
{ "type": "Feature", "properties": { "AADT": 10173, "TR_AADT": 70, "2W_AADT": 32, "raw_name": "A6010", "raw_oneway": true, "raw_direction": "B5117-->A34", "raw_techno": "Manual count", "osm_name": "Dickenson Road", "osm_type": "trunk", "osm_lanes": null, "osm_oneway": null, "osm_distance": 1.5627173785714559, "osmid": 285717962.0 }, "geometry": { "type": "Point", "coordinates": [ -2.2138234, 53.453338 ] } },
{ "type": "Feature", "properties": { "AADT": 8138, "TR_AADT": 147, "2W_AADT": 75, "raw_name": "A34", "raw_oneway": true, "raw_direction": "A5103-->Mosley St", "raw_techno": "Estimated using previous year's AADF on this link", "osm_name": "Princess Street", "osm_type": "primary", "osm_lanes": null, "osm_oneway": "False", "osm_distance": 0.19281355720456445, "osmid": 1029653570.0 }, "geometry": { "type": "Point", "coordinates": [ -2.2408876, 53.477942 ] } },
{ "type": "Feature", "properties": { "AADT": 23082, "TR_AADT": 218, "2W_AADT": 141, "raw_name": "A6", "raw_oneway": true, "raw_direction": "A6010-->A5184", "raw_techno": "Manual count", "osm_name": "Stockport Road", "osm_type": "trunk", "osm_lanes": 2.0, "osm_oneway": "True", "osm_distance": 2.0110336289207562, "osmid": 457097645.0 }, "geometry": { "type": "Point", "coordinates": [ -2.2036577, 53.459379 ] } },
{ "type": "Feature", "properties": { "AADT": 71166, "TR_AADT": 5208, "2W_AADT": 161, "raw_name": "M56", "raw_oneway": true, "raw_direction": "3-->2", "raw_techno": "Estimated using previous year's AADF on this link", "osm_name": null, "osm_type": "motorway", "osm_lanes": 2.0, "osm_oneway": "True", "osm_distance": 2.9763132182932655, "osmid": 7965720.0 }, "geometry": { "type": "Point", "coordinates": [ -2.2661494, 53.397531 ] } },
{ "type": "Feature", "properties": { "AADT": 15633, "TR_AADT": 160, "2W_AADT": 108, "raw_name": "A6", "raw_oneway": true, "raw_direction": "A5184-->A665", "raw_techno": "Estimated using previous year's AADF on this link", "osm_name": "Stockport Road", "osm_type": "trunk", "osm_lanes": 2.0, "osm_oneway": null, "osm_distance": 3.4893898473802976, "osmid": 28118590.0 }, "geometry": { "type": "Point", "coordinates": [ -2.2123415, 53.464154 ] } },
{ "type": "Feature", "properties": { "AADT": 10996, "TR_AADT": 144, "2W_AADT": 31, "raw_name": "A5079", "raw_oneway": true, "raw_direction": "A34-->A6", "raw_techno": "Estimated using previous year's AADF on this link", "osm_name": "Slade Lane", "osm_type": "primary", "osm_lanes": null, "osm_oneway": null, "osm_distance": 0.19507504208352627, "osmid": 154832905.0 }, "geometry": { "type": "Point", "coordinates": [ -2.1969196, 53.451597 ] } },
{ "type": "Feature", "properties": { "AADT": 18718, "TR_AADT": 446, "2W_AADT": 144, "raw_name": "A56", "raw_oneway": true, "raw_direction": "A6041-->A6042", "raw_techno": "Estimated using previous year's AADF on this link", "osm_name": "Great Ducie Street", "osm_type": "primary", "osm_lanes": null, "osm_oneway": null, "osm_distance": 2.315137448534081, "osmid": 169850261.0 }, "geometry": { "type": "Point", "coordinates": [ -2.2451625, 53.487641 ] } },
{ "type": "Feature", "properties": { "AADT": 68595, "TR_AADT": 1293, "2W_AADT": 228, "raw_name": "A5103", "raw_oneway": true, "raw_direction": "A60/A5103(T)-->A5145", "raw_techno": "Estimated using previous year's AADF on this link", "osm_name": "Princess Road", "osm_type": "trunk", "osm_lanes": 3.0, "osm_oneway": "True", "osm_distance": 5.993561609735556, "osmid": 145483363.0 }, "geometry": { "type": "Point", "coordinates": [ -2.2572835, 53.423618 ] } },
{ "type": "Feature", "properties": { "AADT": 13260, "TR_AADT": 193, "2W_AADT": 43, "raw_name": "A6010", "raw_oneway": true, "raw_direction": "A34-->Hamilton Rd", "raw_techno": "Manual count", "osm_name": "Beresford Road", "osm_type": "residential", "osm_lanes": null, "osm_oneway": null, "osm_distance": 10.796605325122801, "osmid": 155366806.0 }, "geometry": { "type": "Point", "coordinates": [ -2.204767, 53.455179 ] } },
{ "type": "Feature", "properties": { "AADT": 19078, "TR_AADT": 404, "2W_AADT": 102, "raw_name": "A6010", "raw_oneway": true, "raw_direction": "A665-->A664", "raw_techno": "Estimated using previous year's AADF on this link", "osm_name": "Queens Road", "osm_type": "trunk", "osm_lanes": null, "osm_oneway": null, "osm_distance": 2.3751385838092092, "osmid": 4946734.0 }, "geometry": { "type": "Point", "coordinates": [ -2.227606, 53.501878 ] } },
{ "type": "Feature", "properties": { "AADT": 11673, "TR_AADT": 147, "2W_AADT": 61, "raw_name": "A6104", "raw_oneway": true, "raw_direction": "A576-->A664", "raw_techno": "Manual count", "osm_name": "Victoria Avenue", "osm_type": "primary", "osm_lanes": 2.0, "osm_oneway": null, "osm_distance": 1.3465411272210686, "osmid": 1072298864.0 }, "geometry": { "type": "Point", "coordinates": [ -2.2277729, 53.532977 ] } },
{ "type": "Feature", "properties": { "AADT": 12178, "TR_AADT": 319, "2W_AADT": 26, "raw_name": "A662", "raw_oneway": true, "raw_direction": "A665-->A6010", "raw_techno": "Estimated using previous year's AADF on this link", "osm_name": "Ashton New Road", "osm_type": "primary", "osm_lanes": 2.0, "osm_oneway": null, "osm_distance": 0.90812857443916006, "osmid": 929125464.0 }, "geometry": { "type": "Point", "coordinates": [ -2.2124345, 53.48276 ] } },
{ "type": "Feature", "properties": { "AADT": 28399, "TR_AADT": 839, "2W_AADT": 121, "raw_name": "A6010", "raw_oneway": true, "raw_direction": "A635-->A662", "raw_techno": "Manual count", "osm_name": "Alan Turing Way", "osm_type": "trunk", "osm_lanes": null, "osm_oneway": "True", "osm_distance": 3.6566329420547068, "osmid": 948850922.0 }, "geometry": { "type": "Point", "coordinates": [ -2.1935791, 53.478568 ] } },
{ "type": "Feature", "properties": { "AADT": 8642, "TR_AADT": 180, "2W_AADT": 82, "raw_name": "A34", "raw_oneway": true, "raw_direction": "A5103-->A5103", "raw_techno": "Estimated using previous year's AADF on this link", "osm_name": "Oxford Street", "osm_type": "primary", "osm_lanes": 2.0, "osm_oneway": "False", "osm_distance": 3.7017411583716058, "osmid": 378959094.0 }, "geometry": { "type": "Point", "coordinates": [ -2.2429898, 53.47668 ] } },
{ "type": "Feature", "properties": { "AADT": 9801, "TR_AADT": 179, "2W_AADT": 63, "raw_name": "A56", "raw_oneway": true, "raw_direction": "A34 Quay St-->A34 Bridge St", "raw_techno": "Estimated using previous year's AADF on this link", "osm_name": "Deansgate", "osm_type": "tertiary", "osm_lanes": null, "osm_oneway": "True", "osm_distance": 5.7155699810777403, "osmid": 1220701555.0 }, "geometry": { "type": "Point", "coordinates": [ -2.2488817, 53.479364 ] } },
{ "type": "Feature", "properties": { "AADT": 2193, "TR_AADT": 68, "2W_AADT": 36, "raw_name": "A62", "raw_oneway": true, "raw_direction": "A6-->A6", "raw_techno": "Estimated using previous year's AADF on this link", "osm_name": "Newton Street", "osm_type": "primary", "osm_lanes": 2.0, "osm_oneway": null, "osm_distance": 3.0028166950389839, "osmid": 196371314.0 }, "geometry": { "type": "Point", "coordinates": [ -2.2337338, 53.481246 ] } },
{ "type": "Feature", "properties": { "AADT": 72504, "TR_AADT": 2980, "2W_AADT": 576, "raw_name": "A57M", "raw_oneway": true, "raw_direction": "A57-->A5103", "raw_techno": "Estimated using previous year's AADF on this link", "osm_name": "Mancunian Way", "osm_type": "motorway", "osm_lanes": 2.0, "osm_oneway": "True", "osm_distance": 2.496292059719686, "osmid": 153673384.0 }, "geometry": { "type": "Point", "coordinates": [ -2.2530503, 53.470906 ] } },
{ "type": "Feature", "properties": { "AADT": 17739, "TR_AADT": 140, "2W_AADT": 63, "raw_name": "A6", "raw_oneway": true, "raw_direction": "A57(M)-->A6 Whitworth St", "raw_techno": "Estimated using previous year's AADF on this link", "osm_name": "London Road", "osm_type": "primary", "osm_lanes": 3.0, "osm_oneway": "True", "osm_distance": 5.1315134949190808, "osmid": 1071778474.0 }, "geometry": { "type": "Point", "coordinates": [ -2.2315391, 53.476702 ] } },
{ "type": "Feature", "properties": { "AADT": 37055, "TR_AADT": 436, "2W_AADT": 119, "raw_name": "A34", "raw_oneway": true, "raw_direction": "LA Boundary-->A5145", "raw_techno": "Estimated using previous year's AADF on this link", "osm_name": "Kingsway", "osm_type": "trunk", "osm_lanes": null, "osm_oneway": "True", "osm_distance": 5.1673584941424711, "osmid": 83127372.0 }, "geometry": { "type": "Point", "coordinates": [ -2.2218318, 53.40661 ] } },
{ "type": "Feature", "properties": { "AADT": 15619, "TR_AADT": 216, "2W_AADT": 145, "raw_name": "A56", "raw_oneway": true, "raw_direction": "A57(M)-->A6143", "raw_techno": "Manual count", "osm_name": "Bridgewater Viaduct", "osm_type": "primary", "osm_lanes": 2.0, "osm_oneway": null, "osm_distance": 0.96012598437064745, "osmid": 243050858.0 }, "geometry": { "type": "Point", "coordinates": [ -2.2526165, 53.473963 ] } },
{ "type": "Feature", "properties": { "AADT": 23295, "TR_AADT": 341, "2W_AADT": 111, "raw_name": "A576", "raw_oneway": true, "raw_direction": "A665-->A6044", "raw_techno": "Manual count", "osm_name": "Middleton Road", "osm_type": "trunk", "osm_lanes": null, "osm_oneway": "False", "osm_distance": 2.4137050421164266, "osmid": 143926118.0 }, "geometry": { "type": "Point", "coordinates": [ -2.24914, 53.523407 ] } },
{ "type": "Feature", "properties": { "AADT": 17997, "TR_AADT": 406, "2W_AADT": 74, "raw_name": "A664", "raw_oneway": true, "raw_direction": "A6010-->A6104", "raw_techno": "Estimated using previous year's AADF on this link", "osm_name": "Rochdale Road", "osm_type": "primary", "osm_lanes": null, "osm_oneway": null, "osm_distance": 4.0635157675228646, "osmid": 135778729.0 }, "geometry": { "type": "Point", "coordinates": [ -2.2156551, 53.523472 ] } },
{ "type": "Feature", "properties": { "AADT": 30984, "TR_AADT": 722, "2W_AADT": 215, "raw_name": "A665", "raw_oneway": true, "raw_direction": "A662-->A62", "raw_techno": "Estimated using previous year's AADF on this link", "osm_name": "Great Ancoats Street", "osm_type": "trunk", "osm_lanes": 2.0, "osm_oneway": "True", "osm_distance": 1.580894763683514, "osmid": 28078731.0 }, "geometry": { "type": "Point", "coordinates": [ -2.227499, 53.481923 ] } },
{ "type": "Feature", "properties": { "AADT": 14078, "TR_AADT": 103, "2W_AADT": 65, "raw_name": "A6010", "raw_oneway": true, "raw_direction": "A5145-->A5103", "raw_techno": "Estimated using previous year's AADF on this link", "osm_name": "Wilbraham Road", "osm_type": "trunk", "osm_lanes": null, "osm_oneway": null, "osm_distance": 2.9529650703379557, "osmid": 4419607.0 }, "geometry": { "type": "Point", "coordinates": [ -2.2724523, 53.44246 ] } },
{ "type": "Feature", "properties": { "AADT": 8010, "TR_AADT": 180, "2W_AADT": 78, "raw_name": "A34", "raw_oneway": true, "raw_direction": "A57(M)-->A5103", "raw_techno": "Estimated using previous year's AADF on this link", "osm_name": "Princess Street", "osm_type": "primary", "osm_lanes": null, "osm_oneway": "False", "osm_distance": 7.346110615076884, "osmid": 137908514.0 }, "geometry": { "type": "Point", "coordinates": [ -2.2364911, 53.473097 ] } },
{ "type": "Feature", "properties": { "AADT": 18144, "TR_AADT": 294, "2W_AADT": 210, "raw_name": "A34", "raw_oneway": true, "raw_direction": "A5184-->Grosvenor St", "raw_techno": "Manual count", "osm_name": "Upper Brook Street", "osm_type": "trunk", "osm_lanes": null, "osm_oneway": null, "osm_distance": 3.8460071263615445, "osmid": 154979768.0 }, "geometry": { "type": "Point", "coordinates": [ -2.2327076, 53.469959 ] } },
{ "type": "Feature", "properties": { "AADT": 3607, "TR_AADT": 83, "2W_AADT": 76, "raw_name": "A6042", "raw_oneway": true, "raw_direction": "Fennel Street-->A665", "raw_techno": "Estimated using previous year's AADF on this link", "osm_name": "Corporation Street", "osm_type": "tertiary", "osm_lanes": 2.0, "osm_oneway": null, "osm_distance": 7.690530192568203, "osmid": 378559842.0 }, "geometry": { "type": "Point", "coordinates": [ -2.2410873, 53.486571 ] } },
{ "type": "Feature", "properties": { "AADT": 25550, "TR_AADT": 862, "2W_AADT": 93, "raw_name": "A560", "raw_oneway": true, "raw_direction": "M56-->M56", "raw_techno": "Estimated using previous year's AADF on this link", "osm_name": null, "osm_type": "trunk", "osm_lanes": null, "osm_oneway": null, "osm_distance": 5.8584706512847964, "osmid": 998804469.0 }, "geometry": { "type": "Point", "coordinates": [ -2.2634164, 53.398193 ] } },
{ "type": "Feature", "properties": { "AADT": 8952, "TR_AADT": 163, "2W_AADT": 63, "raw_name": "A34", "raw_oneway": true, "raw_direction": "A5103 Lower Mosley St-->A6042 Mount St", "raw_techno": "Estimated using previous year's AADF on this link", "osm_name": "Peter Street", "osm_type": "primary", "osm_lanes": null, "osm_oneway": "False", "osm_distance": 0.25952134381761827, "osmid": 141272197.0 }, "geometry": { "type": "Point", "coordinates": [ -2.2446529, 53.477665 ] } },
{ "type": "Feature", "properties": { "AADT": 10421, "TR_AADT": 143, "2W_AADT": 71, "raw_name": "A6", "raw_oneway": true, "raw_direction": "A665-->A57", "raw_techno": "Manual count", "osm_name": "Stockport Road", "osm_type": "trunk", "osm_lanes": 2.0, "osm_oneway": null, "osm_distance": 1.9199115209004869, "osmid": 1342702171.0 }, "geometry": { "type": "Point", "coordinates": [ -2.21989, 53.467493 ] } },
{ "type": "Feature", "properties": { "AADT": 59756, "TR_AADT": 2086, "2W_AADT": 395, "raw_name": "A57", "raw_oneway": true, "raw_direction": "A6143-->A57(M)", "raw_techno": "Estimated using previous year's AADF on this link", "osm_name": "Egerton Street", "osm_type": "trunk", "osm_lanes": 3.0, "osm_oneway": "True", "osm_distance": 3.963280762091391, "osmid": 122110075.0 }, "geometry": { "type": "Point", "coordinates": [ -2.2606013, 53.473946 ] } },
{ "type": "Feature", "properties": { "AADT": 19402, "TR_AADT": 539, "2W_AADT": 107, "raw_name": "A62", "raw_oneway": true, "raw_direction": "Addington St-->A6010", "raw_techno": "Estimated using previous year's AADF on this link", "osm_name": "Oldham Road", "osm_type": "trunk", "osm_lanes": 2.0, "osm_oneway": "True", "osm_distance": 0.73879535989297385, "osmid": 1287413746.0 }, "geometry": { "type": "Point", "coordinates": [ -2.2275255, 53.486867 ] } },
{ "type": "Feature", "properties": { "AADT": 18883, "TR_AADT": 132, "2W_AADT": 171, "raw_name": "A34", "raw_oneway": true, "raw_direction": "A6010-->A5184", "raw_techno": "Estimated using previous year's AADF on this link", "osm_name": "Upper Brook Street", "osm_type": "trunk", "osm_lanes": null, "osm_oneway": null, "osm_distance": 1.4961542169625415, "osmid": 187325485.0 }, "geometry": { "type": "Point", "coordinates": [ -2.2216613, 53.460542 ] } },
{ "type": "Feature", "properties": { "AADT": 11979, "TR_AADT": 232, "2W_AADT": 77, "raw_name": "A5103", "raw_oneway": true, "raw_direction": "A34-->A34", "raw_techno": "Estimated using previous year's AADF on this link", "osm_name": "Portland Street", "osm_type": "primary", "osm_lanes": null, "osm_oneway": null, "osm_distance": 3.5238241581006919, "osmid": 248215545.0 }, "geometry": { "type": "Point", "coordinates": [ -2.2416338, 53.476682 ] } },
{ "type": "Feature", "properties": { "AADT": 18156, "TR_AADT": 475, "2W_AADT": 135, "raw_name": "A57", "raw_oneway": true, "raw_direction": "A665-->A6010", "raw_techno": "Estimated using previous year's AADF on this link", "osm_name": "Hyde Road", "osm_type": "trunk", "osm_lanes": null, "osm_oneway": "True", "osm_distance": 0.7439692275532297, "osmid": 154533145.0 }, "geometry": { "type": "Point", "coordinates": [ -2.1980398, 53.465797 ] } },
{ "type": "Feature", "properties": { "AADT": 20974, "TR_AADT": 635, "2W_AADT": 134, "raw_name": "A635", "raw_oneway": true, "raw_direction": "A6010-->LA Boundary", "raw_techno": "Manual count", "osm_name": "Ashton Old Road", "osm_type": "trunk", "osm_lanes": 2.0, "osm_oneway": null, "osm_distance": 0.73977544731328926, "osmid": 165548182.0 }, "geometry": { "type": "Point", "coordinates": [ -2.152122, 53.472605 ] } },
{ "type": "Feature", "properties": { "AADT": 8701, "TR_AADT": 120, "2W_AADT": 37, "raw_name": "A664", "raw_oneway": true, "raw_direction": "A6-->A665", "raw_techno": "Estimated using previous year's AADF on this link", "osm_name": "Shudehill", "osm_type": "primary", "osm_lanes": null, "osm_oneway": null, "osm_distance": 2.3844237323086714, "osmid": 184507819.0 }, "geometry": { "type": "Point", "coordinates": [ -2.2380652, 53.485139 ] } },
{ "type": "Feature", "properties": { "AADT": 17242, "TR_AADT": 448, "2W_AADT": 106, "raw_name": "A665", "raw_oneway": true, "raw_direction": "A6-->A57", "raw_techno": "Estimated using previous year's AADF on this link", "osm_name": "Devonshire Street", "osm_type": "trunk", "osm_lanes": null, "osm_oneway": null, "osm_distance": 5.5199770754805586, "osmid": 718463.0 }, "geometry": { "type": "Point", "coordinates": [ -2.2165772, 53.467742 ] } },
{ "type": "Feature", "properties": { "AADT": 11706, "TR_AADT": 113, "2W_AADT": 68, "raw_name": "A6010", "raw_oneway": true, "raw_direction": "B5093-->B5117", "raw_techno": "Estimated using previous year's AADF on this link", "osm_name": "Wilmslow Road", "osm_type": "trunk", "osm_lanes": 4.0, "osm_oneway": null, "osm_distance": 16.27306241863711, "osmid": 155367908.0 }, "geometry": { "type": "Point", "coordinates": [ -2.2223373, 53.451552 ] } },
{ "type": "Feature", "properties": { "AADT": 16759, "TR_AADT": 151, "2W_AADT": 138, "raw_name": "A5103", "raw_oneway": true, "raw_direction": "A57(M)-->A34", "raw_techno": "Estimated using previous year's AADF on this link", "osm_name": "Albion Street", "osm_type": "primary", "osm_lanes": null, "osm_oneway": null, "osm_distance": 5.9669440166175773, "osmid": 448447730.0 }, "geometry": { "type": "Point", "coordinates": [ -2.2482474, 53.473972 ] } },
{ "type": "Feature", "properties": { "AADT": 17753, "TR_AADT": 238, "2W_AADT": 68, "raw_name": "A5145", "raw_oneway": true, "raw_direction": "A6010-->A5103", "raw_techno": "Manual count", "osm_name": "Barlow Moor Road", "osm_type": "primary", "osm_lanes": 2.0, "osm_oneway": "False", "osm_distance": 4.1238655798187596, "osmid": 41075469.0 }, "geometry": { "type": "Point", "coordinates": [ -2.2723982, 53.434011 ] } },
{ "type": "Feature", "properties": { "AADT": 17174, "TR_AADT": 215, "2W_AADT": 138, "raw_name": "A6", "raw_oneway": true, "raw_direction": "A6010-->A6010", "raw_techno": "Estimated using previous year's AADF on this link", "osm_name": "Stockport Road", "osm_type": "trunk", "osm_lanes": 3.0, "osm_oneway": null, "osm_distance": 2.5391937388686574, "osmid": 457097643.0 }, "geometry": { "type": "Point", "coordinates": [ -2.2010124, 53.457343 ] } },
{ "type": "Feature", "properties": { "AADT": 3998, "TR_AADT": 67, "2W_AADT": 19, "raw_name": "A6", "raw_oneway": true, "raw_direction": "A62-->A664", "raw_techno": "Estimated using previous year's AADF on this link", "osm_name": "Church Street", "osm_type": "primary", "osm_lanes": null, "osm_oneway": null, "osm_distance": 3.7776864151670604, "osmid": 196371317.0 }, "geometry": { "type": "Point", "coordinates": [ -2.2365452, 53.482805 ] } },
{ "type": "Feature", "properties": { "AADT": 3778, "TR_AADT": 84, "2W_AADT": 20, "raw_name": "A62", "raw_oneway": true, "raw_direction": "A6-->A6", "raw_techno": "Estimated using previous year's AADF on this link", "osm_name": "Lever Street", "osm_type": "tertiary", "osm_lanes": null, "osm_oneway": "True", "osm_distance": 0.63881862700031977, "osmid": 1050312118.0 }, "geometry": { "type": "Point", "coordinates": [ -2.2354824, 53.481369 ] } },
{ "type": "Feature", "properties": { "AADT": 3778, "TR_AADT": 84, "2W_AADT": 20, "raw_name": "A62", "raw_oneway": true, "raw_direction": "A6-->Great Ancoat St", "raw_techno": "Estimated using previous year's AADF on this link", "osm_name": "Lever Street", "osm_type": "tertiary", "osm_lanes": null, "osm_oneway": "True", "osm_distance": 1.6855574588386932, "osmid": 246129165.0 }, "geometry": { "type": "Point", "coordinates": [ -2.233231, 53.482991 ] } },
{ "type": "Feature", "properties": { "AADT": 35357, "TR_AADT": 696, "2W_AADT": 267, "raw_name": "A62", "raw_oneway": true, "raw_direction": "Lever St-->A665 Newton St", "raw_techno": "Estimated using previous year's AADF on this link", "osm_name": "Great Ancoats Street", "osm_type": "trunk", "osm_lanes": 2.0, "osm_oneway": "True", "osm_distance": 0.65800260930914112, "osmid": 255566161.0 }, "geometry": { "type": "Point", "coordinates": [ -2.2312769, 53.483894 ] } },
{ "type": "Feature", "properties": { "AADT": 2896, "TR_AADT": 27, "2W_AADT": 15, "raw_name": "A6", "raw_oneway": true, "raw_direction": "London Rd-->Portland St", "raw_techno": "Estimated using previous year's AADF on this link", "osm_name": "Aytoun Street", "osm_type": "primary", "osm_lanes": 2.0, "osm_oneway": "True", "osm_distance": 3.7660825899968708, "osmid": 1331942572.0 }, "geometry": { "type": "Point", "coordinates": [ -2.234263, 53.478854 ] } },
{ "type": "Feature", "properties": { "AADT": 7331, "TR_AADT": 145, "2W_AADT": 69, "raw_name": "A6", "raw_oneway": true, "raw_direction": "A62-->Whitworth St", "raw_techno": "Estimated using previous year's AADF on this link", "osm_name": "London Road", "osm_type": "primary", "osm_lanes": 2.0, "osm_oneway": "True", "osm_distance": 10.189171678072091, "osmid": 22961324.0 }, "geometry": { "type": "Point", "coordinates": [ -2.23245, 53.477959 ] } },
{ "type": "Feature", "properties": { "AADT": 4158, "TR_AADT": 63, "2W_AADT": 13, "raw_name": "A6", "raw_oneway": true, "raw_direction": "A62-->A62", "raw_techno": "Estimated using previous year's AADF on this link", "osm_name": "Dale Street", "osm_type": "primary", "osm_lanes": 2.0, "osm_oneway": "True", "osm_distance": 0.37796740117415384, "osmid": 196371315.0 }, "geometry": { "type": "Point", "coordinates": [ -2.2341282, 53.481731 ] } },
{ "type": "Feature", "properties": { "AADT": 47804, "TR_AADT": 1669, "2W_AADT": 316, "raw_name": "A57M", "raw_oneway": true, "raw_direction": "A57(M)-->A56", "raw_techno": "Estimated from nearby links", "osm_name": "Mancunian Way", "osm_type": "motorway", "osm_lanes": 2.0, "osm_oneway": "True", "osm_distance": 0.90211475516031148, "osmid": 998731423.0 }, "geometry": { "type": "Point", "coordinates": [ -2.2587858, 53.472692 ] } },
{ "type": "Feature", "properties": { "AADT": 84375, "TR_AADT": 2636, "2W_AADT": 214, "raw_name": "M56", "raw_oneway": true, "raw_direction": "A560-->A5103", "raw_techno": "Estimated from nearby links", "osm_name": null, "osm_type": "motorway", "osm_lanes": 3.0, "osm_oneway": "True", "osm_distance": 9.9393852982552104, "osmid": 1083072619.0 }, "geometry": { "type": "Point", "coordinates": [ -2.2686778, 53.400222 ] } },
{ "type": "Feature", "properties": { "AADT": 32234, "TR_AADT": 1054, "2W_AADT": 182, "raw_name": "A57M", "raw_oneway": true, "raw_direction": "A6-->A635", "raw_techno": "Estimated from nearby links", "osm_name": "Mancunian Way", "osm_type": "motorway", "osm_lanes": 2.0, "osm_oneway": "True", "osm_distance": 1.9940720640740002, "osmid": 1238153824.0 }, "geometry": { "type": "Point", "coordinates": [ -2.2274557, 53.473834 ] } },
{ "type": "Feature", "properties": { "AADT": 40293, "TR_AADT": 1318, "2W_AADT": 228, "raw_name": "A635", "raw_oneway": true, "raw_direction": "A57(M)-->Fairfield St", "raw_techno": "Estimated using previous year's AADF on this link", "osm_name": "Hoyle Street", "osm_type": "unclassified", "osm_lanes": null, "osm_oneway": null, "osm_distance": 6.371090911322157, "osmid": 243211510.0 }, "geometry": { "type": "Point", "coordinates": [ -2.2230852, 53.473573 ] } },
{ "type": "Feature", "properties": { "AADT": 32381, "TR_AADT": 850, "2W_AADT": 103, "raw_name": "A538", "raw_oneway": true, "raw_direction": "M56-->LA Boundary", "raw_techno": "Manual count", "osm_name": "Wilmslow Road", "osm_type": "trunk", "osm_lanes": 2.0, "osm_oneway": "True", "osm_distance": 0.042614907173587305, "osmid": 539923305.0 }, "geometry": { "type": "Point", "coordinates": [ -2.2903967, 53.358464 ] } },
{ "type": "Feature", "properties": { "AADT": 122852, "TR_AADT": 8452, "2W_AADT": 304, "raw_name": "M56", "raw_oneway": true, "raw_direction": "LA Boundary-->6", "raw_techno": "Manual count", "osm_name": null, "osm_type": "motorway", "osm_lanes": 3.0, "osm_oneway": "True", "osm_distance": 3.2978114516039563, "osmid": 230603039.0 }, "geometry": { "type": "Point", "coordinates": [ -2.3019703, 53.359065 ] } },
{ "type": "Feature", "properties": { "AADT": 4545, "TR_AADT": 129, "2W_AADT": 33, "raw_name": "A560", "raw_oneway": true, "raw_direction": "M56-->LA Boundary", "raw_techno": "Estimated using previous year's AADF on this link", "osm_name": "Altrincham Road", "osm_type": "primary", "osm_lanes": null, "osm_oneway": null, "osm_distance": 1.060815434302212, "osmid": 143486985.0 }, "geometry": { "type": "Point", "coordinates": [ -2.2497308, 53.393072 ] } },
{ "type": "Feature", "properties": { "AADT": 20542, "TR_AADT": 371, "2W_AADT": 95, "raw_name": "A5145", "raw_oneway": true, "raw_direction": "A34-->LA Boundary", "raw_techno": "Dependent on a neighbouring counted link", "osm_name": "Parrs Wood Lane", "osm_type": "primary", "osm_lanes": 2.0, "osm_oneway": null, "osm_distance": 9.5469178971264856, "osmid": 554305421.0 }, "geometry": { "type": "Point", "coordinates": [ -2.2173721, 53.411077 ] } },
{ "type": "Feature", "properties": { "AADT": 22560, "TR_AADT": 388, "2W_AADT": 161, "raw_name": "A6", "raw_oneway": true, "raw_direction": "LA Boundary-->A5079", "raw_techno": "Estimated using previous year's AADF on this link", "osm_name": "Stockport Road", "osm_type": "trunk", "osm_lanes": 2.0, "osm_oneway": null, "osm_distance": 2.6554000768879171, "osmid": 165547064.0 }, "geometry": { "type": "Point", "coordinates": [ -2.190555, 53.442619 ] } },
{ "type": "Feature", "properties": { "AADT": 10437, "TR_AADT": 204, "2W_AADT": 58, "raw_name": "A662", "raw_oneway": true, "raw_direction": "A6010-->LA Boundary", "raw_techno": "Estimated using previous year's AADF on this link", "osm_name": "Ashton New Road", "osm_type": "primary", "osm_lanes": null, "osm_oneway": null, "osm_distance": 1.6512292553121444, "osmid": 929144482.0 }, "geometry": { "type": "Point", "coordinates": [ -2.1822974, 53.48299 ] } },
{ "type": "Feature", "properties": { "AADT": 28910, "TR_AADT": 798, "2W_AADT": 200, "raw_name": "A6042", "raw_oneway": true, "raw_direction": "LA Boundary-->A56", "raw_techno": "Estimated using previous year's AADF on this link", "osm_name": "Trinity Way", "osm_type": "trunk", "osm_lanes": 2.0, "osm_oneway": "True", "osm_distance": 1.9137313132923459, "osmid": 386519552.0 }, "geometry": { "type": "Point", "coordinates": [ -2.2471854, 53.48823 ] } },
{ "type": "Feature", "properties": { "AADT": 3060, "TR_AADT": 51, "2W_AADT": 9, "raw_name": "A6", "raw_oneway": true, "raw_direction": "LA Boundary-->A56", "raw_techno": "Estimated using previous year's AADF on this link", "osm_name": "Blackfriars Street", "osm_type": "primary", "osm_lanes": null, "osm_oneway": null, "osm_distance": 2.797445378820441, "osmid": 23112231.0 }, "geometry": { "type": "Point", "coordinates": [ -2.2470378, 53.483592 ] } },
{ "type": "Feature", "properties": { "AADT": 38952, "TR_AADT": 1506, "2W_AADT": 232, "raw_name": "A57", "raw_oneway": true, "raw_direction": "LA Boundary-->A6143", "raw_techno": "Estimated using previous year's AADF on this link", "osm_name": "Regent Road", "osm_type": "trunk", "osm_lanes": 3.0, "osm_oneway": "True", "osm_distance": 2.1731613488757322, "osmid": 122110110.0 }, "geometry": { "type": "Point", "coordinates": [ -2.2625093, 53.475515 ] } },
{ "type": "Feature", "properties": { "AADT": 18775, "TR_AADT": 147, "2W_AADT": 52, "raw_name": "A5145", "raw_oneway": true, "raw_direction": "LA Boundary-->A6010", "raw_techno": "Estimated using previous year's AADF on this link", "osm_name": "Edge Lane", "osm_type": "trunk", "osm_lanes": 2.0, "osm_oneway": null, "osm_distance": 0.17858202893355726, "osmid": 4755189.0 }, "geometry": { "type": "Point", "coordinates": [ -2.2907644, 53.44327 ] } },
{ "type": "Feature", "properties": { "AADT": 120635, "TR_AADT": 6444, "2W_AADT": 274, "raw_name": "M60", "raw_oneway": true, "raw_direction": "LA Boundary-->M60 spur", "raw_techno": "Dependent on a neighbouring counted link", "osm_name": null, "osm_type": "motorway", "osm_lanes": 4.0, "osm_oneway": "True", "osm_distance": 2.0756441604094147, "osmid": 4045294.0 }, "geometry": { "type": "Point", "coordinates": [ -2.2760334, 53.414317 ] } },
{ "type": "Feature", "properties": { "AADT": 21094, "TR_AADT": 659, "2W_AADT": 53, "raw_name": "A5103", "raw_oneway": true, "raw_direction": "A560-->M56", "raw_techno": "Estimated from nearby links", "osm_name": null, "osm_type": "motorway", "osm_lanes": 3.0, "osm_oneway": "True", "osm_distance": 15.750889765742613, "osmid": 1083072619.0 }, "geometry": { "type": "Point", "coordinates": [ -2.268588744, 53.400403707 ] } },
{ "type": "Feature", "properties": { "AADT": 11951, "TR_AADT": 417, "2W_AADT": 79, "raw_name": "A57", "raw_oneway": true, "raw_direction": "A57M-->A56", "raw_techno": "Estimated from nearby links", "osm_name": "Mancunian Way", "osm_type": "motorway", "osm_lanes": 2.0, "osm_oneway": "True", "osm_distance": 0.42370539766815307, "osmid": 998731423.0 }, "geometry": { "type": "Point", "coordinates": [ -2.258740548, 53.472684247 ] } },
{ "type": "Feature", "properties": { "AADT": 8059, "TR_AADT": 264, "2W_AADT": 46, "raw_name": "A635", "raw_oneway": true, "raw_direction": "A6-->A57M", "raw_techno": "Estimated from nearby links", "osm_name": null, "osm_type": "trunk_link", "osm_lanes": 1.0, "osm_oneway": "True", "osm_distance": 0.16058166052248141, "osmid": 24716807.0 }, "geometry": { "type": "Point", "coordinates": [ -2.2276359, 53.473726 ] } },
{ "type": "Feature", "properties": { "AADT": 4304, "TR_AADT": 121, "2W_AADT": 32, "raw_name": "A6042", "raw_oneway": true, "raw_direction": "A34-->St Ann Street", "raw_techno": "Estimated using previous year's AADF on this link", "osm_name": "Cross Street", "osm_type": "tertiary", "osm_lanes": 2.0, "osm_oneway": "True", "osm_distance": 7.4022585637018405, "osmid": 1334549231.0 }, "geometry": { "type": "Point", "coordinates": [ -2.2449729, 53.4809 ] } },
{ "type": "Feature", "properties": { "AADT": 60767, "TR_AADT": 916, "2W_AADT": 239, "raw_name": "A5103", "raw_oneway": true, "raw_direction": "M60 spur-->M60 spur/A5103", "raw_techno": "Estimated using previous year's AADF on this link", "osm_name": "Princess Parkway", "osm_type": "trunk", "osm_lanes": 2.0, "osm_oneway": "True", "osm_distance": 8.372753612212783, "osmid": 4251242.0 }, "geometry": { "type": "Point", "coordinates": [ -2.2654943, 53.413083 ] } },
{ "type": "Feature", "properties": { "AADT": 47572, "TR_AADT": 1885, "2W_AADT": 138, "raw_name": "M60", "raw_oneway": true, "raw_direction": "M60 spur-->M60 spur", "raw_techno": "Estimated from nearby links", "osm_name": null, "osm_type": "motorway", "osm_lanes": 3.0, "osm_oneway": "True", "osm_distance": 2.8534508104354246, "osmid": 4397549.0 }, "geometry": { "type": "Point", "coordinates": [ -2.2685088, 53.413975 ] } },
{ "type": "Feature", "properties": { "AADT": 66349, "TR_AADT": 3544, "2W_AADT": 151, "raw_name": "M60", "raw_oneway": true, "raw_direction": "M60 main route-->A5103", "raw_techno": "Estimated from nearby links", "osm_name": null, "osm_type": "service", "osm_lanes": null, "osm_oneway": null, "osm_distance": 0.32307707317135936, "osmid": 32149324.0 }, "geometry": { "type": "Point", "coordinates": [ -2.2685043, 53.413256 ] } },
{ "type": "Feature", "properties": { "AADT": 19822, "TR_AADT": 785, "2W_AADT": 57, "raw_name": "M60", "raw_oneway": true, "raw_direction": "M60 main route-->A5103", "raw_techno": "Estimated from nearby links", "osm_name": null, "osm_type": "motorway_link", "osm_lanes": 1.0, "osm_oneway": "True", "osm_distance": 9.5800473635469707, "osmid": 82565335.0 }, "geometry": { "type": "Point", "coordinates": [ -2.2609866, 53.413992 ] } },
{ "type": "Feature", "properties": { "AADT": 17747, "TR_AADT": 704, "2W_AADT": 128, "raw_name": "A635", "raw_oneway": true, "raw_direction": "Mancunian Way-->Chancellor Lane", "raw_techno": "Manual count", "osm_name": "Fairfield Street", "osm_type": "trunk", "osm_lanes": 2.0, "osm_oneway": "True", "osm_distance": 1.4482953923548394, "osmid": 86326110.0 }, "geometry": { "type": "Point", "coordinates": [ -2.2176704, 53.47529 ] } },
{ "type": "Feature", "properties": { "AADT": 17747, "TR_AADT": 704, "2W_AADT": 128, "raw_name": "A635", "raw_oneway": true, "raw_direction": "Ashton Old Road-->Pin Mill Brow", "raw_techno": "Dependent on a neighbouring counted link", "osm_name": "Mancunian Way", "osm_type": "trunk", "osm_lanes": 2.0, "osm_oneway": "True", "osm_distance": 1.1004718657293222, "osmid": 24717311.0 }, "geometry": { "type": "Point", "coordinates": [ -2.2184274, 53.476008 ] } },
{ "type": "Feature", "properties": { "AADT": 17747, "TR_AADT": 704, "2W_AADT": 128, "raw_name": "A665", "raw_oneway": true, "raw_direction": "Ashton Old Road-->Mancunian Way", "raw_techno": "Dependent on a neighbouring counted link", "osm_name": "Pin Mill Brow", "osm_type": "trunk", "osm_lanes": 2.0, "osm_oneway": "True", "osm_distance": 2.8927835601192151, "osmid": 243050857.0 }, "geometry": { "type": "Point", "coordinates": [ -2.2173718, 53.47583 ] } },
{ "type": "Feature", "properties": { "AADT": 9072, "TR_AADT": 147, "2W_AADT": 105, "raw_name": "A34", "raw_oneway": true, "raw_direction": "Grosvenor St-->A57 (M) mid-junction", "raw_techno": "Estimated from nearby links", "osm_name": "Brook Street", "osm_type": "trunk", "osm_lanes": 1.0, "osm_oneway": "True", "osm_distance": 2.5423344237285286, "osmid": 185995850.0 }, "geometry": { "type": "Point", "coordinates": [ -2.2349771, 53.471752 ] } },
{ "type": "Feature", "properties": { "AADT": 89972, "TR_AADT": 3324, "2W_AADT": 415, "raw_name": "A57M", "raw_oneway": true, "raw_direction": "A5103-->A34", "raw_techno": "Estimated using previous year's AADF on this link", "osm_name": "Mancunian Way", "osm_type": "motorway", "osm_lanes": 3.0, "osm_oneway": "True", "osm_distance": 4.0357755896194201, "osmid": 121174584.0 }, "geometry": { "type": "Point", "coordinates": [ -2.2379896, 53.471656 ] } },
{ "type": "Feature", "properties": { "AADT": 59046, "TR_AADT": 2172, "2W_AADT": 355, "raw_name": "A57M", "raw_oneway": true, "raw_direction": "Princess Rd-->Mancunian Way roundabout", "raw_techno": "Estimated using previous year's AADF on this link", "osm_name": "Mancunian Way", "osm_type": "motorway", "osm_lanes": 3.0, "osm_oneway": "True", "osm_distance": 0.87615426854910816, "osmid": 153673663.0 }, "geometry": { "type": "Point", "coordinates": [ -2.2440079, 53.470296 ] } },
{ "type": "Feature", "properties": { "AADT": 25040, "TR_AADT": 584, "2W_AADT": 78, "raw_name": "A5103", "raw_oneway": true, "raw_direction": "Princess Rd-->Mancunian Way roundabout", "raw_techno": "Estimated using previous year's AADF on this link", "osm_name": "Mancunian Way", "osm_type": "trunk", "osm_lanes": 2.0, "osm_oneway": "True", "osm_distance": 1.0097028653041826, "osmid": 808525248.0 }, "geometry": { "type": "Point", "coordinates": [ -2.2440233, 53.470359 ] } },
{ "type": "Feature", "properties": { "AADT": 16379, "TR_AADT": 351, "2W_AADT": 123, "raw_name": "A665", "raw_oneway": true, "raw_direction": "Oldham Rd-->Rochdale Rd", "raw_techno": "Estimated using previous year's AADF on this link", "osm_name": "Swan Street", "osm_type": "trunk", "osm_lanes": 3.0, "osm_oneway": "True", "osm_distance": 2.804182692742573, "osmid": 154689121.0 }, "geometry": { "type": "Point", "coordinates": [ -2.2342992, 53.485416 ] } },
{ "type": "Feature", "properties": { "AADT": 12583, "TR_AADT": 309, "2W_AADT": 50, "raw_name": "A665", "raw_oneway": true, "raw_direction": "Rochdale Rd-->Oldham Rd", "raw_techno": "Estimated using previous year's AADF on this link", "osm_name": "Addington Street", "osm_type": "trunk", "osm_lanes": 2.0, "osm_oneway": "True", "osm_distance": 0.84327472555323846, "osmid": 163382983.0 }, "geometry": { "type": "Point", "coordinates": [ -2.2335502, 53.486226 ] } },
{ "type": "Feature", "properties": { "AADT": 10505, "TR_AADT": 229, "2W_AADT": 60, "raw_name": "A664", "raw_oneway": true, "raw_direction": "Swan St-->Addington St", "raw_techno": "Manual count", "osm_name": "Rochdale Road", "osm_type": "trunk", "osm_lanes": 3.0, "osm_oneway": "True", "osm_distance": 6.2869981896098057, "osmid": 1155828233.0 }, "geometry": { "type": "Point", "coordinates": [ -2.2355113, 53.486582 ] } },
{ "type": "Feature", "properties": { "AADT": 28486, "TR_AADT": 722, "2W_AADT": 183, "raw_name": "A62", "raw_oneway": true, "raw_direction": "Swan St-->Addington St", "raw_techno": "Estimated using previous year's AADF on this link", "osm_name": "Oldham Road", "osm_type": "trunk", "osm_lanes": null, "osm_oneway": "True", "osm_distance": 2.2292691441502006, "osmid": 341995776.0 }, "geometry": { "type": "Point", "coordinates": [ -2.2320378, 53.48524 ] } },
{ "type": "Feature", "properties": { "AADT": 11430, "TR_AADT": 142, "2W_AADT": 106, "raw_name": "A6", "raw_oneway": true, "raw_direction": "A6 Aytoun St-->A6 Piccadilly", "raw_techno": "Estimated using previous year's AADF on this link", "osm_name": "Portland Street", "osm_type": "primary", "osm_lanes": null, "osm_oneway": null, "osm_distance": 10.700272925001379, "osmid": 249112983.0 }, "geometry": { "type": "Point", "coordinates": [ -2.2353262, 53.48038 ] } },
{ "type": "Feature", "properties": { "AADT": 35357, "TR_AADT": 696, "2W_AADT": 267, "raw_name": "A62", "raw_oneway": true, "raw_direction": "A62 Lever St-->A665 Swan St", "raw_techno": "Estimated using previous year's AADF on this link", "osm_name": "Great Ancoats Street", "osm_type": "trunk", "osm_lanes": 2.0, "osm_oneway": "True", "osm_distance": 3.598856357464252, "osmid": 1093227465.0 }, "geometry": { "type": "Point", "coordinates": [ -2.2320324, 53.484252 ] } },
{ "type": "Feature", "properties": { "AADT": 35943, "TR_AADT": 943, "2W_AADT": 114, "raw_name": "A538", "raw_oneway": true, "raw_direction": "M56 mid-junction-->M56 spur roundabout", "raw_techno": "Estimated from nearby links", "osm_name": "Wilmslow Road", "osm_type": "trunk", "osm_lanes": null, "osm_oneway": "True", "osm_distance": 1.2510514827709767, "osmid": 4083148.0 }, "geometry": { "type": "Point", "coordinates": [ -2.2952314, 53.362317 ] } },
{ "type": "Feature", "properties": { "AADT": 68434, "TR_AADT": 645, "2W_AADT": 122, "raw_name": "M56", "raw_oneway": true, "raw_direction": "5-->Thorley Lane bridge", "raw_techno": "Automatic counter", "osm_name": null, "osm_type": "motorway", "osm_lanes": 3.0, "osm_oneway": "True", "osm_distance": 16.642653246839267, "osmid": 143257838.0 }, "geometry": { "type": "Point", "coordinates": [ -2.2820683, 53.371428 ] } },
{ "type": "Feature", "properties": { "AADT": 30396, "TR_AADT": 815, "2W_AADT": 236, "raw_name": "A6042", "raw_oneway": true, "raw_direction": "A6-->A57", "raw_techno": "Estimated using previous year's AADF on this link", "osm_name": "Trinity Way", "osm_type": "trunk", "osm_lanes": 2.0, "osm_oneway": "True", "osm_distance": 0.23945500655398777, "osmid": 122110115.0 }, "geometry": { "type": "Point", "coordinates": [ -2.2612161, 53.475922 ] } },
{ "type": "Feature", "properties": { "AADT": 40549, "TR_AADT": 884, "2W_AADT": 221, "raw_name": "A5103", "raw_oneway": true, "raw_direction": "A6010-->A5067", "raw_techno": "Estimated using previous year's AADF on this link", "osm_name": "Princess Road", "osm_type": "trunk", "osm_lanes": 2.0, "osm_oneway": "True", "osm_distance": 6.7811960764837051, "osmid": 628003084.0 }, "geometry": { "type": "Point", "coordinates": [ -2.2449541, 53.451508 ] } },
{ "type": "Feature", "properties": { "AADT": 40199, "TR_AADT": 787, "2W_AADT": 228, "raw_name": "A5103", "raw_oneway": true, "raw_direction": "A57(M)-->A5067", "raw_techno": "Estimated using previous year's AADF on this link", "osm_name": "Princess Road", "osm_type": "trunk", "osm_lanes": 2.0, "osm_oneway": "True", "osm_distance": 15.055630486665789, "osmid": 154830384.0 }, "geometry": { "type": "Point", "coordinates": [ -2.2462592, 53.468853 ] } },
{ "type": "Feature", "properties": { "AADT": 11679, "TR_AADT": 122, "2W_AADT": 53, "raw_name": "A5067", "raw_oneway": true, "raw_direction": "A5067-->A56", "raw_techno": "Estimated using previous year's AADF on this link", "osm_name": "Ribston Street", "osm_type": "residential", "osm_lanes": null, "osm_oneway": null, "osm_distance": 6.6325671584262116, "osmid": 31509105.0 }, "geometry": { "type": "Point", "coordinates": [ -2.2575446, 53.466762 ] } },
{ "type": "Feature", "properties": { "AADT": 10734, "TR_AADT": 92, "2W_AADT": 79, "raw_name": "A5067", "raw_oneway": true, "raw_direction": "A5067-->A5103", "raw_techno": "Estimated using previous year's AADF on this link", "osm_name": "Stretford Road", "osm_type": "primary", "osm_lanes": 2.0, "osm_oneway": null, "osm_distance": 2.0802883561927477, "osmid": 4353084.0 }, "geometry": { "type": "Point", "coordinates": [ -2.2521219, 53.466773 ] } },
{ "type": "Feature", "properties": { "AADT": 11570, "TR_AADT": 174, "2W_AADT": 45, "raw_name": "A5067", "raw_oneway": true, "raw_direction": "LA Boundary-->A5067", "raw_techno": "Estimated using previous year's AADF on this link", "osm_name": "Stretford Road", "osm_type": "primary", "osm_lanes": null, "osm_oneway": null, "osm_distance": 4.7068362539471389, "osmid": 667017444.0 }, "geometry": { "type": "Point", "coordinates": [ -2.2585914, 53.465501 ] } },
{ "type": "Feature", "properties": { "AADT": 6492, "TR_AADT": 66, "2W_AADT": 41, "raw_name": "A5067", "raw_oneway": true, "raw_direction": "Princess Road-->Mancunian Way", "raw_techno": "Manual count", "osm_name": "Cavendish Street", "osm_type": "primary", "osm_lanes": 2.0, "osm_oneway": null, "osm_distance": 2.0066215038979984, "osmid": 4353081.0 }, "geometry": { "type": "Point", "coordinates": [ -2.2417395, 53.468772 ] } },
{ "type": "Feature", "properties": { "AADT": 15680, "TR_AADT": 324, "2W_AADT": 99, "raw_name": "A665", "raw_oneway": true, "raw_direction": "A664-->A6042", "raw_techno": "Estimated using previous year's AADF on this link", "osm_name": "Miller Street", "osm_type": "trunk", "osm_lanes": null, "osm_oneway": "True", "osm_distance": 0.18774694387202592, "osmid": 1100786748.0 }, "geometry": { "type": "Point", "coordinates": [ -2.2380758, 53.487026 ] } },
{ "type": "Feature", "properties": { "AADT": 55499, "TR_AADT": 513, "2W_AADT": 99, "raw_name": "M56", "raw_oneway": true, "raw_direction": "Thornley Lane Bridge-->Outwood Lane roundabout", "raw_techno": "Estimated using previous year's AADF on this link", "osm_name": null, "osm_type": "motorway", "osm_lanes": 2.0, "osm_oneway": "True", "osm_distance": 6.3583016799193697, "osmid": 175451315.0 }, "geometry": { "type": "Point", "coordinates": [ -2.2802571, 53.370263 ] } },
{ "type": "Feature", "properties": { "AADT": 2339, "TR_AADT": 35, "2W_AADT": 15, "raw_name": "A34", "raw_oneway": true, "raw_direction": "Mosley St-->A6042", "raw_techno": "Manual count", "osm_name": "Princess Street", "osm_type": "primary", "osm_lanes": 2.0, "osm_oneway": null, "osm_distance": 1.0955713350450558, "osmid": 548694371.0 }, "geometry": { "type": "Point", "coordinates": [ -2.2440616, 53.479644 ] } },
{ "type": "Feature", "properties": { "AADT": 26422, "TR_AADT": 843, "2W_AADT": 164, "raw_name": "A6010", "raw_oneway": true, "raw_direction": "A57-->A635", "raw_techno": "Estimated using previous year's AADF on this link", "osm_name": "Pottery Lane", "osm_type": "trunk", "osm_lanes": null, "osm_oneway": "True", "osm_distance": 3.6281674762651241, "osmid": 956165511.0 }, "geometry": { "type": "Point", "coordinates": [ -2.1942922, 53.469758 ] } },
{ "type": "Feature", "properties": { "AADT": 18144, "TR_AADT": 258, "2W_AADT": 52, "raw_name": "A6010", "raw_oneway": true, "raw_direction": "A6-->A57", "raw_techno": "Manual count", "osm_name": "Pottery Lane", "osm_type": "trunk", "osm_lanes": null, "osm_oneway": null, "osm_distance": 3.6078968092855255, "osmid": 79387584.0 }, "geometry": { "type": "Point", "coordinates": [ -2.1978649, 53.460584 ] } },
{ "type": "Feature", "properties": { "AADT": 7979, "TR_AADT": 76, "2W_AADT": 12, "raw_name": "A6010", "raw_oneway": true, "raw_direction": "A6010 St Johns Rd-->A6 Stockport Rd", "raw_techno": "Estimated using previous year's AADF on this link", "osm_name": "Dickenson Road", "osm_type": "trunk", "osm_lanes": null, "osm_oneway": null, "osm_distance": 1.4299017598907682, "osmid": 1006451291.0 }, "geometry": { "type": "Point", "coordinates": [ -2.2015333, 53.456038 ] } },
{ "type": "Feature", "properties": { "AADT": 31128, "TR_AADT": 809, "2W_AADT": 234, "raw_name": "A56", "raw_oneway": true, "raw_direction": "A5014-->A57(M)", "raw_techno": "Estimated using previous year's AADF on this link", "osm_name": "Chester Road", "osm_type": "trunk", "osm_lanes": 2.0, "osm_oneway": null, "osm_distance": 1.4324910292997683, "osmid": 260900807.0 }, "geometry": { "type": "Point", "coordinates": [ -2.263817, 53.470164 ] } },
{ "type": "Feature", "properties": { "AADT": 10201, "TR_AADT": 174, "2W_AADT": 50, "raw_name": "A6010", "raw_oneway": true, "raw_direction": "A6010 Dickenson Rd-->A6 Stockport Rd", "raw_techno": "Estimated using previous year's AADF on this link", "osm_name": "Saint John's Road", "osm_type": "primary", "osm_lanes": null, "osm_oneway": null, "osm_distance": 0.54360456818559344, "osmid": 1006451292.0 }, "geometry": { "type": "Point", "coordinates": [ -2.2028677, 53.457942 ] } },
{ "type": "Feature", "properties": { "AADT": 102531, "TR_AADT": 6262, "2W_AADT": 287, "raw_name": "M60", "raw_oneway": true, "raw_direction": "20-->LA Boundary", "raw_techno": "Automatic counter", "osm_name": null, "osm_type": null, "osm_lanes": null, "osm_oneway": null, "osm_distance": null, "osmid": null }, "geometry": { "type": "Point", "coordinates": [ -2.2172509, 53.540547 ] } },
{ "type": "Feature", "properties": { "AADT": 27927, "TR_AADT": 1565, "2W_AADT": 306, "raw_name": "A664", "raw_oneway": true, "raw_direction": "A6104-->M60", "raw_techno": "Estimated from nearby links", "osm_name": "Manchester New Road", "osm_type": "primary", "osm_lanes": 4.0, "osm_oneway": "True", "osm_distance": 2.5535862690148114, "osmid": 1128337476.0 }, "geometry": { "type": "Point", "coordinates": [ -2.2078575, 53.532834 ] } },
{ "type": "Feature", "properties": { "AADT": 91879, "TR_AADT": 9711, "2W_AADT": 297, "raw_name": "M56", "raw_oneway": true, "raw_direction": "M56 (3) main flow-->A5103", "raw_techno": "Estimated from nearby links", "osm_name": null, "osm_type": "motorway_link", "osm_lanes": 2.0, "osm_oneway": "True", "osm_distance": 5.9418610936574288, "osmid": 4085324.0 }, "geometry": { "type": "Point", "coordinates": [ -2.2690067, 53.397525 ] } },
{ "type": "Feature", "properties": { "AADT": 14656, "TR_AADT": 122, "2W_AADT": 50, "raw_name": "B5218", "raw_oneway": true, "raw_direction": null, "raw_techno": "Manual count", "osm_name": "Chorlton Road", "osm_type": "secondary", "osm_lanes": null, "osm_oneway": null, "osm_distance": 3.8185767850218846, "osmid": 4893937.0 }, "geometry": { "type": "Point", "coordinates": [ -2.2579484, 53.463804 ] } },
{ "type": "Feature", "properties": { "AADT": 13520, "TR_AADT": 80, "2W_AADT": 52, "raw_name": "U", "raw_oneway": true, "raw_direction": null, "raw_techno": "Manual count", "osm_name": "Simonsway", "osm_type": "tertiary", "osm_lanes": null, "osm_oneway": null, "osm_distance": 0.97527980851220697, "osmid": 998742152.0 }, "geometry": { "type": "Point", "coordinates": [ -2.2559743, 53.376035 ] } },
{ "type": "Feature", "properties": { "AADT": 2525, "TR_AADT": 19, "2W_AADT": 11, "raw_name": "U", "raw_oneway": true, "raw_direction": null, "raw_techno": "Manual count", "osm_name": "Parsonage Road", "osm_type": "tertiary", "osm_lanes": null, "osm_oneway": null, "osm_distance": 1.3397542529081026, "osmid": 1198812588.0 }, "geometry": { "type": "Point", "coordinates": [ -2.2226058, 53.433817 ] } },
{ "type": "Feature", "properties": { "AADT": 7208, "TR_AADT": 56, "2W_AADT": 35, "raw_name": "U", "raw_oneway": true, "raw_direction": null, "raw_techno": "Manual count", "osm_name": "Hathersage Road", "osm_type": "tertiary", "osm_lanes": null, "osm_oneway": null, "osm_distance": 1.8628183726250946, "osmid": 160278564.0 }, "geometry": { "type": "Point", "coordinates": [ -2.2148807, 53.459925 ] } },
{ "type": "Feature", "properties": { "AADT": 2323, "TR_AADT": 6, "2W_AADT": 6, "raw_name": "U", "raw_oneway": true, "raw_direction": null, "raw_techno": "Manual count", "osm_name": "Amos Avenue", "osm_type": "residential", "osm_lanes": null, "osm_oneway": null, "osm_distance": 2.107171877705782, "osmid": 42726330.0 }, "geometry": { "type": "Point", "coordinates": [ -2.1796611, 53.493861 ] } },
{ "type": "Feature", "properties": { "AADT": 8680, "TR_AADT": 29, "2W_AADT": 49, "raw_name": "U", "raw_oneway": true, "raw_direction": null, "raw_techno": "Manual count", "osm_name": "Saint Mary's Road", "osm_type": "tertiary", "osm_lanes": null, "osm_oneway": null, "osm_distance": 1.4402130640198527, "osmid": 172200675.0 }, "geometry": { "type": "Point", "coordinates": [ -2.1822213, 53.510908 ] } },
{ "type": "Feature", "properties": { "AADT": 693, "TR_AADT": 1, "2W_AADT": 1, "raw_name": "U", "raw_oneway": true, "raw_direction": null, "raw_techno": "Manual count", "osm_name": "Parkhurst Avenue", "osm_type": "residential", "osm_lanes": null, "osm_oneway": null, "osm_distance": 2.4501669701811455, "osmid": 92879226.0 }, "geometry": { "type": "Point", "coordinates": [ -2.1639243, 53.517101 ] } },
{ "type": "Feature", "properties": { "AADT": 2827, "TR_AADT": 36, "2W_AADT": 23, "raw_name": "U", "raw_oneway": true, "raw_direction": null, "raw_techno": "Manual count", "osm_name": "Bower Street", "osm_type": "unclassified", "osm_lanes": null, "osm_oneway": null, "osm_distance": 2.1052976097726837, "osmid": 28040433.0 }, "geometry": { "type": "Point", "coordinates": [ -2.1984604, 53.497795 ] } },
{ "type": "Feature", "properties": { "AADT": 4046, "TR_AADT": 20, "2W_AADT": 12, "raw_name": "U", "raw_oneway": true, "raw_direction": null, "raw_techno": "Manual count", "osm_name": "Cornishway", "osm_type": "residential", "osm_lanes": null, "osm_oneway": null, "osm_distance": 0.64722500399762994, "osmid": 8690226.0 }, "geometry": { "type": "Point", "coordinates": [ -2.2654994, 53.37045 ] } },
{ "type": "Feature", "properties": { "AADT": 8374, "TR_AADT": 105, "2W_AADT": 27, "raw_name": "U", "raw_oneway": true, "raw_direction": null, "raw_techno": "Manual count", "osm_name": "Mauldeth Road West", "osm_type": "tertiary", "osm_lanes": 2.0, "osm_oneway": "True", "osm_distance": 1.2685330255915743, "osmid": 701379162.0 }, "geometry": { "type": "Point", "coordinates": [ -2.2658802, 53.433918 ] } },
{ "type": "Feature", "properties": { "AADT": 4184, "TR_AADT": 27, "2W_AADT": 21, "raw_name": "U", "raw_oneway": true, "raw_direction": null, "raw_techno": "Manual count", "osm_name": "Crossacres Road", "osm_type": "tertiary", "osm_lanes": null, "osm_oneway": null, "osm_distance": 5.2115652027060673, "osmid": 27298314.0 }, "geometry": { "type": "Point", "coordinates": [ -2.248598, 53.384482 ] } },
{ "type": "Feature", "properties": { "AADT": 3579, "TR_AADT": 26, "2W_AADT": 22, "raw_name": "U", "raw_oneway": true, "raw_direction": null, "raw_techno": "Manual count", "osm_name": "Cavendish Road", "osm_type": "residential", "osm_lanes": null, "osm_oneway": null, "osm_distance": 1.6680007315850738, "osmid": 4447722.0 }, "geometry": { "type": "Point", "coordinates": [ -2.2421443, 53.428764 ] } },
{ "type": "Feature", "properties": { "AADT": 116, "TR_AADT": 2, "2W_AADT": 0, "raw_name": "U", "raw_oneway": true, "raw_direction": null, "raw_techno": "Manual count", "osm_name": "Rowan Avenue", "osm_type": "residential", "osm_lanes": null, "osm_oneway": null, "osm_distance": 0.20497866672845572, "osmid": 4973239.0 }, "geometry": { "type": "Point", "coordinates": [ -2.2642188, 53.452402 ] } },
{ "type": "Feature", "properties": { "AADT": 3271, "TR_AADT": 13, "2W_AADT": 17, "raw_name": "U", "raw_oneway": true, "raw_direction": null, "raw_techno": "Manual count", "osm_name": "Royce Road", "osm_type": "tertiary", "osm_lanes": null, "osm_oneway": null, "osm_distance": 1.7400060967169098, "osmid": 614099929.0 }, "geometry": { "type": "Point", "coordinates": [ -2.2574149, 53.467733 ] } },
{ "type": "Feature", "properties": { "AADT": 339, "TR_AADT": 0, "2W_AADT": 0, "raw_name": "U", "raw_oneway": true, "raw_direction": null, "raw_techno": "Manual count", "osm_name": "Manson Avenue", "osm_type": "residential", "osm_lanes": 2.0, "osm_oneway": null, "osm_distance": 0.71617979976217572, "osmid": 70451743.0 }, "geometry": { "type": "Point", "coordinates": [ -2.2639643, 53.469615 ] } },
{ "type": "Feature", "properties": { "AADT": 3824, "TR_AADT": 171, "2W_AADT": 15, "raw_name": "U", "raw_oneway": true, "raw_direction": null, "raw_techno": "Manual count", "osm_name": "Cambrian Street", "osm_type": "tertiary", "osm_lanes": null, "osm_oneway": null, "osm_distance": 2.1440397743480157, "osmid": 28039391.0 }, "geometry": { "type": "Point", "coordinates": [ -2.212223, 53.485682 ] } },
{ "type": "Feature", "properties": { "AADT": 3710, "TR_AADT": 24, "2W_AADT": 33, "raw_name": "U", "raw_oneway": true, "raw_direction": null, "raw_techno": "Manual count", "osm_name": "Collyhurst Road", "osm_type": "tertiary", "osm_lanes": null, "osm_oneway": null, "osm_distance": 3.2250936888177537, "osmid": 668479862.0 }, "geometry": { "type": "Point", "coordinates": [ -2.2279932, 53.495387 ] } },
{ "type": "Feature", "properties": { "AADT": 5846, "TR_AADT": 71, "2W_AADT": 29, "raw_name": "U", "raw_oneway": true, "raw_direction": null, "raw_techno": "Manual count", "osm_name": "Graver Lane", "osm_type": "tertiary", "osm_lanes": null, "osm_oneway": null, "osm_distance": 0.69777485320454435, "osmid": 84526761.0 }, "geometry": { "type": "Point", "coordinates": [ -2.1673392, 53.495829 ] } },
{ "type": "Feature", "properties": { "AADT": 6948, "TR_AADT": 39, "2W_AADT": 43, "raw_name": "U", "raw_oneway": true, "raw_direction": null, "raw_techno": "Manual count", "osm_name": "Mauldeth Road", "osm_type": "residential", "osm_lanes": null, "osm_oneway": null, "osm_distance": 3.2229631729552302, "osmid": 628086061.0 }, "geometry": { "type": "Point", "coordinates": [ -2.2071394, 53.432101 ] } },
{ "type": "Feature", "properties": { "AADT": 1577, "TR_AADT": 5, "2W_AADT": 11, "raw_name": "U", "raw_oneway": true, "raw_direction": null, "raw_techno": "Manual count", "osm_name": "Darley Street", "osm_type": "tertiary", "osm_lanes": null, "osm_oneway": null, "osm_distance": 0.22116425099455661, "osmid": 27931340.0 }, "geometry": { "type": "Point", "coordinates": [ -2.2048134, 53.480437 ] } },
{ "type": "Feature", "properties": { "AADT": 9610, "TR_AADT": 51, "2W_AADT": 86, "raw_name": "B5167", "raw_oneway": true, "raw_direction": null, "raw_techno": "Manual count", "osm_name": "Palatine Road", "osm_type": "secondary", "osm_lanes": 2.0, "osm_oneway": null, "osm_distance": 0.36997573067178097, "osmid": 4967233.0 }, "geometry": { "type": "Point", "coordinates": [ -2.2456002, 53.417368 ] } },
{ "type": "Feature", "properties": { "AADT": 15652, "TR_AADT": 188, "2W_AADT": 119, "raw_name": "B5093", "raw_oneway": true, "raw_direction": null, "raw_techno": "Manual count", "osm_name": "Moseley Road", "osm_type": "secondary", "osm_lanes": null, "osm_oneway": "True", "osm_distance": 1.3217824309613999, "osmid": 154832222.0 }, "geometry": { "type": "Point", "coordinates": [ -2.2108605, 53.441928 ] } },
{ "type": "Feature", "properties": { "AADT": 8460, "TR_AADT": 104, "2W_AADT": 49, "raw_name": "B5093", "raw_oneway": true, "raw_direction": null, "raw_techno": "Manual count", "osm_name": "Wilmslow Road", "osm_type": "secondary", "osm_lanes": null, "osm_oneway": null, "osm_distance": 0.4338755721217592, "osmid": 537981619.0 }, "geometry": { "type": "Point", "coordinates": [ -2.2241711, 53.436646 ] } },
{ "type": "Feature", "properties": { "AADT": 9871, "TR_AADT": 66, "2W_AADT": 60, "raw_name": "B5219", "raw_oneway": true, "raw_direction": null, "raw_techno": "Manual count", "osm_name": "Moss Lane East", "osm_type": "secondary", "osm_lanes": null, "osm_oneway": null, "osm_distance": 1.0819447474407051, "osmid": 1073258001.0 }, "geometry": { "type": "Point", "coordinates": [ -2.2307881, 53.457702 ] } },
{ "type": "Feature", "properties": { "AADT": 12422, "TR_AADT": 189, "2W_AADT": 77, "raw_name": "B5167", "raw_oneway": true, "raw_direction": null, "raw_techno": "Manual count", "osm_name": "Palatine Road", "osm_type": "secondary", "osm_lanes": null, "osm_oneway": null, "osm_distance": 0.36821225305493599, "osmid": 557643020.0 }, "geometry": { "type": "Point", "coordinates": [ -2.2563421, 53.409714 ] } },
{ "type": "Feature", "properties": { "AADT": 8611, "TR_AADT": 69, "2W_AADT": 33, "raw_name": "B5093", "raw_oneway": true, "raw_direction": null, "raw_techno": "Manual count", "osm_name": "Wilmslow Road", "osm_type": "secondary", "osm_lanes": null, "osm_oneway": null, "osm_distance": 0.95819879567490207, "osmid": 537948941.0 }, "geometry": { "type": "Point", "coordinates": [ -2.2324342, 53.422716 ] } },
{ "type": "Feature", "properties": { "AADT": 7236, "TR_AADT": 96, "2W_AADT": 33, "raw_name": "C", "raw_oneway": true, "raw_direction": null, "raw_techno": "Manual count", "osm_name": "Blackley New Road", "osm_type": "tertiary", "osm_lanes": null, "osm_oneway": null, "osm_distance": 2.7844665486121651, "osmid": 1072298860.0 }, "geometry": { "type": "Point", "coordinates": [ -2.2402631, 53.524692 ] } },
{ "type": "Feature", "properties": { "AADT": 5154, "TR_AADT": 46, "2W_AADT": 22, "raw_name": "C", "raw_oneway": true, "raw_direction": null, "raw_techno": "Manual count", "osm_name": "Floatshall Road", "osm_type": "tertiary", "osm_lanes": null, "osm_oneway": null, "osm_distance": 0.81250649646324991, "osmid": 1037203063.0 }, "geometry": { "type": "Point", "coordinates": [ -2.2909529, 53.395963 ] } },
{ "type": "Feature", "properties": { "AADT": 9688, "TR_AADT": 51, "2W_AADT": 32, "raw_name": "C", "raw_oneway": true, "raw_direction": null, "raw_techno": "Manual count", "osm_name": "Fog Lane", "osm_type": "residential", "osm_lanes": null, "osm_oneway": null, "osm_distance": 0.12815102045187446, "osmid": 1073268042.0 }, "geometry": { "type": "Point", "coordinates": [ -2.214082, 53.420952 ] } },
{ "type": "Feature", "properties": { "AADT": 742, "TR_AADT": 6, "2W_AADT": 1, "raw_name": "U", "raw_oneway": true, "raw_direction": null, "raw_techno": "Manual count", "osm_name": "Montgomery Road", "osm_type": "residential", "osm_lanes": null, "osm_oneway": null, "osm_distance": 2.891822682835171, "osmid": 155366795.0 }, "geometry": { "type": "Point", "coordinates": [ -2.2008343, 53.451527 ] } },
{ "type": "Feature", "properties": { "AADT": 992, "TR_AADT": 5, "2W_AADT": 28, "raw_name": "U", "raw_oneway": true, "raw_direction": null, "raw_techno": "Manual count", "osm_name": "Thomson Road", "osm_type": "residential", "osm_lanes": null, "osm_oneway": null, "osm_distance": 1.3266174549688241, "osmid": 157736846.0 }, "geometry": { "type": "Point", "coordinates": [ -2.1776966, 53.456643 ] } },
{ "type": "Feature", "properties": { "AADT": 362, "TR_AADT": 0, "2W_AADT": 0, "raw_name": "U", "raw_oneway": true, "raw_direction": null, "raw_techno": "Manual count", "osm_name": "Galsworthy Avenue", "osm_type": "residential", "osm_lanes": null, "osm_oneway": null, "osm_distance": 1.941135287940684, "osmid": 4960886.0 }, "geometry": { "type": "Point", "coordinates": [ -2.2382146, 53.501039 ] } },
{ "type": "Feature", "properties": { "AADT": 503, "TR_AADT": 3, "2W_AADT": 0, "raw_name": "U", "raw_oneway": true, "raw_direction": null, "raw_techno": "Manual count", "osm_name": "Maine Road", "osm_type": "residential", "osm_lanes": null, "osm_oneway": null, "osm_distance": 0.85770270761457279, "osmid": 4375190.0 }, "geometry": { "type": "Point", "coordinates": [ -2.2350082, 53.455573 ] } },
{ "type": "Feature", "properties": { "AADT": 2485, "TR_AADT": 11, "2W_AADT": 8, "raw_name": "U", "raw_oneway": true, "raw_direction": null, "raw_techno": "Manual count", "osm_name": "Rylance Street", "osm_type": "tertiary", "osm_lanes": null, "osm_oneway": null, "osm_distance": 1.0583880681275391, "osmid": 28028733.0 }, "geometry": { "type": "Point", "coordinates": [ -2.2060005, 53.476641 ] } },
{ "type": "Feature", "properties": { "AADT": 411, "TR_AADT": 3, "2W_AADT": 2, "raw_name": "U", "raw_oneway": true, "raw_direction": null, "raw_techno": "Manual count", "osm_name": "Birkdale Street", "osm_type": "residential", "osm_lanes": null, "osm_oneway": null, "osm_distance": 1.8078667914653539, "osmid": 166603832.0 }, "geometry": { "type": "Point", "coordinates": [ -2.2399178, 53.508972 ] } },
{ "type": "Feature", "properties": { "AADT": 8906, "TR_AADT": 153, "2W_AADT": 52, "raw_name": "U", "raw_oneway": true, "raw_direction": null, "raw_techno": "Manual count", "osm_name": "Longley Lane", "osm_type": "tertiary", "osm_lanes": null, "osm_oneway": null, "osm_distance": 0.8722236513136129, "osmid": 4368269.0 }, "geometry": { "type": "Point", "coordinates": [ -2.2558362, 53.403127 ] } },
{ "type": "Feature", "properties": { "AADT": 405, "TR_AADT": 8, "2W_AADT": 3, "raw_name": "U", "raw_oneway": true, "raw_direction": null, "raw_techno": "Manual count", "osm_name": "Bamford Street", "osm_type": "residential", "osm_lanes": null, "osm_oneway": null, "osm_distance": 1.0269179877046182, "osmid": 167789868.0 }, "geometry": { "type": "Point", "coordinates": [ -2.1862531, 53.484718 ] } },
{ "type": "Feature", "properties": { "AADT": 3246, "TR_AADT": 15, "2W_AADT": 24, "raw_name": "U", "raw_oneway": true, "raw_direction": null, "raw_techno": "Manual count", "osm_name": "Woodhouse Lane", "osm_type": "tertiary", "osm_lanes": null, "osm_oneway": null, "osm_distance": 0.42663270301729928, "osmid": 8692785.0 }, "geometry": { "type": "Point", "coordinates": [ -2.2612589, 53.384796 ] } },
{ "type": "Feature", "properties": { "AADT": 328, "TR_AADT": 0, "2W_AADT": 7, "raw_name": "U", "raw_oneway": true, "raw_direction": null, "raw_techno": "Manual count", "osm_name": "Somerfield Road", "osm_type": "residential", "osm_lanes": null, "osm_oneway": null, "osm_distance": 1.1321244066387508, "osmid": 4947609.0 }, "geometry": { "type": "Point", "coordinates": [ -2.2186792, 53.516132 ] } },
{ "type": "Feature", "properties": { "AADT": 858, "TR_AADT": 22, "2W_AADT": 10, "raw_name": "U", "raw_oneway": true, "raw_direction": null, "raw_techno": "Manual count", "osm_name": null, "osm_type": null, "osm_lanes": null, "osm_oneway": null, "osm_distance": null, "osmid": null }, "geometry": { "type": "Point", "coordinates": [ -2.2363384, 53.478131 ] } },
{ "type": "Feature", "properties": { "AADT": 237, "TR_AADT": 0, "2W_AADT": 0, "raw_name": "U", "raw_oneway": true, "raw_direction": null, "raw_techno": "Manual count", "osm_name": "Fouracres Road", "osm_type": "residential", "osm_lanes": null, "osm_oneway": null, "osm_distance": 0.76483689733778315, "osmid": 85350963.0 }, "geometry": { "type": "Point", "coordinates": [ -2.2854218, 53.389676 ] } },
{ "type": "Feature", "properties": { "AADT": 642, "TR_AADT": 22, "2W_AADT": 4, "raw_name": "U", "raw_oneway": true, "raw_direction": null, "raw_techno": "Manual count", "osm_name": "Jackson's Row", "osm_type": "residential", "osm_lanes": null, "osm_oneway": "True", "osm_distance": 0.64831198935382706, "osmid": 30095454.0 }, "geometry": { "type": "Point", "coordinates": [ -2.248081, 53.479006 ] } },
{ "type": "Feature", "properties": { "AADT": 71, "TR_AADT": 0, "2W_AADT": 2, "raw_name": "U", "raw_oneway": true, "raw_direction": null, "raw_techno": "Manual count", "osm_name": "Mortimer Avenue", "osm_type": "residential", "osm_lanes": null, "osm_oneway": null, "osm_distance": 0.12088387010975535, "osmid": 4957965.0 }, "geometry": { "type": "Point", "coordinates": [ -2.2070332, 53.530858 ] } },
{ "type": "Feature", "properties": { "AADT": 420, "TR_AADT": 1, "2W_AADT": 0, "raw_name": "U", "raw_oneway": true, "raw_direction": null, "raw_techno": "Manual count", "osm_name": "Lauderdale Crescent", "osm_type": "residential", "osm_lanes": null, "osm_oneway": null, "osm_distance": 0.42450048349680664, "osmid": 27930596.0 }, "geometry": { "type": "Point", "coordinates": [ -2.2215466, 53.464542 ] } },
{ "type": "Feature", "properties": { "AADT": 1111, "TR_AADT": 0, "2W_AADT": 6, "raw_name": "U", "raw_oneway": true, "raw_direction": null, "raw_techno": "Manual count", "osm_name": "Lewis Avenue", "osm_type": "residential", "osm_lanes": null, "osm_oneway": null, "osm_distance": 1.1564063596635465, "osmid": 4957080.0 }, "geometry": { "type": "Point", "coordinates": [ -2.2058465, 53.51637 ] } },
{ "type": "Feature", "properties": { "AADT": 480, "TR_AADT": 0, "2W_AADT": 0, "raw_name": "U", "raw_oneway": true, "raw_direction": null, "raw_techno": "Manual count", "osm_name": "Brundretts Road", "osm_type": "residential", "osm_lanes": null, "osm_oneway": "True", "osm_distance": 1.9501412567311864, "osmid": 4514624.0 }, "geometry": { "type": "Point", "coordinates": [ -2.2781683, 53.441728 ] } },
{ "type": "Feature", "properties": { "AADT": 284, "TR_AADT": 2, "2W_AADT": 0, "raw_name": "U", "raw_oneway": true, "raw_direction": null, "raw_techno": "Manual count", "osm_name": "Braemar Road", "osm_type": "residential", "osm_lanes": null, "osm_oneway": null, "osm_distance": 1.0953575812125218, "osmid": 4855887.0 }, "geometry": { "type": "Point", "coordinates": [ -2.2108585, 53.441515 ] } },
{ "type": "Feature", "properties": { "AADT": 6033, "TR_AADT": 46, "2W_AADT": 16, "raw_name": "C", "raw_oneway": true, "raw_direction": null, "raw_techno": "Manual count", "osm_name": "Claremont Road", "osm_type": "residential", "osm_lanes": null, "osm_oneway": null, "osm_distance": 1.9062027747569752, "osmid": 648408521.0 }, "geometry": { "type": "Point", "coordinates": [ -2.2376611, 53.45332 ] } },
{ "type": "Feature", "properties": { "AADT": 8557, "TR_AADT": 164, "2W_AADT": 84, "raw_name": "C", "raw_oneway": true, "raw_direction": null, "raw_techno": "Manual count", "osm_name": "Greenwood Road", "osm_type": "tertiary", "osm_lanes": null, "osm_oneway": null, "osm_distance": 2.4178127699083576, "osmid": 8692043.0 }, "geometry": { "type": "Point", "coordinates": [ -2.2716104, 53.390751 ] } },
{ "type": "Feature", "properties": { "AADT": 492, "TR_AADT": 4, "2W_AADT": 3, "raw_name": "U", "raw_oneway": true, "raw_direction": null, "raw_techno": "Manual count", "osm_name": "Aldermary Road", "osm_type": "residential", "osm_lanes": null, "osm_oneway": null, "osm_distance": 0.74318835788684068, "osmid": 4394419.0 }, "geometry": { "type": "Point", "coordinates": [ -2.2603564, 53.426568 ] } }
]
}
