{
"type": "FeatureCollection",
"name": "Manchester_AADT_2021",
"crs": { "type": "name", "properties": { "name": "urn:ogc:def:crs:OGC:1.3:CRS84" } },
"features": [
{ "type": "Feature", "properties": { "AADT": 82618, "TR_AADT": 4727, "2W_AADT": 107, "raw_name": "M56", "raw_oneway": true, "raw_direction": "4-->LA Boundary", "raw_techno": "Manual count", "osm_name": "Sharston Link", "osm_type": "motorway", "osm_lanes": 1.0, "osm_oneway": "True", "osm_distance": 1.4388817523086692, "osm_maxspeed": 112.6538, "osmid": 4966827.0 }, "geometry": { "type": "Point", "coordinates": [ -2.2480935, 53.395961 ] } },
{ "type": "Feature", "properties": { "AADT": 103507, "TR_AADT": 7357, "2W_AADT": 191, "raw_name": "M56", "raw_oneway": true, "raw_direction": "5-->4", "raw_techno": "Manual count", "osm_name": null, "osm_type": "motorway", "osm_lanes": 4.0, "osm_oneway": "True", "osm_distance": 11.805506553064196, "osm_maxspeed": 112.6538, "osmid": 3991964.0 }, "geometry": { "type": "Point", "coordinates": [ -2.2786731, 53.380865 ] } },
{ "type": "Feature", "properties": { "AADT": 40579, "TR_AADT": 1723, "2W_AADT": 155, "raw_name": "A57M", "raw_oneway": true, "raw_direction": "A34-->A6", "raw_techno": "Estimated using previous year's AADF on this link", "osm_name": "Mancunian Way", "osm_type": "motorway", "osm_lanes": 2.0, "osm_oneway": "True", "osm_distance": 2.9791885150927153, "osm_maxspeed": 48.2802, "osmid": 206553998.0 }, "geometry": { "type": "Point", "coordinates": [ -2.2324235, 53.473105 ] } },
{ "type": "Feature", "properties": { "AADT": 12614, "TR_AADT": 201, "2W_AADT": 120, "raw_name": "A56", "raw_oneway": true, "raw_direction": "A6042-->LA Boundary", "raw_techno": "Estimated using previous year's AADF on this link", "osm_name": "Bury New Road", "osm_type": "trunk", "osm_lanes": 3.0, "osm_oneway": null, "osm_distance": 3.218271346090416, "osm_maxspeed": 48.2802, "osmid": 165524110.0 }, "geometry": { "type": "Point", "coordinates": [ -2.2527502, 53.496434 ] } },
{ "type": "Feature", "properties": { "AADT": 15409, "TR_AADT": 219, "2W_AADT": 64, "raw_name": "A665", "raw_oneway": true, "raw_direction": "A6042-->A6010", "raw_techno": "Estimated using previous year's AADF on this link", "osm_name": "Cheetham Hill Road", "osm_type": "trunk", "osm_lanes": 4.0, "osm_oneway": "False", "osm_distance": 3.0255928947552935, "osm_maxspeed": 48.2802, "osmid": 154695511.0 }, "geometry": { "type": "Point", "coordinates": [ -2.2379629, 53.496464 ] } },
{ "type": "Feature", "properties": { "AADT": 83220, "TR_AADT": 4222, "2W_AADT": 205, "raw_name": "A5103", "raw_oneway": true, "raw_direction": "M56-->M60", "raw_techno": "Estimated using previous year's AADF on this link", "osm_name": "Princess Parkway", "osm_type": "trunk", "osm_lanes": 4.0, "osm_oneway": "True", "osm_distance": 8.1429401909812622, "osm_maxspeed": 80.467, "osmid": 4018899.0 }, "geometry": { "type": "Point", "coordinates": [ -2.2668269, 53.409664 ] } },
{ "type": "Feature", "properties": { "AADT": 9895, "TR_AADT": 72, "2W_AADT": 41, "raw_name": "A5145", "raw_oneway": true, "raw_direction": "A5103-->A34", "raw_techno": "Estimated using previous year's AADF on this link", "osm_name": null, "osm_type": "service", "osm_lanes": null, "osm_oneway": null, "osm_distance": 2.7105124978444599, "osm_maxspeed": 48.2802, "osmid": 4966657.0 }, "geometry": { "type": "Point", "coordinates": [ -2.2268609, 53.410376 ] } },
{ "type": "Feature", "properties": { "AADT": 10033, "TR_AADT": 91, "2W_AADT": 55, "raw_name": "A34", "raw_oneway": true, "raw_direction": "A5079-->A6010", "raw_techno": "Estimated using previous year's AADF on this link", "osm_name": "Birchfields Road", "osm_type": "trunk", "osm_lanes": 2.0, "osm_oneway": null, "osm_distance": 2.6338907907225169, "osm_maxspeed": 48.2802, "osmid": 155291843.0 }, "geometry": { "type": "Point", "coordinates": [ -2.2089173, 53.450875 ] } },
{ "type": "Feature", "properties": { "AADT": 14719, "TR_AADT": 393, "2W_AADT": 67, "raw_name": "A6010", "raw_oneway": true, "raw_direction": "A62-->A664", "raw_techno": "Estimated using previous year's AADF on this link", "osm_name": "Queens Road", "osm_type": "trunk", "osm_lanes": 2.0, "osm_oneway": null, "osm_distance": 3.0138382360330942, "osm_maxspeed": 48.2802, "osmid": 1020554743.0 }, "geometry": { "type": "Point", "coordinates": [ -2.2136561, 53.49794 ] } },
{ "type": "Feature", "properties": { "AADT": 29689, "TR_AADT": 690, "2W_AADT": 140, "raw_name": "A665", "raw_oneway": true, "raw_direction": "Pin Mill Brow-->A662", "raw_techno": "Estimated using previous year's AADF on this link", "osm_name": "Great Ancoats Street", "osm_type": "trunk", "osm_lanes": 2.0, "osm_oneway": null, "osm_distance": 1.6618939232499601, "osm_maxspeed": 48.2802, "osmid": 896118858.0 }, "geometry": { "type": "Point", "coordinates": [ -2.2210319, 53.47852 ] } },
{ "type": "Feature", "properties": { "AADT": 2347, "TR_AADT": 41, "2W_AADT": 14, "raw_name": "A6143", "raw_oneway": true, "raw_direction": "A57-->A56", "raw_techno": "Estimated using previous year's AADF on this link", "osm_name": "Liverpool Road", "osm_type": "primary", "osm_lanes": 2.0, "osm_oneway": null, "osm_distance": 2.5160367351059962, "osm_maxspeed": 32.1868, "osmid": 732478288.0 }, "geometry": { "type": "Point", "coordinates": [ -2.2576066, 53.476982 ] } },
{ "type": "Feature", "properties": { "AADT": 14765, "TR_AADT": 306, "2W_AADT": 66, "raw_name": "A6", "raw_oneway": true, "raw_direction": "A5079-->A6010", "raw_techno": "Estimated using previous year's AADF on this link", "osm_name": "Stockport Road", "osm_type": "trunk", "osm_lanes": 2.0, "osm_oneway": null, "osm_distance": 0.13358948044056076, "osm_maxspeed": 48.2802, "osmid": 1342703953.0 }, "geometry": { "type": "Point", "coordinates": [ -2.1988657, 53.455602 ] } },
{ "type": "Feature", "properties": { "AADT": 4496, "TR_AADT": 75, "2W_AADT": 68, "raw_name": "A34", "raw_oneway": true, "raw_direction": "A6042-->A56", "raw_techno": "Manual count", "osm_name": "John Dalton Street", "osm_type": "primary", "osm_lanes": 2.0, "osm_oneway": null, "osm_distance": 1.3956440333806444, "osm_maxspeed": 32.1868, "osmid": 1334549232.0 }, "geometry": { "type": "Point", "coordinates": [ -2.2470806, 53.48059 ] } },
{ "type": "Feature", "properties": { "AADT": 4373, "TR_AADT": 115, "2W_AADT": 49, "raw_name": "A34", "raw_oneway": true, "raw_direction": "A6042-->A56", "raw_techno": "Estimated using previous year's AADF on this link", "osm_name": "Peter Street", "osm_type": "primary", "osm_lanes": null, "osm_oneway": null, "osm_distance": 0.3982802061818006, "osm_maxspeed": 32.1868, "osmid": 197713164.0 }, "geometry": { "type": "Point", "coordinates": [ -2.2470654, 53.477975 ] } },
{ "type": "Feature", "properties": { "AADT": 8716, "TR_AADT": 145, "2W_AADT": 93, "raw_name": "A56", "raw_oneway": true, "raw_direction": "A6143-->A34", "raw_techno": "Estimated using previous year's AADF on this link", "osm_name": "Deansgate", "osm_type": "tertiary", "osm_lanes": 2.0, "osm_oneway": "True", "osm_distance": 1.0051912188774701, "osm_maxspeed": 32.1868, "osmid": 250134165.0 }, "geometry": { "type": "Point", "coordinates": [ -2.2505232, 53.476664 ] } },
{ "type": "Feature", "properties": { "AADT": 2597, "TR_AADT": 53, "2W_AADT": 18, "raw_name": "A62", "raw_oneway": true, "raw_direction": "A6-->A665", "raw_techno": "Manual count", "osm_name": "Newton Street", "osm_type": "primary", "osm_lanes": 2.0, "osm_oneway": null, "osm_distance": 0.87778271870012781, "osm_maxspeed": 32.1868, "osmid": 1226575034.0 }, "geometry": { "type": "Point", "coordinates": [ -2.2324582, 53.482211 ] } },
{ "type": "Feature", "properties": { "AADT": 107406, "TR_AADT": 9019, "2W_AADT": 144, "raw_name": "M56", "raw_oneway": true, "raw_direction": "6-->5", "raw_techno": "Manual count", "osm_name": null, "osm_type": "motorway", "osm_lanes": 4.0, "osm_oneway": "True", "osm_distance": 3.8943148369317253, "osm_maxspeed": 112.6538, "osmid": 142880354.0 }, "geometry": { "type": "Point", "coordinates": [ -2.2911611, 53.371406 ] } },
{ "type": "Feature", "properties": { "AADT": 21710, "TR_AADT": 307, "2W_AADT": 57, "raw_name": "A34", "raw_oneway": true, "raw_direction": "A5145-->A5079", "raw_techno": "Estimated using previous year's AADF on this link", "osm_name": "Kingsway", "osm_type": "trunk", "osm_lanes": 2.0, "osm_oneway": "True", "osm_distance": 5.6963657565757408, "osm_maxspeed": 64.3736, "osmid": 154832279.0 }, "geometry": { "type": "Point", "coordinates": [ -2.2116174, 53.424606 ] } },
{ "type": "Feature", "properties": { "AADT": 5549, "TR_AADT": 103, "2W_AADT": 45, "raw_name": "A56", "raw_oneway": true, "raw_direction": "A34-->A6", "raw_techno": "Estimated using previous year's AADF on this link", "osm_name": "Deansgate", "osm_type": "tertiary", "osm_lanes": null, "osm_oneway": "True", "osm_distance": 1.0279249670045496, "osm_maxspeed": 32.1868, "osmid": 119862628.0 }, "geometry": { "type": "Point", "coordinates": [ -2.2470301, 53.482271 ] } },
{ "type": "Feature", "properties": { "AADT": 12757, "TR_AADT": 526, "2W_AADT": 59, "raw_name": "A57", "raw_oneway": true, "raw_direction": "A6-->A665", "raw_techno": "Estimated using previous year's AADF on this link", "osm_name": "Hyde Road", "osm_type": "trunk", "osm_lanes": null, "osm_oneway": null, "osm_distance": 0.60143558162517796, "osm_maxspeed": 48.2802, "osmid": 1290072194.0 }, "geometry": { "type": "Point", "coordinates": [ -2.219901, 53.469624 ] } },
{ "type": "Feature", "properties": { "AADT": 21415, "TR_AADT": 800, "2W_AADT": 95, "raw_name": "A62", "raw_oneway": true, "raw_direction": "A6010-->LA Boundary", "raw_techno": "Estimated using previous year's AADF on this link", "osm_name": "Oldham Road", "osm_type": "trunk", "osm_lanes": null, "osm_oneway": null, "osm_distance": 3.2085679679278156, "osm_maxspeed": 48.2802, "osmid": 1112105284.0 }, "geometry": { "type": "Point", "coordinates": [ -2.2082826, 53.49652 ] } },
{ "type": "Feature", "properties": { "AADT": 37106, "TR_AADT": 673, "2W_AADT": 80, "raw_name": "A5103", "raw_oneway": true, "raw_direction": "A5145-->A6010", "raw_techno": "Manual count", "osm_name": "Princess Road", "osm_type": "trunk", "osm_lanes": 2.0, "osm_oneway": "True", "osm_distance": 4.4299499133198612, "osm_maxspeed": 48.2802, "osmid": 4243889.0 }, "geometry": { "type": "Point", "coordinates": [ -2.247605, 53.433525 ] } },
{ "type": "Feature", "properties": { "AADT": 11333, "TR_AADT": 303, "2W_AADT": 42, "raw_name": "A6104", "raw_oneway": true, "raw_direction": "A664-->LA Boundary", "raw_techno": "Estimated using previous year's AADF on this link", "osm_name": "Victoria Ave East", "osm_type": "primary", "osm_lanes": 2.0, "osm_oneway": null, "osm_distance": 1.754148219652903, "osm_maxspeed": 48.2802, "osmid": 4957514.0 }, "geometry": { "type": "Point", "coordinates": [ -2.1824881, 53.527356 ] } },
{ "type": "Feature", "properties": { "AADT": 27291, "TR_AADT": 760, "2W_AADT": 251, "raw_name": "A6042", "raw_oneway": true, "raw_direction": "A56-->A665", "raw_techno": "Estimated using previous year's AADF on this link", "osm_name": "Trinity Way", "osm_type": "trunk", "osm_lanes": 3.0, "osm_oneway": "True", "osm_distance": 0.20011380897093087, "osm_maxspeed": 48.2802, "osmid": 589896289.0 }, "geometry": { "type": "Point", "coordinates": [ -2.2426097, 53.489264 ] } },
{ "type": "Feature", "properties": { "AADT": 4188, "TR_AADT": 61, "2W_AADT": 65, "raw_name": "A34", "raw_oneway": true, "raw_direction": "Upper Brook St-->A5103", "raw_techno": "Estimated using previous year's AADF on this link", "osm_name": "Oxford Road", "osm_type": "secondary", "osm_lanes": 2.0, "osm_oneway": "False", "osm_distance": 3.087750649994125, "osm_maxspeed": 32.1868, "osmid": 28047780.0 }, "geometry": { "type": "Point", "coordinates": [ -2.2398055, 53.473091 ] } },
{ "type": "Feature", "properties": { "AADT": 24893, "TR_AADT": 856, "2W_AADT": 123, "raw_name": "A57", "raw_oneway": true, "raw_direction": "A6010-->LA Boundary", "raw_techno": "Manual count", "osm_name": "Hyde Road", "osm_type": "trunk", "osm_lanes": 4.0, "osm_oneway": null, "osm_distance": 1.6138458264562763, "osm_maxspeed": 48.2802, "osmid": 165547645.0 }, "geometry": { "type": "Point", "coordinates": [ -2.1852253, 53.463301 ] } },
{ "type": "Feature", "properties": { "AADT": 32827, "TR_AADT": 555, "2W_AADT": 98, "raw_name": "A576", "raw_oneway": true, "raw_direction": "A6044-->A6104", "raw_techno": "Estimated using previous year's AADF on this link", "osm_name": "Middleton Road", "osm_type": "trunk", "osm_lanes": 2.0, "osm_oneway": "True", "osm_distance": 1.2202070906704297, "osm_maxspeed": 48.2802, "osmid": 4958075.0 }, "geometry": { "type": "Point", "coordinates": [ -2.2458634, 53.530604 ] } },
{ "type": "Feature", "properties": { "AADT": 25080, "TR_AADT": 613, "2W_AADT": 168, "raw_name": "A665", "raw_oneway": true, "raw_direction": "A6042-->A6042", "raw_techno": "Estimated using previous year's AADF on this link", "osm_name": "Cheetham Hill Road", "osm_type": "trunk", "osm_lanes": 4.0, "osm_oneway": "False", "osm_distance": 2.3148430270786871, "osm_maxspeed": 48.2802, "osmid": 353455896.0 }, "geometry": { "type": "Point", "coordinates": [ -2.2406454, 53.488369 ] } },
{ "type": "Feature", "properties": { "AADT": 12402, "TR_AADT": 259, "2W_AADT": 80, "raw_name": "A6010", "raw_oneway": true, "raw_direction": "A665-->LA Boundary", "raw_techno": "Estimated using previous year's AADF on this link", "osm_name": "Elizabeth Street", "osm_type": "trunk", "osm_lanes": null, "osm_oneway": null, "osm_distance": 0.95245573131761663, "osm_maxspeed": 48.2802, "osmid": 169246827.0 }, "geometry": { "type": "Point", "coordinates": [ -2.2426728, 53.500311 ] } },
{ "type": "Feature", "properties": { "AADT": 8700, "TR_AADT": 122, "2W_AADT": 111, "raw_name": "A5103", "raw_oneway": true, "raw_direction": "A34-->A6", "raw_techno": "Manual count", "osm_name": "Portland Street", "osm_type": "primary", "osm_lanes": null, "osm_oneway": null, "osm_distance": 1.7471961537431278, "osm_maxspeed": 32.1868, "osmid": 828579403.0 }, "geometry": { "type": "Point", "coordinates": [ -2.2385101, 53.478486 ] } },
{ "type": "Feature", "properties": { "AADT": 1941, "TR_AADT": 43, "2W_AADT": 23, "raw_name": "A6042", "raw_oneway": true, "raw_direction": "A34-->A34", "raw_techno": "Manual count", "osm_name": "Mount Street", "osm_type": "unclassified", "osm_lanes": 2.0, "osm_oneway": "True", "osm_distance": 8.9383718218643864, "osm_maxspeed": 32.1868, "osmid": 4721469.0 }, "geometry": { "type": "Point", "coordinates": [ -2.2452606, 53.478545 ] } },
{ "type": "Feature", "properties": { "AADT": 125435, "TR_AADT": 7873, "2W_AADT": 170, "raw_name": "M56", "raw_oneway": true, "raw_direction": "4-->3", "raw_techno": "Manual count", "osm_name": null, "osm_type": "motorway", "osm_lanes": 4.0, "osm_oneway": "True", "osm_distance": 2.3652996470030061, "osm_maxspeed": 112.6538, "osmid": 134426648.0 }, "geometry": { "type": "Point", "coordinates": [ -2.2756374, 53.385663 ] } },
{ "type": "Feature", "properties": { "AADT": 84767, "TR_AADT": 3277, "2W_AADT": 139, "raw_name": "M60", "raw_oneway": true, "raw_direction": "M60 spur-->LA Boundary", "raw_techno": "Estimated using previous year's AADF on this link", "osm_name": null, "osm_type": "motorway", "osm_lanes": 3.0, "osm_oneway": "True", "osm_distance": 4.2742308984393214, "osm_maxspeed": 112.6538, "osmid": 4972540.0 }, "geometry": { "type": "Point", "coordinates": [ -2.2461357, 53.403273 ] } },
{ "type": "Feature", "properties": { "AADT": 16298, "TR_AADT": 477, "2W_AADT": 164, "raw_name": "A6", "raw_oneway": true, "raw_direction": "A57-->A57(M)", "raw_techno": "Estimated using previous year's AADF on this link", "osm_name": "Downing Street", "osm_type": "trunk", "osm_lanes": 2.0, "osm_oneway": "True", "osm_distance": 1.2692953967741485, "osm_maxspeed": 48.2802, "osmid": 167121162.0 }, "geometry": { "type": "Point", "coordinates": [ -2.2282003, 53.472215 ] } },
{ "type": "Feature", "properties": { "AADT": 21993, "TR_AADT": 238, "2W_AADT": 71, "raw_name": "A560", "raw_oneway": true, "raw_direction": "LA Boundary-->M56", "raw_techno": "Estimated using previous year's AADF on this link", "osm_name": "Altrincham Road", "osm_type": "trunk", "osm_lanes": null, "osm_oneway": "True", "osm_distance": 10.325700904654697, "osm_maxspeed": 48.2802, "osmid": 300113827.0 }, "geometry": { "type": "Point", "coordinates": [ -2.3022677, 53.401041 ] } },
{ "type": "Feature", "properties": { "AADT": 38521, "TR_AADT": 667, "2W_AADT": 109, "raw_name": "A576", "raw_oneway": true, "raw_direction": "A6104-->M60", "raw_techno": "Manual count", "osm_name": "Middleton Road", "osm_type": "trunk", "osm_lanes": null, "osm_oneway": "True", "osm_distance": 5.5655272547796297, "osm_maxspeed": 64.3736, "osmid": 150205527.0 }, "geometry": { "type": "Point", "coordinates": [ -2.2428771, 53.536003 ] } },
{ "type": "Feature", "properties": { "AADT": 20161, "TR_AADT": 793, "2W_AADT": 106, "raw_name": "A635", "raw_oneway": true, "raw_direction": "A665-->A6010", "raw_techno": "Estimated using previous year's AADF on this link", "osm_name": "Ashton Old Road", "osm_type": "trunk", "osm_lanes": null, "osm_oneway": null, "osm_distance": 1.5142828784110376, "osm_maxspeed": 48.2802, "osmid": 24781758.0 }, "geometry": { "type": "Point", "coordinates": [ -2.212396, 53.475066 ] } },
{ "type": "Feature", "properties": { "AADT": 14466, "TR_AADT": 545, "2W_AADT": 38, "raw_name": "A663", "raw_oneway": true, "raw_direction": "LA Boundary-->LA Boundary", "raw_techno": "Estimated using previous year's AADF on this link", "osm_name": "Broadway", "osm_type": "trunk", "osm_lanes": null, "osm_oneway": "True", "osm_distance": 3.5262224045446691, "osm_maxspeed": 64.3736, "osmid": 929366868.0 }, "geometry": { "type": "Point", "coordinates": [ -2.1697656, 53.514558 ] } },
{ "type": "Feature", "properties": { "AADT": 11830, "TR_AADT": 175, "2W_AADT": 51, "raw_name": "A664", "raw_oneway": true, "raw_direction": "Addington St-->A6010", "raw_techno": "Estimated using previous year's AADF on this link", "osm_name": "Rochdale Road", "osm_type": "trunk", "osm_lanes": null, "osm_oneway": null, "osm_distance": 1.985300370326027, "osm_maxspeed": 48.2802, "osmid": 317875198.0 }, "geometry": { "type": "Point", "coordinates": [ -2.2216985, 53.496541 ] } },
{ "type": "Feature", "properties": { "AADT": 12111, "TR_AADT": 187, "2W_AADT": 86, "raw_name": "A665", "raw_oneway": true, "raw_direction": "A57-->A635", "raw_techno": "Manual count", "osm_name": "Devonshire Street North", "osm_type": "trunk", "osm_lanes": 2.0, "osm_oneway": null, "osm_distance": 12.809864571896693, "osm_maxspeed": 48.2802, "osmid": 4808622.0 }, "geometry": { "type": "Point", "coordinates": [ -2.2158332, 53.469541 ] } },
{ "type": "Feature", "properties": { "AADT": 8428, "TR_AADT": 49, "2W_AADT": 42, "raw_name": "A5184", "raw_oneway": true, "raw_direction": "A34-->A6", "raw_techno": "Estimated using previous year's AADF on this link", "osm_name": "Plymouth Grove", "osm_type": "primary", "osm_lanes": 2.0, "osm_oneway": "False", "osm_distance": 2.8380324737685507, "osm_maxspeed": 48.2802, "osmid": 457097115.0 }, "geometry": { "type": "Point", "coordinates": [ -2.2100643, 53.460563 ] } },
{ "type": "Feature", "properties": { "AADT": 11298, "TR_AADT": 148, "2W_AADT": 40, "raw_name": "A6010", "raw_oneway": true, "raw_direction": "A5103-->B5093", "raw_techno": "Estimated using previous year's AADF on this link", "osm_name": "Wilbraham Road", "osm_type": "trunk", "osm_lanes": null, "osm_oneway": "False", "osm_distance": 9.48486423366192, "osm_maxspeed": 64.3736, "osmid": 4270615.0 }, "geometry": { "type": "Point", "coordinates": [ -2.2272932, 53.443453 ] } },
{ "type": "Feature", "properties": { "AADT": 25787, "TR_AADT": 1017, "2W_AADT": 101, "raw_name": "A6010", "raw_oneway": true, "raw_direction": "A662-->A62", "raw_techno": "Manual count", "osm_name": "Alan Turing Way", "osm_type": "trunk", "osm_lanes": null, "osm_oneway": "True", "osm_distance": 6.7898679341779857, "osm_maxspeed": 48.2802, "osmid": 28036930.0 }, "geometry": { "type": "Point", "coordinates": [ -2.1991962, 53.487547 ] } },
{ "type": "Feature", "properties": { "AADT": 5597, "TR_AADT": 116, "2W_AADT": 48, "raw_name": "A34", "raw_oneway": true, "raw_direction": "A56-->LA Boundary", "raw_techno": "Estimated using previous year's AADF on this link", "osm_name": "Bridge Street", "osm_type": "primary", "osm_lanes": 1.0, "osm_oneway": "True", "osm_distance": 0.53290895973760266, "osm_maxspeed": 32.1868, "osmid": 122110077.0 }, "geometry": { "type": "Point", "coordinates": [ -2.2516061, 53.481426 ] } },
{ "type": "Feature", "properties": { "AADT": 7720, "TR_AADT": 250, "2W_AADT": 74, "raw_name": "A34", "raw_oneway": true, "raw_direction": "A56 Deansgate-->LA Boundary", "raw_techno": "Estimated using previous year's AADF on this link", "osm_name": "New Quay Street", "osm_type": "primary", "osm_lanes": null, "osm_oneway": null, "osm_distance": 6.9992817549790756, "osm_maxspeed": 32.1868, "osmid": 172858483.0 }, "geometry": { "type": "Point", "coordinates": [ -2.2553662, 53.480249 ] } },
{ "type": "Feature", "properties": { "AADT": 12622, "TR_AADT": 164, "2W_AADT": 49, "raw_name": "A665", "raw_oneway": true, "raw_direction": "A6010-->LA Boundary", "raw_techno": "Estimated using previous year's AADF on this link", "osm_name": "Cheetham Hill Road", "osm_type": "trunk", "osm_lanes": null, "osm_oneway": null, "osm_distance": 4.4072043877267202, "osm_maxspeed": 48.2802, "osmid": 1301797497.0 }, "geometry": { "type": "Point", "coordinates": [ -2.2427227, 53.509039 ] } },
{ "type": "Feature", "properties": { "AADT": 5110, "TR_AADT": 67, "2W_AADT": 35, "raw_name": "A56", "raw_oneway": true, "raw_direction": "A6-->A6", "raw_techno": "Estimated using previous year's AADF on this link", "osm_name": "Deansgate", "osm_type": "tertiary", "osm_lanes": null, "osm_oneway": null, "osm_distance": 5.1466505707562114, "osm_maxspeed": 32.1868, "osmid": 3697942.0 }, "geometry": { "type": "Point", "coordinates": [ -2.2458941, 53.483864 ] } },
{ "type": "Feature", "properties": { "AADT": 8718, "TR_AADT": 66, "2W_AADT": 23, "raw_name": "A6010", "raw_oneway": true, "raw_direction": "B5117-->A34", "raw_techno": "Estimated using previous year's AADF on this link", "osm_name": "Dickenson Road", "osm_type": "trunk", "osm_lanes": null, "osm_oneway": null, "osm_distance": 1.5627173785714559, "osm_maxspeed": 48.2802, "osmid": 285717962.0 }, "geometry": { "type": "Point", "coordinates": [ -2.2138234, 53.453338 ] } },
{ "type": "Feature", "properties": { "AADT": 2388, "TR_AADT": 40, "2W_AADT": 18, "raw_name": "A34", "raw_oneway": true, "raw_direction": "A5103-->Mosley St", "raw_techno": "Estimated using previous year's AADF on this link", "osm_name": "Princess Street", "osm_type": "primary", "osm_lanes": null, "osm_oneway": "False", "osm_distance": 0.19281355720456445, "osm_maxspeed": 32.1868, "osmid": 1029653570.0 }, "geometry": { "type": "Point", "coordinates": [ -2.2408876, 53.477942 ] } },
{ "type": "Feature", "properties": { "AADT": 19690, "TR_AADT": 205, "2W_AADT": 104, "raw_name": "A6", "raw_oneway": true, "raw_direction": "A6010-->A5184", "raw_techno": "Estimated using previous year's AADF on this link", "osm_name": "Stockport Road", "osm_type": "trunk", "osm_lanes": 2.0, "osm_oneway": "True", "osm_distance": 2.0110336289207562, "osm_maxspeed": 48.2802, "osmid": 457097645.0 }, "geometry": { "type": "Point", "coordinates": [ -2.2036577, 53.459379 ] } },
{ "type": "Feature", "properties": { "AADT": 57753, "TR_AADT": 5250, "2W_AADT": 78, "raw_name": "M56", "raw_oneway": true, "raw_direction": "3-->2", "raw_techno": "Estimated using previous year's AADF on this link", "osm_name": null, "osm_type": "motorway", "osm_lanes": 2.0, "osm_oneway": "True", "osm_distance": 2.9763132182932655, "osm_maxspeed": 112.6538, "osmid": 7965720.0 }, "geometry": { "type": "Point", "coordinates": [ -2.2661494, 53.397531 ] } },
{ "type": "Feature", "properties": { "AADT": 13346, "TR_AADT": 151, "2W_AADT": 79, "raw_name": "A6", "raw_oneway": true, "raw_direction": "A5184-->A665", "raw_techno": "Estimated using previous year's AADF on this link", "osm_name": "Stockport Road", "osm_type": "trunk", "osm_lanes": 2.0, "osm_oneway": null, "osm_distance": 3.4893898473802976, "osm_maxspeed": 48.2802, "osmid": 28118590.0 }, "geometry": { "type": "Point", "coordinates": [ -2.2123415, 53.464154 ] } },
{ "type": "Feature", "properties": { "AADT": 9413, "TR_AADT": 135, "2W_AADT": 23, "raw_name": "A5079", "raw_oneway": true, "raw_direction": "A34-->A6", "raw_techno": "Estimated using previous year's AADF on this link", "osm_name": "Slade Lane", "osm_type": "primary", "osm_lanes": 2.0, "osm_oneway": null, "osm_distance": 0.19507504208352627, "osm_maxspeed": 48.2802, "osmid": 154832905.0 }, "geometry": { "type": "Point", "coordinates": [ -2.1969196, 53.451597 ] } },
{ "type": "Feature", "properties": { "AADT": 4385, "TR_AADT": 43, "2W_AADT": 43, "raw_name": "A56", "raw_oneway": true, "raw_direction": "A6041-->A6042", "raw_techno": "Manual count", "osm_name": "Great Ducie Street", "osm_type": "primary", "osm_lanes": null, "osm_oneway": null, "osm_distance": 2.315137448534081, "osm_maxspeed": 48.2802, "osmid": 169850261.0 }, "geometry": { "type": "Point", "coordinates": [ -2.2451625, 53.487641 ] } },
{ "type": "Feature", "properties": { "AADT": 60590, "TR_AADT": 1032, "2W_AADT": 167, "raw_name": "A5103", "raw_oneway": true, "raw_direction": "A60/A5103(T)-->A5145", "raw_techno": "Manual count", "osm_name": "Princess Road", "osm_type": "trunk", "osm_lanes": 3.0, "osm_oneway": "True", "osm_distance": 5.993561609735556, "osm_maxspeed": 48.2802, "osmid": 145483363.0 }, "geometry": { "type": "Point", "coordinates": [ -2.2572835, 53.423618 ] } },
{ "type": "Feature", "properties": { "AADT": 11368, "TR_AADT": 182, "2W_AADT": 32, "raw_name": "A6010", "raw_oneway": true, "raw_direction": "A34-->Hamilton Rd", "raw_techno": "Estimated using previous year's AADF on this link", "osm_name": "Beresford Road", "osm_type": "residential", "osm_lanes": null, "osm_oneway": null, "osm_distance": 10.796605325122801, "osm_maxspeed": 32.1868, "osmid": 155366806.0 }, "geometry": { "type": "Point", "coordinates": [ -2.204767, 53.455179 ] } },
{ "type": "Feature", "properties": { "AADT": 16411, "TR_AADT": 381, "2W_AADT": 75, "raw_name": "A6010", "raw_oneway": true, "raw_direction": "A665-->A664", "raw_techno": "Estimated using previous year's AADF on this link", "osm_name": "Queens Road", "osm_type": "trunk", "osm_lanes": null, "osm_oneway": null, "osm_distance": 2.3751385838092092, "osm_maxspeed": 48.2802, "osmid": 4946734.0 }, "geometry": { "type": "Point", "coordinates": [ -2.227606, 53.501878 ] } },
{ "type": "Feature", "properties": { "AADT": 9993, "TR_AADT": 139, "2W_AADT": 45, "raw_name": "A6104", "raw_oneway": true, "raw_direction": "A576-->A664", "raw_techno": "Estimated using previous year's AADF on this link", "osm_name": "Victoria Avenue", "osm_type": "primary", "osm_lanes": 2.0, "osm_oneway": null, "osm_distance": 1.3465411272210686, "osm_maxspeed": 48.2802, "osmid": 1072298864.0 }, "geometry": { "type": "Point", "coordinates": [ -2.2277729, 53.532977 ] } },
{ "type": "Feature", "properties": { "AADT": 10502, "TR_AADT": 301, "2W_AADT": 19, "raw_name": "A662", "raw_oneway": true, "raw_direction": "A665-->A6010", "raw_techno": "Estimated using previous year's AADF on this link", "osm_name": "Ashton New Road", "osm_type": "primary", "osm_lanes": 2.0, "osm_oneway": null, "osm_distance": 0.98575924745146126, "osm_maxspeed": 48.2802, "osmid": 929125464.0 }, "geometry": { "type": "Point", "coordinates": [ -2.2124345, 53.48276 ] } },
{ "type": "Feature", "properties": { "AADT": 24460, "TR_AADT": 794, "2W_AADT": 89, "raw_name": "A6010", "raw_oneway": true, "raw_direction": "A635-->A662", "raw_techno": "Estimated using previous year's AADF on this link", "osm_name": "Alan Turing Way", "osm_type": "trunk", "osm_lanes": null, "osm_oneway": "True", "osm_distance": 3.6566329420547068, "osm_maxspeed": 48.2802, "osmid": 948850922.0 }, "geometry": { "type": "Point", "coordinates": [ -2.1935791, 53.478568 ] } },
{ "type": "Feature", "properties": { "AADT": 2408, "TR_AADT": 28, "2W_AADT": 81, "raw_name": "A34", "raw_oneway": true, "raw_direction": "A5103-->A5103", "raw_techno": "Manual count", "osm_name": "Oxford Street", "osm_type": "primary", "osm_lanes": 2.0, "osm_oneway": "False", "osm_distance": 3.7017411583716058, "osm_maxspeed": 32.1868, "osmid": 378959094.0 }, "geometry": { "type": "Point", "coordinates": [ -2.2429898, 53.47668 ] } },
{ "type": "Feature", "properties": { "AADT": 8440, "TR_AADT": 168, "2W_AADT": 46, "raw_name": "A56", "raw_oneway": true, "raw_direction": "A34 Quay St-->A34 Bridge St", "raw_techno": "Estimated using previous year's AADF on this link", "osm_name": "Deansgate", "osm_type": "tertiary", "osm_lanes": null, "osm_oneway": "True", "osm_distance": 5.7155699810777403, "osm_maxspeed": 32.1868, "osmid": 1220701555.0 }, "geometry": { "type": "Point", "coordinates": [ -2.2488817, 53.479364 ] } },
{ "type": "Feature", "properties": { "AADT": 1869, "TR_AADT": 64, "2W_AADT": 26, "raw_name": "A62", "raw_oneway": true, "raw_direction": "A6-->A6", "raw_techno": "Estimated using previous year's AADF on this link", "osm_name": "Newton Street", "osm_type": "primary", "osm_lanes": 2.0, "osm_oneway": null, "osm_distance": 3.0028166950389839, "osm_maxspeed": 32.1868, "osmid": 196371314.0 }, "geometry": { "type": "Point", "coordinates": [ -2.2337338, 53.481246 ] } },
{ "type": "Feature", "properties": { "AADT": 80760, "TR_AADT": 2915, "2W_AADT": 290, "raw_name": "A57M", "raw_oneway": true, "raw_direction": "A57-->A5103", "raw_techno": "Manual count", "osm_name": "Mancunian Way", "osm_type": "motorway", "osm_lanes": 2.0, "osm_oneway": "True", "osm_distance": 2.496292059719686, "osm_maxspeed": 48.2802, "osmid": 153673384.0 }, "geometry": { "type": "Point", "coordinates": [ -2.2530503, 53.470906 ] } },
{ "type": "Feature", "properties": { "AADT": 11502, "TR_AADT": 208, "2W_AADT": 78, "raw_name": "A6", "raw_oneway": true, "raw_direction": "A57(M)-->A6 Whitworth St", "raw_techno": "Estimated using previous year's AADF on this link", "osm_name": "London Road", "osm_type": "primary", "osm_lanes": 3.0, "osm_oneway": "True", "osm_distance": 5.1315134949190808, "osm_maxspeed": 32.1868, "osmid": 1071778474.0 }, "geometry": { "type": "Point", "coordinates": [ -2.2315391, 53.476702 ] } },
{ "type": "Feature", "properties": { "AADT": 29488, "TR_AADT": 379, "2W_AADT": 101, "raw_name": "A34", "raw_oneway": true, "raw_direction": "LA Boundary-->A5145", "raw_techno": "Estimated using previous year's AADF on this link", "osm_name": "Kingsway", "osm_type": "trunk", "osm_lanes": null, "osm_oneway": "True", "osm_distance": 5.1673584941424711, "osm_maxspeed": 64.3736, "osmid": 83127372.0 }, "geometry": { "type": "Point", "coordinates": [ -2.2218318, 53.40661 ] } },
{ "type": "Feature", "properties": { "AADT": 13365, "TR_AADT": 203, "2W_AADT": 106, "raw_name": "A56", "raw_oneway": true, "raw_direction": "A57(M)-->A6143", "raw_techno": "Estimated using previous year's AADF on this link", "osm_name": "Bridgewater Viaduct", "osm_type": "primary", "osm_lanes": 2.0, "osm_oneway": null, "osm_distance": 0.96012598437064745, "osm_maxspeed": 48.2802, "osmid": 243050858.0 }, "geometry": { "type": "Point", "coordinates": [ -2.2526165, 53.473963 ] } },
{ "type": "Feature", "properties": { "AADT": 19973, "TR_AADT": 322, "2W_AADT": 81, "raw_name": "A576", "raw_oneway": true, "raw_direction": "A665-->A6044", "raw_techno": "Estimated using previous year's AADF on this link", "osm_name": "Middleton Road", "osm_type": "trunk", "osm_lanes": null, "osm_oneway": "False", "osm_distance": 2.4137050421164266, "osm_maxspeed": 48.2802, "osmid": 143926118.0 }, "geometry": { "type": "Point", "coordinates": [ -2.24914, 53.523407 ] } },
{ "type": "Feature", "properties": { "AADT": 19602, "TR_AADT": 494, "2W_AADT": 66, "raw_name": "A664", "raw_oneway": true, "raw_direction": "A6010-->A6104", "raw_techno": "Estimated using previous year's AADF on this link", "osm_name": "Rochdale Road", "osm_type": "primary", "osm_lanes": null, "osm_oneway": null, "osm_distance": 4.0635157675228646, "osm_maxspeed": 48.2802, "osmid": 135778729.0 }, "geometry": { "type": "Point", "coordinates": [ -2.2156551, 53.523472 ] } },
{ "type": "Feature", "properties": { "AADT": 22130, "TR_AADT": 518, "2W_AADT": 116, "raw_name": "A665", "raw_oneway": true, "raw_direction": "A662-->A62", "raw_techno": "Manual count", "osm_name": "Great Ancoats Street", "osm_type": "trunk", "osm_lanes": 2.0, "osm_oneway": "True", "osm_distance": 1.580894763683514, "osm_maxspeed": 48.2802, "osmid": 28078731.0 }, "geometry": { "type": "Point", "coordinates": [ -2.227499, 53.481923 ] } },
{ "type": "Feature", "properties": { "AADT": 12043, "TR_AADT": 97, "2W_AADT": 48, "raw_name": "A6010", "raw_oneway": true, "raw_direction": "A5145-->A5103", "raw_techno": "Estimated using previous year's AADF on this link", "osm_name": "Wilbraham Road", "osm_type": "trunk", "osm_lanes": null, "osm_oneway": null, "osm_distance": 2.9529650703379557, "osm_maxspeed": 48.2802, "osmid": 4419607.0 }, "geometry": { "type": "Point", "coordinates": [ -2.2724523, 53.44246 ] } },
{ "type": "Feature", "properties": { "AADT": 6297, "TR_AADT": 82, "2W_AADT": 53, "raw_name": "A34", "raw_oneway": true, "raw_direction": "A57(M)-->A5103", "raw_techno": "Manual count", "osm_name": "Princess Street", "osm_type": "primary", "osm_lanes": null, "osm_oneway": "False", "osm_distance": 7.346110615076884, "osm_maxspeed": 32.1868, "osmid": 137908514.0 }, "geometry": { "type": "Point", "coordinates": [ -2.2364911, 53.473097 ] } },
{ "type": "Feature", "properties": { "AADT": 15494, "TR_AADT": 278, "2W_AADT": 154, "raw_name": "A34", "raw_oneway": true, "raw_direction": "A5184-->Grosvenor St", "raw_techno": "Estimated using previous year's AADF on this link", "osm_name": "Upper Brook Street", "osm_type": "trunk", "osm_lanes": null, "osm_oneway": null, "osm_distance": 3.8460071263615445, "osm_maxspeed": 48.2802, "osmid": 154979768.0 }, "geometry": { "type": "Point", "coordinates": [ -2.2327076, 53.469959 ] } },
{ "type": "Feature", "properties": { "AADT": 3046, "TR_AADT": 78, "2W_AADT": 56, "raw_name": "A6042", "raw_oneway": true, "raw_direction": "Fennel Street-->A665", "raw_techno": "Estimated using previous year's AADF on this link", "osm_name": "Corporation Street", "osm_type": "tertiary", "osm_lanes": 2.0, "osm_oneway": null, "osm_distance": 7.690530192568203, "osm_maxspeed": 32.1868, "osmid": 378559842.0 }, "geometry": { "type": "Point", "coordinates": [ -2.2410873, 53.486571 ] } },
{ "type": "Feature", "properties": { "AADT": 26135, "TR_AADT": 798, "2W_AADT": 89, "raw_name": "A560", "raw_oneway": true, "raw_direction": "M56-->M56", "raw_techno": "Estimated using previous year's AADF on this link", "osm_name": null, "osm_type": "trunk", "osm_lanes": null, "osm_oneway": null, "osm_distance": 5.8584706512847964, "osm_maxspeed": 48.2802, "osmid": 998804469.0 }, "geometry": { "type": "Point", "coordinates": [ -2.2634164, 53.398193 ] } },
{ "type": "Feature", "properties": { "AADT": 2368, "TR_AADT": 52, "2W_AADT": 47, "raw_name": "A34", "raw_oneway": true, "raw_direction": "A5103 Lower Mosley St-->A6042 Mount St", "raw_techno": "Estimated using previous year's AADF on this link", "osm_name": "Peter Street", "osm_type": "primary", "osm_lanes": null, "osm_oneway": "False", "osm_distance": 0.25952134381761827, "osm_maxspeed": 32.1868, "osmid": 141272197.0 }, "geometry": { "type": "Point", "coordinates": [ -2.2446529, 53.477665 ] } },
{ "type": "Feature", "properties": { "AADT": 8866, "TR_AADT": 135, "2W_AADT": 52, "raw_name": "A6", "raw_oneway": true, "raw_direction": "A665-->A57", "raw_techno": "Estimated using previous year's AADF on this link", "osm_name": "Stockport Road", "osm_type": "trunk", "osm_lanes": 2.0, "osm_oneway": null, "osm_distance": 1.9199115209004869, "osm_maxspeed": 48.2802, "osmid": 1342702171.0 }, "geometry": { "type": "Point", "coordinates": [ -2.21989, 53.467493 ] } },
{ "type": "Feature", "properties": { "AADT": 64673, "TR_AADT": 1651, "2W_AADT": 247, "raw_name": "A57", "raw_oneway": true, "raw_direction": "A6143-->A57(M)", "raw_techno": "Manual count", "osm_name": "Egerton Street", "osm_type": "trunk", "osm_lanes": 3.0, "osm_oneway": "True", "osm_distance": 3.963280762091391, "osm_maxspeed": 64.3736, "osmid": 122110075.0 }, "geometry": { "type": "Point", "coordinates": [ -2.2606013, 53.473946 ] } },
{ "type": "Feature", "properties": { "AADT": 12691, "TR_AADT": 497, "2W_AADT": 78, "raw_name": "A62", "raw_oneway": true, "raw_direction": "Addington St-->A6010", "raw_techno": "Manual count", "osm_name": "Oldham Road", "osm_type": "trunk", "osm_lanes": 2.0, "osm_oneway": "True", "osm_distance": 0.73879535989297385, "osm_maxspeed": 48.2802, "osmid": 1287413746.0 }, "geometry": { "type": "Point", "coordinates": [ -2.2275255, 53.486867 ] } },
{ "type": "Feature", "properties": { "AADT": 16104, "TR_AADT": 124, "2W_AADT": 125, "raw_name": "A34", "raw_oneway": true, "raw_direction": "A6010-->A5184", "raw_techno": "Estimated using previous year's AADF on this link", "osm_name": "Upper Brook Street", "osm_type": "trunk", "osm_lanes": null, "osm_oneway": null, "osm_distance": 1.4961542169625415, "osm_maxspeed": 48.2802, "osmid": 187325485.0 }, "geometry": { "type": "Point", "coordinates": [ -2.2216613, 53.460542 ] } },
{ "type": "Feature", "properties": { "AADT": 6698, "TR_AADT": 92, "2W_AADT": 64, "raw_name": "A5103", "raw_oneway": true, "raw_direction": "A34-->A34", "raw_techno": "Manual count", "osm_name": "Portland Street", "osm_type": "primary", "osm_lanes": null, "osm_oneway": null, "osm_distance": 3.5238241581006919, "osm_maxspeed": 32.1868, "osmid": 248215545.0 }, "geometry": { "type": "Point", "coordinates": [ -2.2416338, 53.476682 ] } },
{ "type": "Feature", "properties": { "AADT": 19349, "TR_AADT": 691, "2W_AADT": 80, "raw_name": "A57", "raw_oneway": true, "raw_direction": "A665-->A6010", "raw_techno": "Estimated using previous year's AADF on this link", "osm_name": "Hyde Road", "osm_type": "trunk", "osm_lanes": null, "osm_oneway": "True", "osm_distance": 0.7439692275532297, "osm_maxspeed": 48.2802, "osmid": 154533145.0 }, "geometry": { "type": "Point", "coordinates": [ -2.1980398, 53.465797 ] } },
{ "type": "Feature", "properties": { "AADT": 18079, "TR_AADT": 602, "2W_AADT": 98, "raw_name": "A635", "raw_oneway": true, "raw_direction": "A6010-->LA Boundary", "raw_techno": "Estimated using previous year's AADF on this link", "osm_name": "Ashton Old Road", "osm_type": "trunk", "osm_lanes": 2.0, "osm_oneway": null, "osm_distance": 0.73977544731328926, "osm_maxspeed": 48.2802, "osmid": 165548182.0 }, "geometry": { "type": "Point", "coordinates": [ -2.152122, 53.472605 ] } },
{ "type": "Feature", "properties": { "AADT": 6839, "TR_AADT": 129, "2W_AADT": 38, "raw_name": "A664", "raw_oneway": true, "raw_direction": "A6-->A665", "raw_techno": "Manual count", "osm_name": "Shudehill", "osm_type": "primary", "osm_lanes": null, "osm_oneway": null, "osm_distance": 2.3844237323086714, "osm_maxspeed": 32.1868, "osmid": 184507819.0 }, "geometry": { "type": "Point", "coordinates": [ -2.2380652, 53.485139 ] } },
{ "type": "Feature", "properties": { "AADT": 11009, "TR_AADT": 177, "2W_AADT": 69, "raw_name": "A665", "raw_oneway": true, "raw_direction": "A6-->A57", "raw_techno": "Estimated using previous year's AADF on this link", "osm_name": "Devonshire Street", "osm_type": "trunk", "osm_lanes": null, "osm_oneway": null, "osm_distance": 5.5199770754805586, "osm_maxspeed": 48.2802, "osmid": 718463.0 }, "geometry": { "type": "Point", "coordinates": [ -2.2165772, 53.467742 ] } },
{ "type": "Feature", "properties": { "AADT": 9833, "TR_AADT": 106, "2W_AADT": 50, "raw_name": "A6010", "raw_oneway": true, "raw_direction": "B5093-->B5117", "raw_techno": "Estimated using previous year's AADF on this link", "osm_name": "Wilmslow Road", "osm_type": "trunk", "osm_lanes": 4.0, "osm_oneway": null, "osm_distance": 16.27306241863711, "osm_maxspeed": 48.2802, "osmid": 155367908.0 }, "geometry": { "type": "Point", "coordinates": [ -2.2223373, 53.451552 ] } },
{ "type": "Feature", "properties": { "AADT": 14327, "TR_AADT": 141, "2W_AADT": 102, "raw_name": "A5103", "raw_oneway": true, "raw_direction": "A57(M)-->A34", "raw_techno": "Estimated using previous year's AADF on this link", "osm_name": "Albion Street", "osm_type": "primary", "osm_lanes": null, "osm_oneway": null, "osm_distance": 5.9669440166175773, "osm_maxspeed": 32.1868, "osmid": 448447730.0 }, "geometry": { "type": "Point", "coordinates": [ -2.2482474, 53.473972 ] } },
{ "type": "Feature", "properties": { "AADT": 15178, "TR_AADT": 222, "2W_AADT": 50, "raw_name": "A5145", "raw_oneway": true, "raw_direction": "A6010-->A5103", "raw_techno": "Estimated using previous year's AADF on this link", "osm_name": "Barlow Moor Road", "osm_type": "primary", "osm_lanes": 2.0, "osm_oneway": "False", "osm_distance": 4.1238655798187596, "osm_maxspeed": 48.2802, "osmid": 41075469.0 }, "geometry": { "type": "Point", "coordinates": [ -2.2723982, 53.434011 ] } },
{ "type": "Feature", "properties": { "AADT": 14609, "TR_AADT": 203, "2W_AADT": 101, "raw_name": "A6", "raw_oneway": true, "raw_direction": "A6010-->A6010", "raw_techno": "Estimated using previous year's AADF on this link", "osm_name": "Stockport Road", "osm_type": "trunk", "osm_lanes": 3.0, "osm_oneway": null, "osm_distance": 2.5391937388686574, "osm_maxspeed": 48.2802, "osmid": 457097643.0 }, "geometry": { "type": "Point", "coordinates": [ -2.2010124, 53.457343 ] } },
{ "type": "Feature", "properties": { "AADT": 2979, "TR_AADT": 50, "2W_AADT": 12, "raw_name": "A6", "raw_oneway": true, "raw_direction": "A62-->A664", "raw_techno": "Manual count", "osm_name": "Church Street", "osm_type": "primary", "osm_lanes": null, "osm_oneway": null, "osm_distance": 3.7776864151670604, "osm_maxspeed": 32.1868, "osmid": 196371317.0 }, "geometry": { "type": "Point", "coordinates": [ -2.2365452, 53.482805 ] } },
{ "type": "Feature", "properties": { "AADT": 2632, "TR_AADT": 41, "2W_AADT": 20, "raw_name": "A62", "raw_oneway": true, "raw_direction": "A6-->A6", "raw_techno": "Estimated from nearby links", "osm_name": "Lever Street", "osm_type": "tertiary", "osm_lanes": null, "osm_oneway": "True", "osm_distance": 0.63881862700031977, "osm_maxspeed": 32.1868, "osmid": 1050312118.0 }, "geometry": { "type": "Point", "coordinates": [ -2.2354824, 53.481369 ] } },
{ "type": "Feature", "properties": { "AADT": 2632, "TR_AADT": 41, "2W_AADT": 20, "raw_name": "A62", "raw_oneway": true, "raw_direction": "A6-->Great Ancoat St", "raw_techno": "Estimated using previous year's AADF on this link", "osm_name": "Lever Street", "osm_type": "tertiary", "osm_lanes": null, "osm_oneway": "True", "osm_distance": 1.6855574588386932, "osm_maxspeed": 32.1868, "osmid": 246129165.0 }, "geometry": { "type": "Point", "coordinates": [ -2.233231, 53.482991 ] } },
{ "type": "Feature", "properties": { "AADT": 37063, "TR_AADT": 775, "2W_AADT": 205, "raw_name": "A62", "raw_oneway": true, "raw_direction": "Lever St-->A665 Newton St", "raw_techno": "Estimated using previous year's AADF on this link", "osm_name": "Great Ancoats Street", "osm_type": "trunk", "osm_lanes": 2.0, "osm_oneway": "True", "osm_distance": 0.65800260930914112, "osm_maxspeed": 48.2802, "osmid": 255566161.0 }, "geometry": { "type": "Point", "coordinates": [ -2.2312769, 53.483894 ] } },
{ "type": "Feature", "properties": { "AADT": 1194, "TR_AADT": 15, "2W_AADT": 4, "raw_name": "A6", "raw_oneway": true, "raw_direction": "London Rd-->Portland St", "raw_techno": "Estimated using previous year's AADF on this link", "osm_name": "Aytoun Street", "osm_type": "primary", "osm_lanes": 2.0, "osm_oneway": "True", "osm_distance": 3.7660825899968708, "osm_maxspeed": 32.1868, "osmid": 1331942572.0 }, "geometry": { "type": "Point", "coordinates": [ -2.234263, 53.478854 ] } },
{ "type": "Feature", "properties": { "AADT": 6167, "TR_AADT": 136, "2W_AADT": 50, "raw_name": "A6", "raw_oneway": true, "raw_direction": "A62-->Whitworth St", "raw_techno": "Estimated using previous year's AADF on this link", "osm_name": "London Road", "osm_type": "primary", "osm_lanes": 2.0, "osm_oneway": "True", "osm_distance": 10.189171678072091, "osm_maxspeed": 32.1868, "osmid": 22961324.0 }, "geometry": { "type": "Point", "coordinates": [ -2.23245, 53.477959 ] } },
{ "type": "Feature", "properties": { "AADT": 1930, "TR_AADT": 52, "2W_AADT": 14, "raw_name": "A6", "raw_oneway": true, "raw_direction": "A62-->A62", "raw_techno": "Estimated using previous year's AADF on this link", "osm_name": "Dale Street", "osm_type": "primary", "osm_lanes": 2.0, "osm_oneway": "True", "osm_distance": 0.37796740117415384, "osm_maxspeed": 32.1868, "osmid": 196371315.0 }, "geometry": { "type": "Point", "coordinates": [ -2.2341282, 53.481731 ] } },
{ "type": "Feature", "properties": { "AADT": 51738, "TR_AADT": 1321, "2W_AADT": 198, "raw_name": "A57M", "raw_oneway": true, "raw_direction": "A57(M)-->A56", "raw_techno": "Estimated from nearby links", "osm_name": "Mancunian Way", "osm_type": "motorway", "osm_lanes": 2.0, "osm_oneway": "True", "osm_distance": 0.90211475516031148, "osm_maxspeed": 48.2802, "osmid": 998731423.0 }, "geometry": { "type": "Point", "coordinates": [ -2.2587858, 53.472692 ] } },
{ "type": "Feature", "properties": { "AADT": 66576, "TR_AADT": 3378, "2W_AADT": 164, "raw_name": "M56", "raw_oneway": true, "raw_direction": "A560-->A5103", "raw_techno": "Estimated from nearby links", "osm_name": null, "osm_type": "motorway", "osm_lanes": 3.0, "osm_oneway": "True", "osm_distance": 9.9393852982552104, "osm_maxspeed": 112.6538, "osmid": 1083072619.0 }, "geometry": { "type": "Point", "coordinates": [ -2.2686778, 53.400222 ] } },
{ "type": "Feature", "properties": { "AADT": 25554, "TR_AADT": 1170, "2W_AADT": 76, "raw_name": "A57M", "raw_oneway": true, "raw_direction": "A6-->A635", "raw_techno": "Estimated from nearby links", "osm_name": "Mancunian Way", "osm_type": "motorway", "osm_lanes": 2.0, "osm_oneway": "True", "osm_distance": 1.9940720640740002, "osm_maxspeed": 48.2802, "osmid": 1238153824.0 }, "geometry": { "type": "Point", "coordinates": [ -2.2274557, 53.473834 ] } },
{ "type": "Feature", "properties": { "AADT": 31942, "TR_AADT": 1462, "2W_AADT": 95, "raw_name": "A635", "raw_oneway": true, "raw_direction": "A57(M)-->Fairfield St", "raw_techno": "Estimated using previous year's AADF on this link", "osm_name": "Hoyle Street", "osm_type": "unclassified", "osm_lanes": null, "osm_oneway": null, "osm_distance": 6.371090911322157, "osm_maxspeed": 32.1868, "osmid": 243211510.0 }, "geometry": { "type": "Point", "coordinates": [ -2.2230852, 53.473573 ] } },
{ "type": "Feature", "properties": { "AADT": 24154, "TR_AADT": 704, "2W_AADT": 64, "raw_name": "A538", "raw_oneway": true, "raw_direction": "M56-->LA Boundary", "raw_techno": "Estimated using previous year's AADF on this link", "osm_name": "Wilmslow Road", "osm_type": "trunk", "osm_lanes": 2.0, "osm_oneway": "True", "osm_distance": 0.042614907173587305, "osm_maxspeed": 64.3736, "osmid": 539923305.0 }, "geometry": { "type": "Point", "coordinates": [ -2.2903967, 53.358464 ] } },
{ "type": "Feature", "properties": { "AADT": 109474, "TR_AADT": 10263, "2W_AADT": 137, "raw_name": "M56", "raw_oneway": true, "raw_direction": "LA Boundary-->6", "raw_techno": "Estimated using previous year's AADF on this link", "osm_name": null, "osm_type": "motorway", "osm_lanes": 3.0, "osm_oneway": "True", "osm_distance": 3.2978114516039563, "osm_maxspeed": 112.6538, "osmid": 230603039.0 }, "geometry": { "type": "Point", "coordinates": [ -2.3019703, 53.359065 ] } },
{ "type": "Feature", "properties": { "AADT": 3895, "TR_AADT": 122, "2W_AADT": 24, "raw_name": "A560", "raw_oneway": true, "raw_direction": "M56-->LA Boundary", "raw_techno": "Estimated using previous year's AADF on this link", "osm_name": "Altrincham Road", "osm_type": "primary", "osm_lanes": null, "osm_oneway": null, "osm_distance": 1.060815434302212, "osm_maxspeed": 48.2802, "osmid": 143486985.0 }, "geometry": { "type": "Point", "coordinates": [ -2.2497308, 53.393072 ] } },
{ "type": "Feature", "properties": { "AADT": 17648, "TR_AADT": 348, "2W_AADT": 70, "raw_name": "A5145", "raw_oneway": true, "raw_direction": "A34-->LA Boundary", "raw_techno": "Estimated using previous year's AADF on this link", "osm_name": "Parrs Wood Lane", "osm_type": "primary", "osm_lanes": 2.0, "osm_oneway": null, "osm_distance": 9.5469178971264856, "osm_maxspeed": 48.2802, "osmid": 554305421.0 }, "geometry": { "type": "Point", "coordinates": [ -2.2173721, 53.411077 ] } },
{ "type": "Feature", "properties": { "AADT": 25674, "TR_AADT": 506, "2W_AADT": 55, "raw_name": "A6", "raw_oneway": true, "raw_direction": "LA Boundary-->A5079", "raw_techno": "Estimated using previous year's AADF on this link", "osm_name": "Stockport Road", "osm_type": "trunk", "osm_lanes": 2.0, "osm_oneway": null, "osm_distance": 2.6554000768879171, "osm_maxspeed": 48.2802, "osmid": 165547064.0 }, "geometry": { "type": "Point", "coordinates": [ -2.190555, 53.442619 ] } },
{ "type": "Feature", "properties": { "AADT": 11280, "TR_AADT": 222, "2W_AADT": 36, "raw_name": "A662", "raw_oneway": true, "raw_direction": "A6010-->LA Boundary", "raw_techno": "Dependent on a neighbouring counted link", "osm_name": "Ashton New Road", "osm_type": "primary", "osm_lanes": null, "osm_oneway": null, "osm_distance": 1.6512292553121444, "osm_maxspeed": 48.2802, "osmid": 929144482.0 }, "geometry": { "type": "Point", "coordinates": [ -2.1822974, 53.48299 ] } },
{ "type": "Feature", "properties": { "AADT": 23912, "TR_AADT": 715, "2W_AADT": 169, "raw_name": "A6042", "raw_oneway": true, "raw_direction": "LA Boundary-->A56", "raw_techno": "Estimated using previous year's AADF on this link", "osm_name": "Trinity Way", "osm_type": "trunk", "osm_lanes": 2.0, "osm_oneway": "True", "osm_distance": 1.9137313132923459, "osm_maxspeed": 48.2802, "osmid": 386519552.0 }, "geometry": { "type": "Point", "coordinates": [ -2.2471854, 53.48823 ] } },
{ "type": "Feature", "properties": { "AADT": 5616, "TR_AADT": 56, "2W_AADT": 36, "raw_name": "A6", "raw_oneway": true, "raw_direction": "LA Boundary-->A56", "raw_techno": "Estimated using previous year's AADF on this link", "osm_name": "Blackfriars Street", "osm_type": "primary", "osm_lanes": null, "osm_oneway": null, "osm_distance": 2.797445378820441, "osm_maxspeed": 32.1868, "osmid": 23112231.0 }, "geometry": { "type": "Point", "coordinates": [ -2.2470378, 53.483592 ] } },
{ "type": "Feature", "properties": { "AADT": 38836, "TR_AADT": 1550, "2W_AADT": 140, "raw_name": "A57", "raw_oneway": true, "raw_direction": "LA Boundary-->A6143", "raw_techno": "Estimated using previous year's AADF on this link", "osm_name": "Regent Road", "osm_type": "trunk", "osm_lanes": 3.0, "osm_oneway": "True", "osm_distance": 2.1731613488757322, "osm_maxspeed": 64.3736, "osmid": 122110110.0 }, "geometry": { "type": "Point", "coordinates": [ -2.2625093, 53.475515 ] } },
{ "type": "Feature", "properties": { "AADT": 16089, "TR_AADT": 138, "2W_AADT": 38, "raw_name": "A5145", "raw_oneway": true, "raw_direction": "LA Boundary-->A6010", "raw_techno": "Estimated using previous year's AADF on this link", "osm_name": "Edge Lane", "osm_type": "trunk", "osm_lanes": 2.0, "osm_oneway": null, "osm_distance": 0.17858202893355726, "osm_maxspeed": 48.2802, "osmid": 4755189.0 }, "geometry": { "type": "Point", "coordinates": [ -2.2907644, 53.44327 ] } },
{ "type": "Feature", "properties": { "AADT": 104353, "TR_AADT": 6025, "2W_AADT": 148, "raw_name": "M60", "raw_oneway": true, "raw_direction": "LA Boundary-->M60 spur", "raw_techno": "Dependent on a neighbouring counted link", "osm_name": null, "osm_type": "motorway", "osm_lanes": 4.0, "osm_oneway": "True", "osm_distance": 2.0756441604094147, "osm_maxspeed": 112.6538, "osmid": 4045294.0 }, "geometry": { "type": "Point", "coordinates": [ -2.2760334, 53.414317 ] } },
{ "type": "Feature", "properties": { "AADT": 16644, "TR_AADT": 844, "2W_AADT": 41, "raw_name": "A5103", "raw_oneway": true, "raw_direction": "A560-->M56", "raw_techno": "Estimated from nearby links", "osm_name": null, "osm_type": "motorway", "osm_lanes": 3.0, "osm_oneway": "True", "osm_distance": 15.750889765742613, "osm_maxspeed": 112.6538, "osmid": 1083072619.0 }, "geometry": { "type": "Point", "coordinates": [ -2.2692664, 53.400535 ] } },
{ "type": "Feature", "properties": { "AADT": 12935, "TR_AADT": 330, "2W_AADT": 49, "raw_name": "A57", "raw_oneway": true, "raw_direction": "A57M-->A56", "raw_techno": "Estimated from nearby links", "osm_name": "Mancunian Way", "osm_type": "motorway", "osm_lanes": 2.0, "osm_oneway": "True", "osm_distance": 0.42370539766815307, "osm_maxspeed": 48.2802, "osmid": 998731423.0 }, "geometry": { "type": "Point", "coordinates": [ -2.2588168, 53.472835 ] } },
{ "type": "Feature", "properties": { "AADT": 6388, "TR_AADT": 292, "2W_AADT": 19, "raw_name": "A635", "raw_oneway": true, "raw_direction": "A6-->A57M", "raw_techno": "Estimated from nearby links", "osm_name": null, "osm_type": "trunk_link", "osm_lanes": 1.0, "osm_oneway": "True", "osm_distance": 0.16058166052248141, "osm_maxspeed": 48.2802, "osmid": 24716807.0 }, "geometry": { "type": "Point", "coordinates": [ -2.2276359, 53.473726 ] } },
{ "type": "Feature", "properties": { "AADT": 2865, "TR_AADT": 74, "2W_AADT": 38, "raw_name": "A6042", "raw_oneway": true, "raw_direction": "A34-->St Ann Street", "raw_techno": "Estimated using previous year's AADF on this link", "osm_name": "Cross Street", "osm_type": "tertiary", "osm_lanes": 2.0, "osm_oneway": "True", "osm_distance": 7.4022585637018405, "osm_maxspeed": 32.1868, "osmid": 1334549231.0 }, "geometry": { "type": "Point", "coordinates": [ -2.2449729, 53.4809 ] } },
{ "type": "Feature", "properties": { "AADT": 49563, "TR_AADT": 3954, "2W_AADT": 120, "raw_name": "A5103", "raw_oneway": true, "raw_direction": "M60 spur-->M60 spur/A5103", "raw_techno": "Estimated using previous year's AADF on this link", "osm_name": "Princess Parkway", "osm_type": "trunk", "osm_lanes": 2.0, "osm_oneway": "True", "osm_distance": 8.372753612212783, "osm_maxspeed": 64.3736, "osmid": 4251242.0 }, "geometry": { "type": "Point", "coordinates": [ -2.2654943, 53.413083 ] } },
{ "type": "Feature", "properties": { "AADT": 50860, "TR_AADT": 1966, "2W_AADT": 83, "raw_name": "M60", "raw_oneway": true, "raw_direction": "M60 spur-->M60 spur", "raw_techno": "Estimated using previous year's AADF on this link", "osm_name": null, "osm_type": "motorway", "osm_lanes": 3.0, "osm_oneway": "True", "osm_distance": 2.8534508104354246, "osm_maxspeed": 112.6538, "osmid": 4397549.0 }, "geometry": { "type": "Point", "coordinates": [ -2.2685088, 53.413975 ] } },
{ "type": "Feature", "properties": { "AADT": 21192, "TR_AADT": 819, "2W_AADT": 35, "raw_name": "M60", "raw_oneway": true, "raw_direction": "M60 main route-->A5103", "raw_techno": "Estimated using previous year's AADF on this link", "osm_name": null, "osm_type": "motorway_link", "osm_lanes": 1.0, "osm_oneway": "True", "osm_distance": 9.5800473635469707, "osm_maxspeed": 112.6538, "osmid": 82565335.0 }, "geometry": { "type": "Point", "coordinates": [ -2.2609866, 53.413992 ] } },
{ "type": "Feature", "properties": { "AADT": 17906, "TR_AADT": 785, "2W_AADT": 101, "raw_name": "A635", "raw_oneway": true, "raw_direction": "Mancunian Way-->Chancellor Lane", "raw_techno": "Estimated using previous year's AADF on this link", "osm_name": "Fairfield Street", "osm_type": "trunk", "osm_lanes": 2.0, "osm_oneway": "True", "osm_distance": 1.4482953923548394, "osm_maxspeed": 48.2802, "osmid": 86326110.0 }, "geometry": { "type": "Point", "coordinates": [ -2.2176704, 53.47529 ] } },
{ "type": "Feature", "properties": { "AADT": 17906, "TR_AADT": 785, "2W_AADT": 101, "raw_name": "A635", "raw_oneway": true, "raw_direction": "Ashton Old Road-->Pin Mill Brow", "raw_techno": "Estimated using previous year's AADF on this link", "osm_name": "Mancunian Way", "osm_type": "trunk", "osm_lanes": 2.0, "osm_oneway": "True", "osm_distance": 1.1004718657293222, "osm_maxspeed": 48.2802, "osmid": 24717311.0 }, "geometry": { "type": "Point", "coordinates": [ -2.2184274, 53.476008 ] } },
{ "type": "Feature", "properties": { "AADT": 17906, "TR_AADT": 785, "2W_AADT": 101, "raw_name": "A665", "raw_oneway": true, "raw_direction": "Ashton Old Road-->Mancunian Way", "raw_techno": "Estimated using previous year's AADF on this link", "osm_name": "Pin Mill Brow", "osm_type": "trunk", "osm_lanes": 2.0, "osm_oneway": "True", "osm_distance": 2.8927835601192151, "osm_maxspeed": 48.2802, "osmid": 243050857.0 }, "geometry": { "type": "Point", "coordinates": [ -2.2173718, 53.47583 ] } },
{ "type": "Feature", "properties": { "AADT": 7747, "TR_AADT": 139, "2W_AADT": 77, "raw_name": "A34", "raw_oneway": true, "raw_direction": "Grosvenor St-->A57 (M) mid-junction", "raw_techno": "Estimated from nearby links", "osm_name": "Brook Street", "osm_type": "trunk", "osm_lanes": 1.0, "osm_oneway": "True", "osm_distance": 2.5423344237285286, "osm_maxspeed": 48.2802, "osmid": 185995850.0 }, "geometry": { "type": "Point", "coordinates": [ -2.2349771, 53.471752 ] } },
{ "type": "Feature", "properties": { "AADT": 71676, "TR_AADT": 2537, "2W_AADT": 239, "raw_name": "A57M", "raw_oneway": true, "raw_direction": "A5103-->A34", "raw_techno": "Estimated using previous year's AADF on this link", "osm_name": "Mancunian Way", "osm_type": "motorway", "osm_lanes": 3.0, "osm_oneway": "True", "osm_distance": 4.0357755896194201, "osm_maxspeed": 80.467, "osmid": 121174584.0 }, "geometry": { "type": "Point", "coordinates": [ -2.2379896, 53.471656 ] } },
{ "type": "Feature", "properties": { "AADT": 57207, "TR_AADT": 1993, "2W_AADT": 162, "raw_name": "A57M", "raw_oneway": true, "raw_direction": "Princess Rd-->Mancunian Way roundabout", "raw_techno": "Manual count", "osm_name": "Mancunian Way", "osm_type": "motorway", "osm_lanes": 3.0, "osm_oneway": "True", "osm_distance": 0.87615426854910816, "osm_maxspeed": 48.2802, "osmid": 153673663.0 }, "geometry": { "type": "Point", "coordinates": [ -2.2440079, 53.470296 ] } },
{ "type": "Feature", "properties": { "AADT": 14852, "TR_AADT": 565, "2W_AADT": 56, "raw_name": "A5103", "raw_oneway": true, "raw_direction": "Princess Rd-->Mancunian Way roundabout", "raw_techno": "Estimated using previous year's AADF on this link", "osm_name": "Mancunian Way", "osm_type": "trunk", "osm_lanes": 2.0, "osm_oneway": "True", "osm_distance": 1.0097028653041826, "osm_maxspeed": 48.2802, "osmid": 808525248.0 }, "geometry": { "type": "Point", "coordinates": [ -2.2440233, 53.470359 ] } },
{ "type": "Feature", "properties": { "AADT": 14103, "TR_AADT": 330, "2W_AADT": 90, "raw_name": "A665", "raw_oneway": true, "raw_direction": "Oldham Rd-->Rochdale Rd", "raw_techno": "Estimated using previous year's AADF on this link", "osm_name": "Swan Street", "osm_type": "trunk", "osm_lanes": 3.0, "osm_oneway": "True", "osm_distance": 2.804182692742573, "osm_maxspeed": 48.2802, "osmid": 154689121.0 }, "geometry": { "type": "Point", "coordinates": [ -2.2342992, 53.485416 ] } },
{ "type": "Feature", "properties": { "AADT": 11787, "TR_AADT": 266, "2W_AADT": 67, "raw_name": "A665", "raw_oneway": true, "raw_direction": "Rochdale Rd-->Oldham Rd", "raw_techno": "Estimated using previous year's AADF on this link", "osm_name": "Addington Street", "osm_type": "trunk", "osm_lanes": 2.0, "osm_oneway": "True", "osm_distance": 0.84327472555323846, "osm_maxspeed": 48.2802, "osmid": 163382983.0 }, "geometry": { "type": "Point", "coordinates": [ -2.2335502, 53.486226 ] } },
{ "type": "Feature", "properties": { "AADT": 8819, "TR_AADT": 216, "2W_AADT": 44, "raw_name": "A664", "raw_oneway": true, "raw_direction": "Swan St-->Addington St", "raw_techno": "Estimated using previous year's AADF on this link", "osm_name": "Rochdale Road", "osm_type": "trunk", "osm_lanes": 3.0, "osm_oneway": "True", "osm_distance": 6.2869981896098057, "osm_maxspeed": 48.2802, "osmid": 1155828233.0 }, "geometry": { "type": "Point", "coordinates": [ -2.2355113, 53.486582 ] } },
{ "type": "Feature", "properties": { "AADT": 24435, "TR_AADT": 681, "2W_AADT": 134, "raw_name": "A62", "raw_oneway": true, "raw_direction": "Swan St-->Addington St", "raw_techno": "Estimated using previous year's AADF on this link", "osm_name": "Oldham Road", "osm_type": "trunk", "osm_lanes": null, "osm_oneway": "True", "osm_distance": 2.2292691441502006, "osm_maxspeed": 48.2802, "osmid": 341995776.0 }, "geometry": { "type": "Point", "coordinates": [ -2.2320378, 53.48524 ] } },
{ "type": "Feature", "properties": { "AADT": 2207, "TR_AADT": 16, "2W_AADT": 11, "raw_name": "A6", "raw_oneway": true, "raw_direction": "A6 Aytoun St-->A6 Piccadilly", "raw_techno": "Manual count", "osm_name": "Portland Street", "osm_type": "primary", "osm_lanes": null, "osm_oneway": null, "osm_distance": 10.700272925001379, "osm_maxspeed": 32.1868, "osmid": 249112983.0 }, "geometry": { "type": "Point", "coordinates": [ -2.2353262, 53.48038 ] } },
{ "type": "Feature", "properties": { "AADT": 37063, "TR_AADT": 775, "2W_AADT": 205, "raw_name": "A62", "raw_oneway": true, "raw_direction": "A62 Lever St-->A665 Swan St", "raw_techno": "Estimated using previous year's AADF on this link", "osm_name": "Great Ancoats Street", "osm_type": "trunk", "osm_lanes": 2.0, "osm_oneway": "True", "osm_distance": 3.598856357464252, "osm_maxspeed": 48.2802, "osmid": 1093227465.0 }, "geometry": { "type": "Point", "coordinates": [ -2.2320324, 53.484252 ] } },
{ "type": "Feature", "properties": { "AADT": 26811, "TR_AADT": 781, "2W_AADT": 71, "raw_name": "A538", "raw_oneway": true, "raw_direction": "M56 mid-junction-->M56 spur roundabout", "raw_techno": "Estimated from nearby links", "osm_name": "Wilmslow Road", "osm_type": "trunk", "osm_lanes": null, "osm_oneway": "True", "osm_distance": 1.2510514827709767, "osm_maxspeed": 64.3736, "osmid": 4083148.0 }, "geometry": { "type": "Point", "coordinates": [ -2.2952314, 53.362317 ] } },
{ "type": "Feature", "properties": { "AADT": 59966, "TR_AADT": 1447, "2W_AADT": 82, "raw_name": "M56", "raw_oneway": true, "raw_direction": "5-->Thorley Lane bridge", "raw_techno": "Estimated using previous year's AADF on this link", "osm_name": null, "osm_type": "motorway", "osm_lanes": 3.0, "osm_oneway": "True", "osm_distance": 16.642653246839267, "osm_maxspeed": 112.6538, "osmid": 143257838.0 }, "geometry": { "type": "Point", "coordinates": [ -2.2820683, 53.371428 ] } },
{ "type": "Feature", "properties": { "AADT": 34176, "TR_AADT": 766, "2W_AADT": 176, "raw_name": "A5103", "raw_oneway": true, "raw_direction": "A6010-->A5067", "raw_techno": "Estimated using previous year's AADF on this link", "osm_name": "Princess Road", "osm_type": "trunk", "osm_lanes": 2.0, "osm_oneway": "True", "osm_distance": 6.7811960764837051, "osm_maxspeed": 48.2802, "osmid": 628003084.0 }, "geometry": { "type": "Point", "coordinates": [ -2.2449541, 53.451508 ] } },
{ "type": "Feature", "properties": { "AADT": 34533, "TR_AADT": 741, "2W_AADT": 168, "raw_name": "A5103", "raw_oneway": true, "raw_direction": "A57(M)-->A5067", "raw_techno": "Estimated using previous year's AADF on this link", "osm_name": "Princess Road", "osm_type": "trunk", "osm_lanes": 2.0, "osm_oneway": "True", "osm_distance": 15.055630486665789, "osm_maxspeed": 48.2802, "osmid": 154830384.0 }, "geometry": { "type": "Point", "coordinates": [ -2.2462592, 53.468853 ] } },
{ "type": "Feature", "properties": { "AADT": 10034, "TR_AADT": 114, "2W_AADT": 39, "raw_name": "A5067", "raw_oneway": true, "raw_direction": "A5067-->A56", "raw_techno": "Estimated using previous year's AADF on this link", "osm_name": "Ribston Street", "osm_type": "residential", "osm_lanes": null, "osm_oneway": null, "osm_distance": 6.6325671584262116, "osm_maxspeed": 32.1868, "osmid": 31509105.0 }, "geometry": { "type": "Point", "coordinates": [ -2.2575446, 53.466762 ] } },
{ "type": "Feature", "properties": { "AADT": 9147, "TR_AADT": 86, "2W_AADT": 58, "raw_name": "A5067", "raw_oneway": true, "raw_direction": "A5067-->A5103", "raw_techno": "Estimated using previous year's AADF on this link", "osm_name": "Stretford Road", "osm_type": "primary", "osm_lanes": 2.0, "osm_oneway": null, "osm_distance": 2.0802883561927477, "osm_maxspeed": 48.2802, "osmid": 4353084.0 }, "geometry": { "type": "Point", "coordinates": [ -2.2521219, 53.466773 ] } },
{ "type": "Feature", "properties": { "AADT": 10994, "TR_AADT": 227, "2W_AADT": 74, "raw_name": "A5067", "raw_oneway": true, "raw_direction": "LA Boundary-->A5067", "raw_techno": "Estimated using previous year's AADF on this link", "osm_name": "Stretford Road", "osm_type": "primary", "osm_lanes": null, "osm_oneway": null, "osm_distance": 4.7068362539471389, "osm_maxspeed": 48.2802, "osmid": 667017444.0 }, "geometry": { "type": "Point", "coordinates": [ -2.2585914, 53.465501 ] } },
{ "type": "Feature", "properties": { "AADT": 5560, "TR_AADT": 62, "2W_AADT": 30, "raw_name": "A5067", "raw_oneway": true, "raw_direction": "Princess Road-->Mancunian Way", "raw_techno": "Estimated using previous year's AADF on this link", "osm_name": "Cavendish Street", "osm_type": "primary", "osm_lanes": 2.0, "osm_oneway": null, "osm_distance": 2.0066215038979984, "osm_maxspeed": 32.1868, "osmid": 4353081.0 }, "geometry": { "type": "Point", "coordinates": [ -2.2417395, 53.468772 ] } },
{ "type": "Feature", "properties": { "AADT": 12218, "TR_AADT": 295, "2W_AADT": 60, "raw_name": "A665", "raw_oneway": true, "raw_direction": "A664-->A6042", "raw_techno": "Manual count", "osm_name": "Miller Street", "osm_type": "trunk", "osm_lanes": 2.0, "osm_oneway": "True", "osm_distance": 0.18774694387202592, "osm_maxspeed": 48.2802, "osmid": 1100786748.0 }, "geometry": { "type": "Point", "coordinates": [ -2.2380758, 53.487026 ] } },
{ "type": "Feature", "properties": { "AADT": 53993, "TR_AADT": 2412, "2W_AADT": 64, "raw_name": "M56", "raw_oneway": true, "raw_direction": "Thornley Lane Bridge-->Outwood Lane roundabout", "raw_techno": "Manual count", "osm_name": null, "osm_type": "motorway", "osm_lanes": 2.0, "osm_oneway": "True", "osm_distance": 6.3583016799193697, "osm_maxspeed": 112.6538, "osmid": 175451315.0 }, "geometry": { "type": "Point", "coordinates": [ -2.2802571, 53.370263 ] } },
{ "type": "Feature", "properties": { "AADT": 1846, "TR_AADT": 33, "2W_AADT": 11, "raw_name": "A34", "raw_oneway": true, "raw_direction": "Mosley St-->A6042", "raw_techno": "Estimated using previous year's AADF on this link", "osm_name": "Princess Street", "osm_type": "primary", "osm_lanes": 2.0, "osm_oneway": null, "osm_distance": 1.0955713350450558, "osm_maxspeed": 32.1868, "osmid": 548694371.0 }, "geometry": { "type": "Point", "coordinates": [ -2.2440616, 53.479644 ] } },
{ "type": "Feature", "properties": { "AADT": 21087, "TR_AADT": 1478, "2W_AADT": 119, "raw_name": "A555", "raw_oneway": true, "raw_direction": "LA Boundary with Stockport and Manchester-->Junction with Outwood Lane and Ringway Road West", "raw_techno": "Estimated using previous year's AADF on this link", "osm_name": "Manchester Airport Eastern Link Road", "osm_type": "trunk", "osm_lanes": null, "osm_oneway": "True", "osm_distance": 3.5343353537405022, "osm_maxspeed": 64.3736, "osmid": 331520040.0 }, "geometry": { "type": "Point", "coordinates": [ -2.2526446, 53.364572 ] } },
{ "type": "Feature", "properties": { "AADT": 57394, "TR_AADT": 3314, "2W_AADT": 82, "raw_name": "M60", "raw_oneway": true, "raw_direction": "M60 main route-->A5103", "raw_techno": "Estimated from nearby links", "osm_name": null, "osm_type": "service", "osm_lanes": null, "osm_oneway": null, "osm_distance": 0.21905835253259562, "osm_maxspeed": null, "osmid": 32149324.0 }, "geometry": { "type": "Point", "coordinates": [ -2.2685043, 53.413256 ] } },
{ "type": "Feature", "properties": { "AADT": 26141, "TR_AADT": 771, "2W_AADT": 174, "raw_name": "A6042", "raw_oneway": true, "raw_direction": "A6-->A57", "raw_techno": "Estimated using previous year's AADF on this link", "osm_name": "Trinity Way", "osm_type": "trunk", "osm_lanes": 2.0, "osm_oneway": "True", "osm_distance": 0.20386991019193088, "osm_maxspeed": 48.2802, "osmid": 122110115.0 }, "geometry": { "type": "Point", "coordinates": [ -2.2612161, 53.475922 ] } },
{ "type": "Feature", "properties": { "AADT": 25607, "TR_AADT": 769, "2W_AADT": 70, "raw_name": "A6010", "raw_oneway": true, "raw_direction": "A57-->A635", "raw_techno": "Estimated using previous year's AADF on this link", "osm_name": "Pottery Lane", "osm_type": "trunk", "osm_lanes": null, "osm_oneway": "True", "osm_distance": 3.6281674762651241, "osm_maxspeed": 48.2802, "osmid": 956165511.0 }, "geometry": { "type": "Point", "coordinates": [ -2.1942922, 53.469758 ] } },
{ "type": "Feature", "properties": { "AADT": 15619, "TR_AADT": 243, "2W_AADT": 38, "raw_name": "A6010", "raw_oneway": true, "raw_direction": "A6-->A57", "raw_techno": "Estimated using previous year's AADF on this link", "osm_name": "Pottery Lane", "osm_type": "trunk", "osm_lanes": null, "osm_oneway": null, "osm_distance": 3.6078968092855255, "osm_maxspeed": 48.2802, "osmid": 79387584.0 }, "geometry": { "type": "Point", "coordinates": [ -2.1978649, 53.460584 ] } },
{ "type": "Feature", "properties": { "AADT": 7536, "TR_AADT": 51, "2W_AADT": 15, "raw_name": "A6010", "raw_oneway": true, "raw_direction": "A6010 St Johns Rd-->A6 Stockport Rd", "raw_techno": "Estimated using previous year's AADF on this link", "osm_name": "Dickenson Road", "osm_type": "trunk", "osm_lanes": null, "osm_oneway": null, "osm_distance": 1.4299017598907682, "osm_maxspeed": 48.2802, "osmid": 1006451291.0 }, "geometry": { "type": "Point", "coordinates": [ -2.2015333, 53.456038 ] } },
{ "type": "Feature", "properties": { "AADT": 24211, "TR_AADT": 717, "2W_AADT": 169, "raw_name": "A56", "raw_oneway": true, "raw_direction": "A5014-->A57(M)", "raw_techno": "Manual count", "osm_name": "Chester Road", "osm_type": "trunk", "osm_lanes": 2.0, "osm_oneway": null, "osm_distance": 1.4324910292997683, "osm_maxspeed": 48.2802, "osmid": 260900807.0 }, "geometry": { "type": "Point", "coordinates": [ -2.263817, 53.470164 ] } },
{ "type": "Feature", "properties": { "AADT": 9970, "TR_AADT": 119, "2W_AADT": 25, "raw_name": "A6010", "raw_oneway": true, "raw_direction": "A6010 Dickenson Rd-->A6 Stockport Rd", "raw_techno": "Estimated using previous year's AADF on this link", "osm_name": "Saint John's Road", "osm_type": "primary", "osm_lanes": null, "osm_oneway": null, "osm_distance": 0.54360456818559344, "osm_maxspeed": 48.2802, "osmid": 1374682004.0 }, "geometry": { "type": "Point", "coordinates": [ -2.2028677, 53.457942 ] } },
{ "type": "Feature", "properties": { "AADT": 97577, "TR_AADT": 5915, "2W_AADT": 196, "raw_name": "M60", "raw_oneway": true, "raw_direction": "20-->LA Boundary", "raw_techno": "Manual count", "osm_name": null, "osm_type": null, "osm_lanes": null, "osm_oneway": null, "osm_distance": null, "osm_maxspeed": null, "osmid": null }, "geometry": { "type": "Point", "coordinates": [ -2.2172509, 53.540547 ] } },
{ "type": "Feature", "properties": { "AADT": 28133, "TR_AADT": 1060, "2W_AADT": 157, "raw_name": "A664", "raw_oneway": true, "raw_direction": "A6104-->M60", "raw_techno": "Estimated from nearby links", "osm_name": "Manchester New Road", "osm_type": "primary", "osm_lanes": 4.0, "osm_oneway": "True", "osm_distance": 2.5535862690148114, "osm_maxspeed": 48.2802, "osmid": 1128337476.0 }, "geometry": { "type": "Point", "coordinates": [ -2.2078575, 53.532834 ] } },
{ "type": "Feature", "properties": { "AADT": 71524, "TR_AADT": 9341, "2W_AADT": 154, "raw_name": "M56", "raw_oneway": true, "raw_direction": "M56 (3) main flow-->A5103", "raw_techno": "Automatic counter", "osm_name": null, "osm_type": "motorway_link", "osm_lanes": 2.0, "osm_oneway": "True", "osm_distance": 5.9418610936574288, "osm_maxspeed": 112.6538, "osmid": 4085324.0 }, "geometry": { "type": "Point", "coordinates": [ -2.2690067, 53.397525 ] } },
{ "type": "Feature", "properties": { "AADT": 1950, "TR_AADT": 4, "2W_AADT": 6, "raw_name": "U", "raw_oneway": true, "raw_direction": null, "raw_techno": "Manual count", "osm_name": "Amos Avenue", "osm_type": "residential", "osm_lanes": null, "osm_oneway": null, "osm_distance": 2.107171877705782, "osm_maxspeed": null, "osmid": 42726330.0 }, "geometry": { "type": "Point", "coordinates": [ -2.1796611, 53.493861 ] } },
{ "type": "Feature", "properties": { "AADT": 2352, "TR_AADT": 52, "2W_AADT": 14, "raw_name": "U", "raw_oneway": true, "raw_direction": null, "raw_techno": "Manual count", "osm_name": "Bower Street", "osm_type": "unclassified", "osm_lanes": null, "osm_oneway": null, "osm_distance": 2.1052976097726837, "osm_maxspeed": null, "osmid": 28040433.0 }, "geometry": { "type": "Point", "coordinates": [ -2.1984604, 53.497795 ] } },
{ "type": "Feature", "properties": { "AADT": 2691, "TR_AADT": 13, "2W_AADT": 10, "raw_name": "U", "raw_oneway": true, "raw_direction": null, "raw_techno": "Manual count", "osm_name": "Cornishway", "osm_type": "residential", "osm_lanes": null, "osm_oneway": null, "osm_distance": 0.64722500399762994, "osm_maxspeed": 48.2802, "osmid": 8690226.0 }, "geometry": { "type": "Point", "coordinates": [ -2.2654994, 53.37045 ] } },
{ "type": "Feature", "properties": { "AADT": 3224, "TR_AADT": 27, "2W_AADT": 21, "raw_name": "U", "raw_oneway": true, "raw_direction": null, "raw_techno": "Manual count", "osm_name": "Cavendish Road", "osm_type": "residential", "osm_lanes": null, "osm_oneway": null, "osm_distance": 1.6680007315850738, "osm_maxspeed": 32.1868, "osmid": 4447722.0 }, "geometry": { "type": "Point", "coordinates": [ -2.2421443, 53.428764 ] } },
{ "type": "Feature", "properties": { "AADT": 4159, "TR_AADT": 57, "2W_AADT": 32, "raw_name": "U", "raw_oneway": true, "raw_direction": null, "raw_techno": "Manual count", "osm_name": "Royce Road", "osm_type": "tertiary", "osm_lanes": null, "osm_oneway": null, "osm_distance": 1.7400060967169098, "osm_maxspeed": 48.2802, "osmid": 614099929.0 }, "geometry": { "type": "Point", "coordinates": [ -2.2574149, 53.467733 ] } },
{ "type": "Feature", "properties": { "AADT": 246, "TR_AADT": 0, "2W_AADT": 1, "raw_name": "U", "raw_oneway": true, "raw_direction": null, "raw_techno": "Manual count", "osm_name": "Manson Avenue", "osm_type": "residential", "osm_lanes": 2.0, "osm_oneway": null, "osm_distance": 0.71617979976217572, "osm_maxspeed": 32.1868, "osmid": 70451743.0 }, "geometry": { "type": "Point", "coordinates": [ -2.2639643, 53.469615 ] } },
{ "type": "Feature", "properties": { "AADT": 5765, "TR_AADT": 69, "2W_AADT": 39, "raw_name": "U", "raw_oneway": true, "raw_direction": null, "raw_techno": "Manual count", "osm_name": "Graver Lane", "osm_type": "tertiary", "osm_lanes": null, "osm_oneway": null, "osm_distance": 0.69777485320454435, "osm_maxspeed": null, "osmid": 84526761.0 }, "geometry": { "type": "Point", "coordinates": [ -2.1673392, 53.495829 ] } },
{ "type": "Feature", "properties": { "AADT": 6435, "TR_AADT": 34, "2W_AADT": 43, "raw_name": "U", "raw_oneway": true, "raw_direction": null, "raw_techno": "Manual count", "osm_name": "Burton Road", "osm_type": "tertiary", "osm_lanes": null, "osm_oneway": null, "osm_distance": 1.0050889084880561, "osm_maxspeed": 32.1868, "osmid": 1037317897.0 }, "geometry": { "type": "Point", "coordinates": [ -2.239529, 53.429362 ] } },
{ "type": "Feature", "properties": { "AADT": 661, "TR_AADT": 2, "2W_AADT": 4, "raw_name": "U", "raw_oneway": true, "raw_direction": null, "raw_techno": "Manual count", "osm_name": "Orford Road", "osm_type": "unclassified", "osm_lanes": null, "osm_oneway": null, "osm_distance": 0.36109209423749139, "osm_maxspeed": null, "osmid": 4955013.0 }, "geometry": { "type": "Point", "coordinates": [ -2.1808561, 53.498389 ] } },
{ "type": "Feature", "properties": { "AADT": 3144, "TR_AADT": 33, "2W_AADT": 13, "raw_name": "U", "raw_oneway": true, "raw_direction": null, "raw_techno": "Manual count", "osm_name": "City Road", "osm_type": "residential", "osm_lanes": 2.0, "osm_oneway": null, "osm_distance": 2.6259601810812461, "osm_maxspeed": 48.2802, "osmid": 609257718.0 }, "geometry": { "type": "Point", "coordinates": [ -2.2616288, 53.467086 ] } },
{ "type": "Feature", "properties": { "AADT": 2427, "TR_AADT": 18, "2W_AADT": 18, "raw_name": "U", "raw_oneway": true, "raw_direction": null, "raw_techno": "Manual count", "osm_name": "Red Bank", "osm_type": "residential", "osm_lanes": null, "osm_oneway": null, "osm_distance": 3.8056519586797868, "osm_maxspeed": null, "osmid": 156338946.0 }, "geometry": { "type": "Point", "coordinates": [ -2.2377422, 53.492051 ] } },
{ "type": "Feature", "properties": { "AADT": 1266, "TR_AADT": 9, "2W_AADT": 6, "raw_name": "U", "raw_oneway": true, "raw_direction": null, "raw_techno": "Manual count", "osm_name": "Kingswood Road", "osm_type": "residential", "osm_lanes": null, "osm_oneway": null, "osm_distance": 0.90443745467341086, "osm_maxspeed": 32.1868, "osmid": 4189891.0 }, "geometry": { "type": "Point", "coordinates": [ -2.2085985, 53.438076 ] } },
{ "type": "Feature", "properties": { "AADT": 562, "TR_AADT": 4, "2W_AADT": 0, "raw_name": "U", "raw_oneway": true, "raw_direction": null, "raw_techno": "Manual count", "osm_name": "Sopwith Drive", "osm_type": "residential", "osm_lanes": null, "osm_oneway": null, "osm_distance": 2.1492483824507236, "osm_maxspeed": 32.1868, "osmid": 4853389.0 }, "geometry": { "type": "Point", "coordinates": [ -2.2325603, 53.443039 ] } },
{ "type": "Feature", "properties": { "AADT": 7898, "TR_AADT": 80, "2W_AADT": 26, "raw_name": "U", "raw_oneway": true, "raw_direction": null, "raw_techno": "Manual count", "osm_name": "Errwood Road", "osm_type": "residential", "osm_lanes": null, "osm_oneway": null, "osm_distance": 4.4762014019051017, "osm_maxspeed": null, "osmid": 1352950459.0 }, "geometry": { "type": "Point", "coordinates": [ -2.1963817, 53.429684 ] } },
{ "type": "Feature", "properties": { "AADT": 10171, "TR_AADT": 58, "2W_AADT": 36, "raw_name": "U", "raw_oneway": true, "raw_direction": null, "raw_techno": "Manual count", "osm_name": "Mauldeth Road West", "osm_type": "tertiary", "osm_lanes": null, "osm_oneway": null, "osm_distance": 1.5148204191285202, "osm_maxspeed": 32.1868, "osmid": 4316747.0 }, "geometry": { "type": "Point", "coordinates": [ -2.2348273, 53.439169 ] } },
{ "type": "Feature", "properties": { "AADT": 2147, "TR_AADT": 11, "2W_AADT": 6, "raw_name": "U", "raw_oneway": true, "raw_direction": null, "raw_techno": "Manual count", "osm_name": "White Moss Road", "osm_type": "residential", "osm_lanes": null, "osm_oneway": "False", "osm_distance": 1.8194635218202131, "osm_maxspeed": null, "osmid": 1255523769.0 }, "geometry": { "type": "Point", "coordinates": [ -2.210181, 53.526771 ] } },
{ "type": "Feature", "properties": { "AADT": 559, "TR_AADT": 4, "2W_AADT": 0, "raw_name": "U", "raw_oneway": true, "raw_direction": null, "raw_techno": "Manual count", "osm_name": "Birch Grove", "osm_type": "residential", "osm_lanes": null, "osm_oneway": null, "osm_distance": 2.3458372776650798, "osm_maxspeed": 32.1868, "osmid": 8057764.0 }, "geometry": { "type": "Point", "coordinates": [ -2.2146992, 53.450829 ] } },
{ "type": "Feature", "properties": { "AADT": 1153, "TR_AADT": 3, "2W_AADT": 0, "raw_name": "U", "raw_oneway": true, "raw_direction": null, "raw_techno": "Manual count", "osm_name": "Darley Avenue", "osm_type": "residential", "osm_lanes": null, "osm_oneway": null, "osm_distance": 0.14975156856784666, "osm_maxspeed": 32.1868, "osmid": 526771294.0 }, "geometry": { "type": "Point", "coordinates": [ -2.2626948, 53.42508 ] } },
{ "type": "Feature", "properties": { "AADT": 12505, "TR_AADT": 172, "2W_AADT": 31, "raw_name": "B6393", "raw_oneway": true, "raw_direction": null, "raw_techno": "Manual count", "osm_name": "Lightbowne Road", "osm_type": "secondary", "osm_lanes": null, "osm_oneway": "True", "osm_distance": 4.3093038172376508, "osm_maxspeed": 48.2802, "osmid": 153225855.0 }, "geometry": { "type": "Point", "coordinates": [ -2.1829057, 53.515743 ] } },
{ "type": "Feature", "properties": { "AADT": 7119, "TR_AADT": 139, "2W_AADT": 24, "raw_name": "U", "raw_oneway": true, "raw_direction": null, "raw_techno": "Manual count", "osm_name": "Ten Acres Lane", "osm_type": "tertiary", "osm_lanes": null, "osm_oneway": null, "osm_distance": 0.98653641601557285, "osm_maxspeed": 32.1868, "osmid": 4954946.0 }, "geometry": { "type": "Point", "coordinates": [ -2.1919383, 53.495594 ] } },
{ "type": "Feature", "properties": { "AADT": 490, "TR_AADT": 1, "2W_AADT": 0, "raw_name": "U", "raw_oneway": true, "raw_direction": null, "raw_techno": "Manual count", "osm_name": "Blanchard Street", "osm_type": "residential", "osm_lanes": null, "osm_oneway": null, "osm_distance": 1.3401100025630106, "osm_maxspeed": 32.1868, "osmid": 11985681.0 }, "geometry": { "type": "Point", "coordinates": [ -2.2506759, 53.461689 ] } },
{ "type": "Feature", "properties": { "AADT": 10879, "TR_AADT": 124, "2W_AADT": 35, "raw_name": "B5093", "raw_oneway": true, "raw_direction": null, "raw_techno": "Manual count", "osm_name": "Albert Road", "osm_type": "secondary", "osm_lanes": 2.0, "osm_oneway": null, "osm_distance": 1.8640527306242114, "osm_maxspeed": 48.2802, "osmid": 155287505.0 }, "geometry": { "type": "Point", "coordinates": [ -2.1979213, 53.443586 ] } },
{ "type": "Feature", "properties": { "AADT": 548, "TR_AADT": 2, "2W_AADT": 0, "raw_name": "U", "raw_oneway": true, "raw_direction": null, "raw_techno": "Estimated using previous year's AADF on this link", "osm_name": "New Allen Street", "osm_type": "residential", "osm_lanes": null, "osm_oneway": null, "osm_distance": 0.37758519336696172, "osm_maxspeed": null, "osmid": 4947758.0 }, "geometry": { "type": "Point", "coordinates": [ -2.2212077, 53.492029 ] } },
{ "type": "Feature", "properties": { "AADT": 116, "TR_AADT": 7, "2W_AADT": 0, "raw_name": "U", "raw_oneway": true, "raw_direction": null, "raw_techno": "Estimated using previous year's AADF on this link", "osm_name": "Foreland CLose", "osm_type": "residential", "osm_lanes": null, "osm_oneway": null, "osm_distance": 3.5496455519919481, "osm_maxspeed": null, "osmid": 84012735.0 }, "geometry": { "type": "Point", "coordinates": [ -2.2158624, 53.499005 ] } },
{ "type": "Feature", "properties": { "AADT": 70, "TR_AADT": 0, "2W_AADT": 2, "raw_name": "U", "raw_oneway": true, "raw_direction": null, "raw_techno": "Estimated using previous year's AADF on this link", "osm_name": "Olney Street", "osm_type": "residential", "osm_lanes": null, "osm_oneway": null, "osm_distance": 1.2473991346243991, "osm_maxspeed": null, "osmid": 160278806.0 }, "geometry": { "type": "Point", "coordinates": [ -2.2169721, 53.459517 ] } },
{ "type": "Feature", "properties": { "AADT": 266, "TR_AADT": 0, "2W_AADT": 0, "raw_name": "U", "raw_oneway": true, "raw_direction": null, "raw_techno": "Manual count", "osm_name": "Brookthorpe Avenue", "osm_type": "residential", "osm_lanes": null, "osm_oneway": null, "osm_distance": 2.0402606668869354, "osm_maxspeed": null, "osmid": 4814715.0 }, "geometry": { "type": "Point", "coordinates": [ -2.2052165, 53.43286 ] } }
]
}
