{
"type": "FeatureCollection",
"name": "Bordeaux_AAWT_2021",
"crs": { "type": "name", "properties": { "name": "urn:ogc:def:crs:OGC:1.3:CRS84" } },
"features": [
{ "type": "Feature", "properties": { "AAWT": 8588.0, "TR_AAWT": 899.0, "savg": 45.0, "raw_name": "Bordeaux Quai Souys (près Rue Bergès)", "raw_oneway": true, "raw_direction": "Sens Entrant", "raw_techno": "SIREDO", "osm_name": "Quai de la Souys", "osm_type": "secondary", "osm_lanes": 2.0, "osm_oneway": "True", "osm_distance": 0.36298766067402549, "osmid": 677270201.0 }, "geometry": { "type": "Point", "coordinates": [ -0.5319093, 44.8209103 ] } },
{ "type": "Feature", "properties": { "AAWT": 7336.0, "TR_AAWT": 291.0, "savg": 43.0, "raw_name": "Mérignac 44 Av. de Mérignac", "raw_oneway": true, "raw_direction": "Sens Sortant", "raw_techno": "SIREDO", "osm_name": "Avenue de Mérignac", "osm_type": "secondary", "osm_lanes": 2.0, "osm_oneway": null, "osm_distance": 1.632514678314712, "osmid": 221251412.0 }, "geometry": { "type": "Point", "coordinates": [ -0.6229248, 44.83862 ] } },
{ "type": "Feature", "properties": { "AAWT": 10008.0, "TR_AAWT": 477.0, "savg": 32.0, "raw_name": "Mérignac face 130 bis Av. de l'Yser", "raw_oneway": true, "raw_direction": "Sens Entrant", "raw_techno": "SIREDO", "osm_name": "Avenue de l'Yser", "osm_type": "secondary", "osm_lanes": null, "osm_oneway": "True", "osm_distance": 0.18835877413607494, "osmid": 432744963.0 }, "geometry": { "type": "Point", "coordinates": [ -0.6627416, 44.8419538 ] } },
{ "type": "Feature", "properties": { "AAWT": 9233.0, "TR_AAWT": 645.0, "savg": 27.0, "raw_name": "Mérignac face 130 bis Av. de l'Yser", "raw_oneway": true, "raw_direction": "Sens Sortant", "raw_techno": "SIREDO", "osm_name": "Avenue de l'Yser", "osm_type": "secondary", "osm_lanes": 1.0, "osm_oneway": "True", "osm_distance": 0.38672196281495325, "osmid": 241377481.0 }, "geometry": { "type": "Point", "coordinates": [ -0.6627592, 44.8420215 ] } },
{ "type": "Feature", "properties": { "AAWT": 7623.0, "TR_AAWT": 179.0, "savg": 39.0, "raw_name": "Mérignac 20 Av. du Chut", "raw_oneway": true, "raw_direction": "Sens Sortant", "raw_techno": "SIREDO", "osm_name": "Avenue du Chut", "osm_type": "unclassified", "osm_lanes": null, "osm_oneway": null, "osm_distance": 1.6602896479853013, "osmid": 1067220632.0 }, "geometry": { "type": "Point", "coordinates": [ -0.6602583, 44.8482655 ] } },
{ "type": "Feature", "properties": { "AAWT": 7056.0, "TR_AAWT": 377.0, "savg": 37.0, "raw_name": "Mérignac VDO", "raw_oneway": true, "raw_direction": "Sens Entrant", "raw_techno": "SIREDO", "osm_name": "Avenue François Mitterrand", "osm_type": "secondary", "osm_lanes": null, "osm_oneway": "True", "osm_distance": 0.3813368411434444, "osmid": 286033861.0 }, "geometry": { "type": "Point", "coordinates": [ -0.617425, 44.8263785 ] } },
{ "type": "Feature", "properties": { "AAWT": 5564.0, "TR_AAWT": null, "savg": 41.0, "raw_name": "Pessac 190 Av. Jean Jaurès", "raw_oneway": true, "raw_direction": "Sens Entrant", "raw_techno": "SIREDO", "osm_name": "Avenue Jean Jaurès", "osm_type": "primary", "osm_lanes": 2.0, "osm_oneway": null, "osm_distance": 1.0688056485296415, "osmid": 949120256.0 }, "geometry": { "type": "Point", "coordinates": [ -0.6113344, 44.8143854 ] } },
{ "type": "Feature", "properties": { "AAWT": 8070.0, "TR_AAWT": 448.0, "savg": 24.0, "raw_name": "Pessac Av. de Canejan niveau rocade", "raw_oneway": true, "raw_direction": "Sens Entrant", "raw_techno": "SIREDO", "osm_name": "Avenue de Canéjan", "osm_type": "secondary", "osm_lanes": null, "osm_oneway": "True", "osm_distance": 1.6727657309446575, "osmid": 348499378.0 }, "geometry": { "type": "Point", "coordinates": [ -0.647881, 44.792394 ] } },
{ "type": "Feature", "properties": { "AAWT": 10956.0, "TR_AAWT": 420.0, "savg": 38.0, "raw_name": "Pessac 98 Av. de Saige", "raw_oneway": true, "raw_direction": "Sens Sortant", "raw_techno": "SIREDO", "osm_name": "Avenue de Saige", "osm_type": "tertiary", "osm_lanes": 2.0, "osm_oneway": "False", "osm_distance": 2.0553424684570767, "osmid": 1204614549.0 }, "geometry": { "type": "Point", "coordinates": [ -0.6352927, 44.7891491 ] } },
{ "type": "Feature", "properties": { "AAWT": 4178.0, "TR_AAWT": 151.0, "savg": 43.0, "raw_name": "Talence av de Thouars (face au château)", "raw_oneway": true, "raw_direction": "Sens Entrant", "raw_techno": "SIREDO", "osm_name": "Avenue de Thouars", "osm_type": "tertiary", "osm_lanes": 2.0, "osm_oneway": null, "osm_distance": 2.6708229305915618, "osmid": 597906295.0 }, "geometry": { "type": "Point", "coordinates": [ -0.5906687, 44.7886195 ] } },
{ "type": "Feature", "properties": { "AAWT": 1722.0, "TR_AAWT": 38.0, "savg": 32.0, "raw_name": "Talence 42 Rue Lamartine", "raw_oneway": true, "raw_direction": "Sens Entrant", "raw_techno": "SIREDO", "osm_name": "Rue Lamartine", "osm_type": "tertiary", "osm_lanes": null, "osm_oneway": "False", "osm_distance": 1.8125530505485243, "osmid": 291450286.0 }, "geometry": { "type": "Point", "coordinates": [ -0.5865581, 44.8132443 ] } },
{ "type": "Feature", "properties": { "AAWT": 476.0, "TR_AAWT": 4.0, "savg": 29.0, "raw_name": "Talence 42 Rue Lamartine", "raw_oneway": true, "raw_direction": "Sens Sortant", "raw_techno": "SIREDO", "osm_name": "Rue Lamartine", "osm_type": "tertiary", "osm_lanes": null, "osm_oneway": "False", "osm_distance": 1.7016056729464388, "osmid": 291450286.0 }, "geometry": { "type": "Point", "coordinates": [ -0.5865979, 44.8132352 ] } },
{ "type": "Feature", "properties": { "AAWT": 9231.0, "TR_AAWT": 727.0, "savg": 31.0, "raw_name": "Villenave d'Ornon Rue Pierre Proud'hon", "raw_oneway": true, "raw_direction": "Sens Sortant", "raw_techno": "SIREDO", "osm_name": "Rue Pierre-Joseph Proudhon", "osm_type": "tertiary", "osm_lanes": 2.0, "osm_oneway": "False", "osm_distance": 2.5591233971493534, "osmid": 310423038.0 }, "geometry": { "type": "Point", "coordinates": [ -0.5868473, 44.7879374 ] } },
{ "type": "Feature", "properties": { "AAWT": 4426.0, "TR_AAWT": 129.0, "savg": 43.0, "raw_name": "Talence 177 chemin de Leysotte", "raw_oneway": true, "raw_direction": "Sens Entrant", "raw_techno": "SIREDO", "osm_name": "Chemin de Leysotte", "osm_type": "tertiary", "osm_lanes": 2.0, "osm_oneway": null, "osm_distance": 3.2963192403079971, "osmid": 389105314.0 }, "geometry": { "type": "Point", "coordinates": [ -0.577359, 44.7986736 ] } },
{ "type": "Feature", "properties": { "AAWT": 5682.0, "TR_AAWT": 182.0, "savg": 36.0, "raw_name": "Talence 177 chemin de Leysotte", "raw_oneway": true, "raw_direction": "Sens Sortant", "raw_techno": "SIREDO", "osm_name": "Chemin de Leysotte", "osm_type": "tertiary", "osm_lanes": 2.0, "osm_oneway": null, "osm_distance": 2.6698541785003891, "osmid": 389105314.0 }, "geometry": { "type": "Point", "coordinates": [ -0.5774178, 44.7987032 ] } },
{ "type": "Feature", "properties": { "AAWT": 7594.0, "TR_AAWT": null, "savg": 35.0, "raw_name": "Bordeaux 248 Av. Tassigny", "raw_oneway": true, "raw_direction": "Sens Entrant", "raw_techno": "SIREDO", "osm_name": "Avenue du Maréchal de Lattre de Tassigny", "osm_type": "secondary", "osm_lanes": null, "osm_oneway": null, "osm_distance": 2.5744207325728437, "osmid": 22898747.0 }, "geometry": { "type": "Point", "coordinates": [ -0.6189075, 44.8566941 ] } },
{ "type": "Feature", "properties": { "AAWT": 4042.0, "TR_AAWT": 234.0, "savg": null, "raw_name": "Le Bouscat Av. Victor Hugo", "raw_oneway": true, "raw_direction": "Sens Entrant", "raw_techno": "SIREDO", "osm_name": "Avenue Victor Hugo", "osm_type": "tertiary", "osm_lanes": 2.0, "osm_oneway": "False", "osm_distance": 1.0157844786719701, "osmid": 775004058.0 }, "geometry": { "type": "Point", "coordinates": [ -0.5904316, 44.8662583 ] } },
{ "type": "Feature", "properties": { "AAWT": 6748.0, "TR_AAWT": 122.0, "savg": 39.0, "raw_name": "Eysines 126 Av. du Taillan", "raw_oneway": true, "raw_direction": "Sens Sortant", "raw_techno": "SIREDO", "osm_name": "Avenue du Taillan-Médoc", "osm_type": "tertiary", "osm_lanes": 2.0, "osm_oneway": null, "osm_distance": 2.0388382879709086, "osmid": 749234221.0 }, "geometry": { "type": "Point", "coordinates": [ -0.6446846, 44.8782685 ] } },
{ "type": "Feature", "properties": { "AAWT": 11112.0, "TR_AAWT": 621.0, "savg": 32.0, "raw_name": "Bruges Blvd Parc des Expositions", "raw_oneway": true, "raw_direction": "Sens Sortant", "raw_techno": "SIREDO", "osm_name": "Boulevard Jacques Chaban-Delmas", "osm_type": "secondary", "osm_lanes": 2.0, "osm_oneway": null, "osm_distance": 1.1865968721494573, "osmid": 48144453.0 }, "geometry": { "type": "Point", "coordinates": [ -0.5820737, 44.8787561 ] } },
{ "type": "Feature", "properties": { "AAWT": 4165.0, "TR_AAWT": 79.0, "savg": 55.0, "raw_name": "Artigues Blvd de Feydeau", "raw_oneway": true, "raw_direction": "Sens Entrant", "raw_techno": "SIREDO", "osm_name": "Boulevard de Feydeau", "osm_type": "secondary", "osm_lanes": 2.0, "osm_oneway": null, "osm_distance": 2.1722650237405308, "osmid": 24009227.0 }, "geometry": { "type": "Point", "coordinates": [ -0.5002807, 44.8483487 ] } },
{ "type": "Feature", "properties": { "AAWT": 3758.0, "TR_AAWT": 67.0, "savg": 55.0, "raw_name": "Artigues Blvd de Feydeau", "raw_oneway": true, "raw_direction": "Sens Sortant", "raw_techno": "SIREDO", "osm_name": "Boulevard de Feydeau", "osm_type": "secondary", "osm_lanes": 2.0, "osm_oneway": null, "osm_distance": 1.5435883077073322, "osmid": 24009227.0 }, "geometry": { "type": "Point", "coordinates": [ -0.500258, 44.8483119 ] } },
{ "type": "Feature", "properties": { "AAWT": 13003.0, "TR_AAWT": 446.0, "savg": 40.0, "raw_name": "Cenon Blvd de l'Entre-deux-Mers", "raw_oneway": true, "raw_direction": "Sens Sortant", "raw_techno": "SIREDO", "osm_name": "Boulevard de l'Entre-Deux-Mers", "osm_type": "primary", "osm_lanes": 2.0, "osm_oneway": "True", "osm_distance": 0.6336270820511043, "osmid": 210123621.0 }, "geometry": { "type": "Point", "coordinates": [ -0.5349044, 44.8459469 ] } },
{ "type": "Feature", "properties": { "AAWT": 5085.0, "TR_AAWT": 264.0, "savg": 29.0, "raw_name": "Mérignac face au 153 Av. de la Somme", "raw_oneway": true, "raw_direction": "Sens Sortant", "raw_techno": "SIREDO", "osm_name": "Avenue de la Somme", "osm_type": "secondary", "osm_lanes": null, "osm_oneway": null, "osm_distance": 2.0056481736868581, "osmid": 25440128.0 }, "geometry": { "type": "Point", "coordinates": [ -0.6701619, 44.828074 ] } },
{ "type": "Feature", "properties": { "AAWT": 5413.0, "TR_AAWT": 207.0, "savg": 48.0, "raw_name": "Mérignac 66 Av. Pierre Mendès France", "raw_oneway": true, "raw_direction": "Sens Mérignac vers Pessac", "raw_techno": "SIREDO", "osm_name": "Avenue Pierre Mendès-France", "osm_type": "secondary", "osm_lanes": 2.0, "osm_oneway": null, "osm_distance": 1.9646632306678709, "osmid": 24565200.0 }, "geometry": { "type": "Point", "coordinates": [ -0.6388064, 44.8283244 ] } },
{ "type": "Feature", "properties": { "AAWT": 7817.0, "TR_AAWT": 389.0, "savg": 44.0, "raw_name": "Floirac 35 Av. Gaston Cabannes", "raw_oneway": true, "raw_direction": "Sens Sortant", "raw_techno": "SIREDO", "osm_name": "Avenue Gaston Cabannes", "osm_type": "secondary", "osm_lanes": null, "osm_oneway": null, "osm_distance": 1.808034313558204, "osmid": 1348001634.0 }, "geometry": { "type": "Point", "coordinates": [ -0.5223947, 44.8270797 ] } },
{ "type": "Feature", "properties": { "AAWT": 9182.0, "TR_AAWT": 782.0, "savg": 51.0, "raw_name": "Blanquefort Av. du XI Novembre", "raw_oneway": true, "raw_direction": "Sens Entrant", "raw_techno": "SIREDO", "osm_name": "Avenue du 11 Novembre", "osm_type": "secondary", "osm_lanes": null, "osm_oneway": null, "osm_distance": 2.3062437624748848, "osmid": 51679463.0 }, "geometry": { "type": "Point", "coordinates": [ -0.6171635, 44.9007897 ] } },
{ "type": "Feature", "properties": { "AAWT": 10929.0, "TR_AAWT": 525.0, "savg": 43.0, "raw_name": "Ambares Av. de la Libération", "raw_oneway": true, "raw_direction": "Sens Sortant", "raw_techno": "SIREDO", "osm_name": "Avenue de la Libération", "osm_type": "secondary", "osm_lanes": 2.0, "osm_oneway": null, "osm_distance": 3.0209264888339655, "osmid": 37830909.0 }, "geometry": { "type": "Point", "coordinates": [ -0.481884, 44.9167635 ] } },
{ "type": "Feature", "properties": { "AAWT": 9774.0, "TR_AAWT": null, "savg": null, "raw_name": "Bordeaux Blvd Leclerc après Thomas", "raw_oneway": true, "raw_direction": "Boulevards Nord > Sud", "raw_techno": "BOUCLE", "osm_name": "Boulevard du Maréchal Leclerc", "osm_type": "primary", "osm_lanes": 2.0, "osm_oneway": "True", "osm_distance": 0.02536397295099542, "osmid": 116692135.0 }, "geometry": { "type": "Point", "coordinates": [ -0.5956811, 44.8295103 ] } },
{ "type": "Feature", "properties": { "AAWT": 13755.0, "TR_AAWT": null, "savg": null, "raw_name": "Bordeaux Blvd George V avant barr Pessac", "raw_oneway": true, "raw_direction": "Boulevards Sud > Nord", "raw_techno": "BOUCLE", "osm_name": "Boulevard George V", "osm_type": "primary", "osm_lanes": 2.0, "osm_oneway": "True", "osm_distance": 0.20661733504669105, "osmid": 182860848.0 }, "geometry": { "type": "Point", "coordinates": [ -0.5873978, 44.8241803 ] } },
{ "type": "Feature", "properties": { "AAWT": 4759.0, "TR_AAWT": null, "savg": null, "raw_name": "Bordeaux Rue de Pessac après Audeguil", "raw_oneway": true, "raw_direction": "Sens Sortant", "raw_techno": "BOUCLE", "osm_name": "Rue de Pessac", "osm_type": "secondary", "osm_lanes": null, "osm_oneway": "True", "osm_distance": 3.0672376759426934, "osmid": 185675471.0 }, "geometry": { "type": "Point", "coordinates": [ -0.5864661, 44.8272679 ] } },
{ "type": "Feature", "properties": { "AAWT": 8125.0, "TR_AAWT": null, "savg": null, "raw_name": "Bordeaux Cours Galliéni après Médoquine", "raw_oneway": true, "raw_direction": "Sens Entrant", "raw_techno": "BOUCLE", "osm_name": "Cours du Maréchal Gallieni", "osm_type": "primary", "osm_lanes": 2.0, "osm_oneway": null, "osm_distance": 1.4656739116216133, "osmid": 22750923.0 }, "geometry": { "type": "Point", "coordinates": [ -0.5986224, 44.8192005 ] } },
{ "type": "Feature", "properties": { "AAWT": 16388.0, "TR_AAWT": null, "savg": null, "raw_name": "Bordeaux Blvd Roosevelt après Rue Hoche", "raw_oneway": true, "raw_direction": "Nord > Sud", "raw_techno": "BOUCLE", "osm_name": "Boulevard du Président Franklin Roosevelt", "osm_type": "primary", "osm_lanes": null, "osm_oneway": "True", "osm_distance": 0.050417100340782457, "osmid": 314247522.0 }, "geometry": { "type": "Point", "coordinates": [ -0.577979, 44.8180907 ] } },
{ "type": "Feature", "properties": { "AAWT": 4950.0, "TR_AAWT": null, "savg": null, "raw_name": "Bordeaux Rue Brun", "raw_oneway": true, "raw_direction": "Boulevards > Somme", "raw_techno": "BOUCLE", "osm_name": "Rue Brun", "osm_type": "residential", "osm_lanes": null, "osm_oneway": "True", "osm_distance": 0.28525915070683694, "osmid": 1358353511.0 }, "geometry": { "type": "Point", "coordinates": [ -0.5754863, 44.8170151 ] } },
{ "type": "Feature", "properties": { "AAWT": 4534.0, "TR_AAWT": null, "savg": null, "raw_name": "Bordeaux Argonne après Bertrand de Goth", "raw_oneway": true, "raw_direction": "Sens Entrant", "raw_techno": "BOUCLE", "osm_name": "Cours de l'Argonne", "osm_type": "tertiary", "osm_lanes": null, "osm_oneway": "True", "osm_distance": 0.16488096220335696, "osmid": 868342737.0 }, "geometry": { "type": "Point", "coordinates": [ -0.580008, 44.8231915 ] } },
{ "type": "Feature", "properties": { "AAWT": 12485.0, "TR_AAWT": null, "savg": null, "raw_name": "Talence Boulevard George V", "raw_oneway": true, "raw_direction": "Sud > Nord", "raw_techno": "BOUCLE", "osm_name": "Boulevard George V", "osm_type": "primary", "osm_lanes": 2.0, "osm_oneway": "True", "osm_distance": 0.3393005477257664, "osmid": 49746787.0 }, "geometry": { "type": "Point", "coordinates": [ -0.5887159, 44.8249125 ] } },
{ "type": "Feature", "properties": { "AAWT": 4232.0, "TR_AAWT": null, "savg": null, "raw_name": "Bordeaux Rue Malbec avant Nansouty", "raw_oneway": true, "raw_direction": "Sens Sortant", "raw_techno": "BOUCLE", "osm_name": "Rue Malbec", "osm_type": "tertiary", "osm_lanes": 1.0, "osm_oneway": "True", "osm_distance": 0.88521462678178053, "osmid": 1031041425.0 }, "geometry": { "type": "Point", "coordinates": [ -0.5705049, 44.8211778 ] } },
{ "type": "Feature", "properties": { "AAWT": 9850.0, "TR_AAWT": null, "savg": null, "raw_name": "Bordeaux Blvd Pierre 1er avant Hugo", "raw_oneway": true, "raw_direction": "Nord > Sud", "raw_techno": "BOUCLE", "osm_name": "Boulevard Godard", "osm_type": "primary", "osm_lanes": 2.0, "osm_oneway": "True", "osm_distance": 0.20045797157277156, "osmid": 186153450.0 }, "geometry": { "type": "Point", "coordinates": [ -0.5881391, 44.8608605 ] } },
{ "type": "Feature", "properties": { "AAWT": 4246.0, "TR_AAWT": null, "savg": null, "raw_name": "Bordeaux Ulysse Gayon", "raw_oneway": true, "raw_direction": "Sens Sortant", "raw_techno": "BOUCLE", "osm_name": "Rue Ulysse Gayon", "osm_type": "secondary", "osm_lanes": null, "osm_oneway": "True", "osm_distance": 1.0997669585322714, "osmid": 23607205.0 }, "geometry": { "type": "Point", "coordinates": [ -0.5908057, 44.8518257 ] } },
{ "type": "Feature", "properties": { "AAWT": 4870.0, "TR_AAWT": null, "savg": null, "raw_name": "Bordeaux Rue Fondaudège", "raw_oneway": true, "raw_direction": null, "raw_techno": "BOUCLE", "osm_name": "Rue Fondaudège", "osm_type": "secondary", "osm_lanes": 1.0, "osm_oneway": "True", "osm_distance": 0.066238824913319935, "osmid": 27332724.0 }, "geometry": { "type": "Point", "coordinates": [ -0.57922, 44.8460137 ] } },
{ "type": "Feature", "properties": { "AAWT": 15222.0, "TR_AAWT": null, "savg": null, "raw_name": "Bordeaux Blvd Pierre 1er après Tivoli", "raw_oneway": true, "raw_direction": "Nord > Sud", "raw_techno": "BOUCLE", "osm_name": "Boulevard Pierre 1er", "osm_type": "primary", "osm_lanes": 2.0, "osm_oneway": "True", "osm_distance": 0.33990810158728596, "osmid": 186144624.0 }, "geometry": { "type": "Point", "coordinates": [ -0.5914079, 44.8566805 ] } },
{ "type": "Feature", "properties": { "AAWT": 4068.0, "TR_AAWT": null, "savg": null, "raw_name": "Bordeaux Rue de la Course", "raw_oneway": true, "raw_direction": null, "raw_techno": "BOUCLE", "osm_name": "Rue de la Course", "osm_type": "secondary", "osm_lanes": null, "osm_oneway": "True", "osm_distance": 0.70186993141288545, "osmid": 117460106.0 }, "geometry": { "type": "Point", "coordinates": [ -0.5816531, 44.8501421 ] } },
{ "type": "Feature", "properties": { "AAWT": 5187.0, "TR_AAWT": null, "savg": null, "raw_name": "Bordeaux Rue Johnston avant Arsenal", "raw_oneway": true, "raw_direction": "Sens Entrant", "raw_techno": "BOUCLE", "osm_name": "Rue David Johnston", "osm_type": "secondary", "osm_lanes": null, "osm_oneway": "True", "osm_distance": 0.25461850460411778, "osmid": 750521830.0 }, "geometry": { "type": "Point", "coordinates": [ -0.589876, 44.8525368 ] } },
{ "type": "Feature", "properties": { "AAWT": 11099.0, "TR_AAWT": null, "savg": null, "raw_name": "Bordeaux Blvd Godard avant Ampère", "raw_oneway": true, "raw_direction": "Nord > Sud", "raw_techno": "BOUCLE", "osm_name": "Boulevard Godard", "osm_type": "primary", "osm_lanes": 2.0, "osm_oneway": "True", "osm_distance": 0.076544693947847367, "osmid": 463340218.0 }, "geometry": { "type": "Point", "coordinates": [ -0.5819972, 44.8635001 ] } },
{ "type": "Feature", "properties": { "AAWT": 16301.0, "TR_AAWT": null, "savg": null, "raw_name": "Bordeaux Rue L. Faure après L. Fargue", "raw_oneway": true, "raw_direction": "Sens Entrant", "raw_techno": "BOUCLE", "osm_name": "Rue Lucien Faure", "osm_type": "primary", "osm_lanes": 2.0, "osm_oneway": "True", "osm_distance": 5.7146035063222911, "osmid": 23135711.0 }, "geometry": { "type": "Point", "coordinates": [ -0.5634319, 44.8675561 ] } },
{ "type": "Feature", "properties": { "AAWT": 5925.0, "TR_AAWT": null, "savg": null, "raw_name": "Bordeaux Quai Chartrons", "raw_oneway": true, "raw_direction": "Nord > Sud", "raw_techno": "BOUCLE", "osm_name": "Quai de Bacalan", "osm_type": "secondary", "osm_lanes": 1.0, "osm_oneway": "True", "osm_distance": 0.18550990851071941, "osmid": 213107169.0 }, "geometry": { "type": "Point", "coordinates": [ -0.5571163, 44.8586404 ] } },
{ "type": "Feature", "properties": { "AAWT": 6103.0, "TR_AAWT": 79.0, "savg": 29.0, "raw_name": "Mérignac 20 Av. du Chut", "raw_oneway": true, "raw_direction": "Sens Entrant", "raw_techno": "SIREDO", "osm_name": "Avenue du Chut", "osm_type": "unclassified", "osm_lanes": null, "osm_oneway": null, "osm_distance": 0.98271223779798189, "osmid": 1067220632.0 }, "geometry": { "type": "Point", "coordinates": [ -0.66027, 44.8482381 ] } },
{ "type": "Feature", "properties": { "AAWT": 11942.0, "TR_AAWT": null, "savg": null, "raw_name": "Bordeaux Rue Faure", "raw_oneway": true, "raw_direction": "Sens Sortant", "raw_techno": "BOUCLE", "osm_name": null, "osm_type": "secondary_link", "osm_lanes": null, "osm_oneway": "True", "osm_distance": 2.9144408862286393, "osmid": 758956154.0 }, "geometry": { "type": "Point", "coordinates": [ -0.5633528, 44.8675934 ] } },
{ "type": "Feature", "properties": { "AAWT": 7514.0, "TR_AAWT": 393.0, "savg": 34.0, "raw_name": "Mérignac VDO", "raw_oneway": true, "raw_direction": "Sens Sortant", "raw_techno": "SIREDO", "osm_name": "Avenue François Mitterrand", "osm_type": "secondary", "osm_lanes": null, "osm_oneway": "True", "osm_distance": 0.19331267146507708, "osmid": 625233224.0 }, "geometry": { "type": "Point", "coordinates": [ -0.6174092, 44.8264724 ] } },
{ "type": "Feature", "properties": { "AAWT": 12954.0, "TR_AAWT": null, "savg": null, "raw_name": "Bordeaux Blvd Godard avant Jeanvrot", "raw_oneway": true, "raw_direction": "Sud > Nord", "raw_techno": "BOUCLE", "osm_name": "Boulevard Godard", "osm_type": "primary", "osm_lanes": 2.0, "osm_oneway": "True", "osm_distance": 0.5395597655903992, "osmid": 186153454.0 }, "geometry": { "type": "Point", "coordinates": [ -0.5812467, 44.8637315 ] } },
{ "type": "Feature", "properties": { "AAWT": 5999.0, "TR_AAWT": 241.0, "savg": 32.0, "raw_name": "Bordeaux Rue Bethmann Bx II", "raw_oneway": true, "raw_direction": "Sens Sortant", "raw_techno": "SIREDO", "osm_name": "Rue de Bethmann", "osm_type": "tertiary", "osm_lanes": null, "osm_oneway": null, "osm_distance": 2.6890515677280509, "osmid": 283598054.0 }, "geometry": { "type": "Point", "coordinates": [ -0.6060929, 44.8222504 ] } },
{ "type": "Feature", "properties": { "AAWT": 2074.0, "TR_AAWT": null, "savg": null, "raw_name": "Bordeaux Av. E. Counord après giratoire", "raw_oneway": true, "raw_direction": "Sens Sortant", "raw_techno": "BOUCLE", "osm_name": "Avenue Émile Counord", "osm_type": "residential", "osm_lanes": null, "osm_oneway": "True", "osm_distance": 0.22971184231925787, "osmid": 22382311.0 }, "geometry": { "type": "Point", "coordinates": [ -0.5750774, 44.8610285 ] } },
{ "type": "Feature", "properties": { "AAWT": 3387.0, "TR_AAWT": 187.0, "savg": 29.0, "raw_name": "Bègles 99 cours Victor Hugo", "raw_oneway": true, "raw_direction": "Sens Sortant", "raw_techno": "SIREDO", "osm_name": "Cours Victor Hugo", "osm_type": "tertiary", "osm_lanes": null, "osm_oneway": null, "osm_distance": 1.7522323549733143, "osmid": 23157783.0 }, "geometry": { "type": "Point", "coordinates": [ -0.5626524, 44.8099092 ] } },
{ "type": "Feature", "properties": { "AAWT": 4844.0, "TR_AAWT": null, "savg": null, "raw_name": "Bordeaux Av. E. Counord avant Guillemin", "raw_oneway": true, "raw_direction": "Sens Entrant", "raw_techno": "BOUCLE", "osm_name": "Avenue Émile Counord", "osm_type": "residential", "osm_lanes": 1.0, "osm_oneway": "True", "osm_distance": 0.12515367305361608, "osmid": 243194633.0 }, "geometry": { "type": "Point", "coordinates": [ -0.575676, 44.8650082 ] } },
{ "type": "Feature", "properties": { "AAWT": 6356.0, "TR_AAWT": 350.0, "savg": 48.0, "raw_name": "Pessac 9 Av. de Madran", "raw_oneway": true, "raw_direction": "Sens Sortant", "raw_techno": "SIREDO", "osm_name": "Avenue de Madran", "osm_type": "secondary", "osm_lanes": null, "osm_oneway": null, "osm_distance": 2.6323073147387359, "osmid": 24551260.0 }, "geometry": { "type": "Point", "coordinates": [ -0.6504536, 44.8054635 ] } },
{ "type": "Feature", "properties": { "AAWT": 1147.0, "TR_AAWT": null, "savg": null, "raw_name": "Bordeaux Av. E. Counord après Godard", "raw_oneway": true, "raw_direction": "Sens Sortant", "raw_techno": "BOUCLE", "osm_name": "Avenue Émile Counord", "osm_type": "residential", "osm_lanes": null, "osm_oneway": "True", "osm_distance": 0.089883956076323643, "osmid": 23227601.0 }, "geometry": { "type": "Point", "coordinates": [ -0.5744998, 44.8554175 ] } },
{ "type": "Feature", "properties": { "AAWT": 13445.0, "TR_AAWT": 725.0, "savg": 30.0, "raw_name": "Talence Liberation Peyberland Rabelais", "raw_oneway": true, "raw_direction": "Sens Sortant", "raw_techno": "SIREDO", "osm_name": "Cours de la Libération", "osm_type": "secondary", "osm_lanes": 2.0, "osm_oneway": "True", "osm_distance": 0.044231511758140753, "osmid": 369945309.0 }, "geometry": { "type": "Point", "coordinates": [ -0.6012004, 44.7975333 ] } },
{ "type": "Feature", "properties": { "AAWT": 3236.0, "TR_AAWT": null, "savg": null, "raw_name": "Bordeaux Rue d'Aviau avant Ducau", "raw_oneway": true, "raw_direction": "Sens Entrant", "raw_techno": "BOUCLE", "osm_name": "Rue d'Aviau", "osm_type": "secondary", "osm_lanes": null, "osm_oneway": "True", "osm_distance": 0.72808257913283647, "osmid": 21053477.0 }, "geometry": { "type": "Point", "coordinates": [ -0.5786026, 44.8506685 ] } },
{ "type": "Feature", "properties": { "AAWT": 5065.0, "TR_AAWT": 144.0, "savg": 44.0, "raw_name": "Gradignan 14 Rue Naudet", "raw_oneway": true, "raw_direction": "Sens Sortant", "raw_techno": "SIREDO", "osm_name": "Rue de Naudet", "osm_type": "tertiary", "osm_lanes": 2.0, "osm_oneway": "False", "osm_distance": 1.4339443139978096, "osmid": 22929496.0 }, "geometry": { "type": "Point", "coordinates": [ -0.6118538, 44.7883982 ] } },
{ "type": "Feature", "properties": { "AAWT": 6342.0, "TR_AAWT": null, "savg": null, "raw_name": "Pessac Av. Jean Jaurès", "raw_oneway": true, "raw_direction": "Sens Sortant", "raw_techno": "BOUCLE", "osm_name": "Avenue Jean Jaurès", "osm_type": "primary", "osm_lanes": 2.0, "osm_oneway": null, "osm_distance": 1.6082747051875068, "osmid": 1078568612.0 }, "geometry": { "type": "Point", "coordinates": [ -0.6152683, 44.8124608 ] } },
{ "type": "Feature", "properties": { "AAWT": 9627.0, "TR_AAWT": 561.0, "savg": 35.0, "raw_name": "Villenave d'Ornon Rue Pierre Proud'hon", "raw_oneway": true, "raw_direction": "Sens Entrant", "raw_techno": "SIREDO", "osm_name": "Rue Pierre-Joseph Proudhon", "osm_type": "tertiary", "osm_lanes": 2.0, "osm_oneway": "False", "osm_distance": 1.3306707571958996, "osmid": 310423038.0 }, "geometry": { "type": "Point", "coordinates": [ -0.586807, 44.787943 ] } },
{ "type": "Feature", "properties": { "AAWT": 5588.0, "TR_AAWT": null, "savg": null, "raw_name": "Bordeaux Av. Jaurès", "raw_oneway": true, "raw_direction": "Sens Sortant", "raw_techno": "BOUCLE", "osm_name": "Avenue Jean Jaurès", "osm_type": "primary", "osm_lanes": 2.0, "osm_oneway": null, "osm_distance": 1.2001688337549297, "osmid": 285751252.0 }, "geometry": { "type": "Point", "coordinates": [ -0.6213496, 44.8101544 ] } },
{ "type": "Feature", "properties": { "AAWT": 6635.0, "TR_AAWT": null, "savg": 41.0, "raw_name": "Bordeaux 248 Av. Tassigny", "raw_oneway": true, "raw_direction": "Sens Sortant", "raw_techno": "SIREDO", "osm_name": "Avenue du Maréchal de Lattre de Tassigny", "osm_type": "secondary", "osm_lanes": null, "osm_oneway": null, "osm_distance": 1.4873507662278278, "osmid": 22898747.0 }, "geometry": { "type": "Point", "coordinates": [ -0.6180207, 44.8564609 ] } },
{ "type": "Feature", "properties": { "AAWT": 5358.0, "TR_AAWT": null, "savg": null, "raw_name": "Pessac Av. Jaurès après Jaubert", "raw_oneway": true, "raw_direction": "Sens Sortant", "raw_techno": "BOUCLE", "osm_name": "Avenue Jean Jaurès", "osm_type": "primary", "osm_lanes": 2.0, "osm_oneway": null, "osm_distance": 1.4033986370528824, "osmid": 285751216.0 }, "geometry": { "type": "Point", "coordinates": [ -0.6282953, 44.8068402 ] } },
{ "type": "Feature", "properties": { "AAWT": 3327.0, "TR_AAWT": 57.0, "savg": 31.0, "raw_name": "Le Bouscat 58 Av. de Tivoli", "raw_oneway": true, "raw_direction": "Sens Entrant", "raw_techno": "SIREDO", "osm_name": "Avenue de Tivoli", "osm_type": "tertiary", "osm_lanes": 2.0, "osm_oneway": "False", "osm_distance": 1.5194481972940634, "osmid": 23681015.0 }, "geometry": { "type": "Point", "coordinates": [ -0.592366, 44.8596079 ] } },
{ "type": "Feature", "properties": { "AAWT": 5719.0, "TR_AAWT": null, "savg": null, "raw_name": "Pessac Av. Pasteur après Aciéries", "raw_oneway": true, "raw_direction": "Sens Entrant", "raw_techno": "BOUCLE", "osm_name": "Avenue Pasteur", "osm_type": "primary", "osm_lanes": 2.0, "osm_oneway": "False", "osm_distance": 1.3410045269626658, "osmid": 1078568623.0 }, "geometry": { "type": "Point", "coordinates": [ -0.6420863, 44.8026125 ] } },
{ "type": "Feature", "properties": { "AAWT": 6261.0, "TR_AAWT": 326.0, "savg": 35.0, "raw_name": "Lormont 36 Av. de Paris", "raw_oneway": true, "raw_direction": "Sens Entrant", "raw_techno": "SIREDO", "osm_name": "Avenue de Paris", "osm_type": "secondary", "osm_lanes": null, "osm_oneway": "True", "osm_distance": 0.082784632024049273, "osmid": 317344686.0 }, "geometry": { "type": "Point", "coordinates": [ -0.5121138, 44.8709175 ] } },
{ "type": "Feature", "properties": { "AAWT": 3312.0, "TR_AAWT": null, "savg": null, "raw_name": "Pessac Rue Pénard après Echoppes", "raw_oneway": true, "raw_direction": "Sens Sortant", "raw_techno": "BOUCLE", "osm_name": "Avenue du Docteur Nancel Pénard", "osm_type": "secondary", "osm_lanes": null, "osm_oneway": null, "osm_distance": 1.4380364312484857, "osmid": 24565886.0 }, "geometry": { "type": "Point", "coordinates": [ -0.6213777, 44.8106915 ] } },
{ "type": "Feature", "properties": { "AAWT": 16036.0, "TR_AAWT": 661.0, "savg": 54.0, "raw_name": "Lormont Av. Kennedy Amitié", "raw_oneway": true, "raw_direction": "Sens Entrant", "raw_techno": "SIREDO", "osm_name": "Avenue du Président John Fitzgerald Kennedy", "osm_type": "primary", "osm_lanes": 2.0, "osm_oneway": "True", "osm_distance": 0.36336093269774272, "osmid": 432377864.0 }, "geometry": { "type": "Point", "coordinates": [ -0.5091489, 44.8668755 ] } },
{ "type": "Feature", "properties": { "AAWT": 5808.0, "TR_AAWT": null, "savg": null, "raw_name": "Talence Cours Gambetta avant Rue Mirabeau", "raw_oneway": true, "raw_direction": "Sens Sortant", "raw_techno": "BOUCLE", "osm_name": "Cours Gambetta", "osm_type": "secondary", "osm_lanes": 1.0, "osm_oneway": "True", "osm_distance": 0.29944964812332231, "osmid": 878399373.0 }, "geometry": { "type": "Point", "coordinates": [ -0.5895382, 44.8136792 ] } },
{ "type": "Feature", "properties": { "AAWT": 16086.0, "TR_AAWT": 672.0, "savg": 39.0, "raw_name": "Lormont Av. Kennedy Amitié", "raw_oneway": true, "raw_direction": "Sens Sortant", "raw_techno": "SIREDO", "osm_name": "Avenue du Président John Fitzgerald Kennedy", "osm_type": "primary", "osm_lanes": 2.0, "osm_oneway": "True", "osm_distance": 0.1264058826146004, "osmid": 694729836.0 }, "geometry": { "type": "Point", "coordinates": [ -0.509119, 44.8668151 ] } },
{ "type": "Feature", "properties": { "AAWT": 2771.0, "TR_AAWT": null, "savg": null, "raw_name": "Talence Rue Lamartine avant Suzon", "raw_oneway": true, "raw_direction": "Sens Sortant", "raw_techno": "BOUCLE", "osm_name": "Rue Lamartine", "osm_type": "tertiary", "osm_lanes": null, "osm_oneway": "True", "osm_distance": 0.51510735952349818, "osmid": 291450285.0 }, "geometry": { "type": "Point", "coordinates": [ -0.5860985, 44.8103781 ] } },
{ "type": "Feature", "properties": { "AAWT": 7933.0, "TR_AAWT": 463.0, "savg": 38.0, "raw_name": "Bruges Av. de Gaulle Fleuranceau Rocade", "raw_oneway": true, "raw_direction": "Sens Sortant", "raw_techno": "SIREDO", "osm_name": "Avenue Charles de Gaulle", "osm_type": "secondary", "osm_lanes": 2.0, "osm_oneway": null, "osm_distance": 1.3151020156553574, "osmid": 393261588.0 }, "geometry": { "type": "Point", "coordinates": [ -0.6101782, 44.8875495 ] } },
{ "type": "Feature", "properties": { "AAWT": 22927.0, "TR_AAWT": null, "savg": null, "raw_name": "Gradignan Cours de Gaulle", "raw_oneway": true, "raw_direction": "Sens Entrant", "raw_techno": "BOUCLE", "osm_name": "Cours du Général de Gaulle", "osm_type": "secondary", "osm_lanes": 2.0, "osm_oneway": "True", "osm_distance": 0.18871865616842187, "osmid": 1073151620.0 }, "geometry": { "type": "Point", "coordinates": [ -0.6052748, 44.7911423 ] } },
{ "type": "Feature", "properties": { "AAWT": 3179.0, "TR_AAWT": 213.0, "savg": 49.0, "raw_name": "Bruges Rue de Fieuzal (face au lac)", "raw_oneway": true, "raw_direction": "Sens Entrant", "raw_techno": "SIREDO", "osm_name": "Rue de Fieuzal", "osm_type": "tertiary", "osm_lanes": 2.0, "osm_oneway": null, "osm_distance": 1.4093963457264247, "osmid": 25740543.0 }, "geometry": { "type": "Point", "coordinates": [ -0.5945388, 44.8862482 ] } },
{ "type": "Feature", "properties": { "AAWT": 9170.0, "TR_AAWT": null, "savg": null, "raw_name": "Gradignan Cours du Général De Gaulle", "raw_oneway": true, "raw_direction": "Sens Entrant", "raw_techno": "BOUCLE", "osm_name": "Cours du Général de Gaulle", "osm_type": "primary", "osm_lanes": 1.0, "osm_oneway": "True", "osm_distance": 0.54431024179599841, "osmid": 508496118.0 }, "geometry": { "type": "Point", "coordinates": [ -0.6064484, 44.7840078 ] } },
{ "type": "Feature", "properties": { "AAWT": 6306.0, "TR_AAWT": 239.0, "savg": 42.0, "raw_name": "Eysines 245 Av. de St Médard", "raw_oneway": true, "raw_direction": "Sens Entrant", "raw_techno": "SIREDO", "osm_name": "Avenue de Saint-Médard", "osm_type": "secondary", "osm_lanes": null, "osm_oneway": null, "osm_distance": 2.5421759881588066, "osmid": 753947083.0 }, "geometry": { "type": "Point", "coordinates": [ -0.6617532, 44.8641921 ] } },
{ "type": "Feature", "properties": { "AAWT": 5740.0, "TR_AAWT": null, "savg": null, "raw_name": "Gradignan Gal de Gaulle avant platanes", "raw_oneway": true, "raw_direction": "Sens Sortant", "raw_techno": "BOUCLE", "osm_name": "Cours du Général de Gaulle", "osm_type": "primary", "osm_lanes": null, "osm_oneway": "False", "osm_distance": 1.7118592636094601, "osmid": 221251419.0 }, "geometry": { "type": "Point", "coordinates": [ -0.6112155, 44.7762187 ] } },
{ "type": "Feature", "properties": { "AAWT": 5448.0, "TR_AAWT": 194.0, "savg": 37.0, "raw_name": "Eysines 245 Av. de Saint Médard", "raw_oneway": true, "raw_direction": "Sens Sortant", "raw_techno": "SIREDO", "osm_name": "Avenue de Saint-Médard", "osm_type": "secondary", "osm_lanes": null, "osm_oneway": null, "osm_distance": 2.6094103955089181, "osmid": 753947083.0 }, "geometry": { "type": "Point", "coordinates": [ -0.661233, 44.8641311 ] } },
{ "type": "Feature", "properties": { "AAWT": 5681.0, "TR_AAWT": null, "savg": null, "raw_name": "Gradignan Gal de Gaulle après Rochefort", "raw_oneway": true, "raw_direction": "Sens Entrant", "raw_techno": "BOUCLE", "osm_name": "Cours du Général de Gaulle", "osm_type": "primary", "osm_lanes": null, "osm_oneway": "False", "osm_distance": 1.6102103355466819, "osmid": 221251419.0 }, "geometry": { "type": "Point", "coordinates": [ -0.6109242, 44.7766522 ] } },
{ "type": "Feature", "properties": { "AAWT": 7561.0, "TR_AAWT": 415.0, "savg": 42.0, "raw_name": "Bègles rte de Courréjean", "raw_oneway": true, "raw_direction": "Sens Sortant", "raw_techno": "SIREDO", "osm_name": "Rue Jeanne d'Arc", "osm_type": "tertiary", "osm_lanes": null, "osm_oneway": null, "osm_distance": 2.1422073347716131, "osmid": 25892599.0 }, "geometry": { "type": "Point", "coordinates": [ -0.54156, 44.7966209 ] } },
{ "type": "Feature", "properties": { "AAWT": 6056.0, "TR_AAWT": null, "savg": null, "raw_name": "Gradignan Gal de Gaulle avant Lahouneau", "raw_oneway": true, "raw_direction": "Sens Sortant", "raw_techno": "BOUCLE", "osm_name": "Cours du Général de Gaulle", "osm_type": "primary", "osm_lanes": 1.0, "osm_oneway": "True", "osm_distance": 1.0719045587185272, "osmid": 760570988.0 }, "geometry": { "type": "Point", "coordinates": [ -0.6089065, 44.7800894 ] } },
{ "type": "Feature", "properties": { "AAWT": 2828.0, "TR_AAWT": 90.0, "savg": 32.0, "raw_name": "Bègles 98 Rue Alexis Capelle", "raw_oneway": true, "raw_direction": "Sens Entrant", "raw_techno": "SIREDO", "osm_name": "Avenue Alexis Capelle", "osm_type": "tertiary", "osm_lanes": 2.0, "osm_oneway": null, "osm_distance": 1.774162530826257, "osmid": 26187130.0 }, "geometry": { "type": "Point", "coordinates": [ -0.5486011, 44.8157469 ] } },
{ "type": "Feature", "properties": { "AAWT": 3978.0, "TR_AAWT": null, "savg": null, "raw_name": "Gradignan Gal de Gaulle après place", "raw_oneway": true, "raw_direction": "Sens Sortant", "raw_techno": "BOUCLE", "osm_name": "Cours du Général de Gaulle", "osm_type": "primary", "osm_lanes": 2.0, "osm_oneway": "False", "osm_distance": 2.5229649738202826, "osmid": 614071122.0 }, "geometry": { "type": "Point", "coordinates": [ -0.6140847, 44.7733915 ] } },
{ "type": "Feature", "properties": { "AAWT": 7310.0, "TR_AAWT": 290.0, "savg": 41.0, "raw_name": "Pessac Av. Pasteur niveau rocade", "raw_oneway": true, "raw_direction": "Sens Sortant", "raw_techno": "SIREDO", "osm_name": "Avenue Pasteur", "osm_type": "primary", "osm_lanes": 2.0, "osm_oneway": null, "osm_distance": 1.8228124015609535, "osmid": 813501226.0 }, "geometry": { "type": "Point", "coordinates": [ -0.6572624, 44.8006745 ] } },
{ "type": "Feature", "properties": { "AAWT": 2711.0, "TR_AAWT": null, "savg": null, "raw_name": "Gradignan Gal de Gaulle avant place", "raw_oneway": true, "raw_direction": "Sens Entrant", "raw_techno": "BOUCLE", "osm_name": "Cours du Général de Gaulle", "osm_type": "primary", "osm_lanes": null, "osm_oneway": "False", "osm_distance": 2.6650893942343186, "osmid": 291881938.0 }, "geometry": { "type": "Point", "coordinates": [ -0.6144475, 44.7721693 ] } },
{ "type": "Feature", "properties": { "AAWT": 8322.0, "TR_AAWT": 518.0, "savg": null, "raw_name": "Saint-Médard-en-Jalles Av. de Capeyron", "raw_oneway": true, "raw_direction": "Sens Entrant", "raw_techno": "SIREDO", "osm_name": "Avenue de Capeyron", "osm_type": "primary", "osm_lanes": 2.0, "osm_oneway": null, "osm_distance": 0.55599498164984673, "osmid": 398320533.0 }, "geometry": { "type": "Point", "coordinates": [ -0.7138188, 44.8655621 ] } },
{ "type": "Feature", "properties": { "AAWT": 1136.0, "TR_AAWT": null, "savg": null, "raw_name": "Villenave d'Ornon Leclerc avant Gaston", "raw_oneway": true, "raw_direction": "Sens Entrant", "raw_techno": "BOUCLE", "osm_name": "Avenue du Maréchal Leclerc", "osm_type": "residential", "osm_lanes": null, "osm_oneway": null, "osm_distance": 1.4547641379611789, "osmid": 25890868.0 }, "geometry": { "type": "Point", "coordinates": [ -0.5740442, 44.777231 ] } },
{ "type": "Feature", "properties": { "AAWT": 8024.0, "TR_AAWT": 508.0, "savg": null, "raw_name": "Saint-Médard-en-Jalles Av. de Capeyron", "raw_oneway": true, "raw_direction": "Sens Sortant", "raw_techno": "SIREDO", "osm_name": "Avenue de Capeyron", "osm_type": "primary", "osm_lanes": 2.0, "osm_oneway": null, "osm_distance": 2.1807149052974006, "osmid": 398320533.0 }, "geometry": { "type": "Point", "coordinates": [ -0.713831, 44.8655904 ] } },
{ "type": "Feature", "properties": { "AAWT": 2056.0, "TR_AAWT": null, "savg": null, "raw_name": "Villenave d'Ornon Rue Jean Pages", "raw_oneway": true, "raw_direction": "Sens Entrant", "raw_techno": "BOUCLE", "osm_name": "Rue Jean Pages", "osm_type": "residential", "osm_lanes": null, "osm_oneway": null, "osm_distance": 1.7870258051423138, "osmid": 503347127.0 }, "geometry": { "type": "Point", "coordinates": [ -0.5656786, 44.7804395 ] } },
{ "type": "Feature", "properties": { "AAWT": 5231.0, "TR_AAWT": 202.0, "savg": 38.0, "raw_name": "Mérignac Av. de la Marne", "raw_oneway": true, "raw_direction": "Sens Entrant", "raw_techno": "SIREDO", "osm_name": "Avenue de la Marne", "osm_type": "secondary", "osm_lanes": null, "osm_oneway": null, "osm_distance": 1.0920023991506491, "osmid": 548372051.0 }, "geometry": { "type": "Point", "coordinates": [ -0.6318109, 44.8351252 ] } },
{ "type": "Feature", "properties": { "AAWT": 7822.0, "TR_AAWT": null, "savg": null, "raw_name": "Bègles 168 rte de Toulouse après Sévène", "raw_oneway": true, "raw_direction": "Sens Entrant", "raw_techno": "BOUCLE", "osm_name": "Route de Toulouse", "osm_type": "primary", "osm_lanes": 2.0, "osm_oneway": "False", "osm_distance": 3.9446910014576191, "osmid": 880413710.0 }, "geometry": { "type": "Point", "coordinates": [ -0.5738578, 44.8087482 ] } },
{ "type": "Feature", "properties": { "AAWT": 6193.0, "TR_AAWT": 219.0, "savg": 39.0, "raw_name": "Mérignac Av. de la Marne", "raw_oneway": true, "raw_direction": "Sens Sortant", "raw_techno": "SIREDO", "osm_name": "Avenue de la Marne", "osm_type": "secondary", "osm_lanes": null, "osm_oneway": null, "osm_distance": 1.8645980089341916, "osmid": 548372051.0 }, "geometry": { "type": "Point", "coordinates": [ -0.6318041, 44.8351569 ] } },
{ "type": "Feature", "properties": { "AAWT": 5668.0, "TR_AAWT": null, "savg": null, "raw_name": "Villenave d'Ornon 246 Rte de Toulouse", "raw_oneway": true, "raw_direction": "Sens Entrant", "raw_techno": "BOUCLE", "osm_name": "Route de Toulouse", "osm_type": "primary", "osm_lanes": 2.0, "osm_oneway": "False", "osm_distance": 1.7805816170107092, "osmid": 163984491.0 }, "geometry": { "type": "Point", "coordinates": [ -0.5715465, 44.8032594 ] } },
{ "type": "Feature", "properties": { "AAWT": 5740.0, "TR_AAWT": 214.0, "savg": 31.0, "raw_name": "Mérignac face 153 Av. de la Somme", "raw_oneway": true, "raw_direction": "Sens Entrant", "raw_techno": "SIREDO", "osm_name": "Avenue de la Somme", "osm_type": "secondary", "osm_lanes": null, "osm_oneway": null, "osm_distance": 1.6672713363697553, "osmid": 25440128.0 }, "geometry": { "type": "Point", "coordinates": [ -0.6701526, 44.8280339 ] } },
{ "type": "Feature", "properties": { "AAWT": 4259.0, "TR_AAWT": null, "savg": null, "raw_name": "Villenave d'Ornon Rue Labro", "raw_oneway": true, "raw_direction": "Sens Sortant", "raw_techno": "BOUCLE", "osm_name": "Chemin Alexis Labro", "osm_type": "tertiary", "osm_lanes": 2.0, "osm_oneway": null, "osm_distance": 1.8446728692133989, "osmid": 25722952.0 }, "geometry": { "type": "Point", "coordinates": [ -0.5655128, 44.7882556 ] } },
{ "type": "Feature", "properties": { "AAWT": 13847.0, "TR_AAWT": 1284.0, "savg": 63.0, "raw_name": "Mérignac Av. François Mitterrand", "raw_oneway": true, "raw_direction": "Sens Sortant", "raw_techno": "SIREDO", "osm_name": "Avenue François Mitterrand", "osm_type": "primary", "osm_lanes": 2.0, "osm_oneway": null, "osm_distance": 1.3835475156375188, "osmid": 28104719.0 }, "geometry": { "type": "Point", "coordinates": [ -0.6967073, 44.8122853 ] } },
{ "type": "Feature", "properties": { "AAWT": 9760.0, "TR_AAWT": null, "savg": null, "raw_name": "Bordeaux Quai des Chartrons", "raw_oneway": true, "raw_direction": "Nord > Sud", "raw_techno": "BOUCLE", "osm_name": "Quai des Chartrons", "osm_type": "secondary", "osm_lanes": 2.0, "osm_oneway": "True", "osm_distance": 0.06887791081742646, "osmid": 195939203.0 }, "geometry": { "type": "Point", "coordinates": [ -0.5702856, 44.8492229 ] } },
{ "type": "Feature", "properties": { "AAWT": 3361.0, "TR_AAWT": null, "savg": null, "raw_name": "Bordeaux Rue Mouneyra après Dupeux", "raw_oneway": true, "raw_direction": "Sens Sortant", "raw_techno": "BOUCLE", "osm_name": "Rue Mouneyra", "osm_type": "residential", "osm_lanes": null, "osm_oneway": "True", "osm_distance": 0.13455758545962498, "osmid": 245320925.0 }, "geometry": { "type": "Point", "coordinates": [ -0.5886214, 44.8304541 ] } },
{ "type": "Feature", "properties": { "AAWT": 21401.0, "TR_AAWT": null, "savg": null, "raw_name": "Bordeaux Quai Grave après Allamandier", "raw_oneway": true, "raw_direction": "Sud > Nord", "raw_techno": "BOUCLE", "osm_name": "Quai de la Grave", "osm_type": "secondary", "osm_lanes": 2.0, "osm_oneway": "True", "osm_distance": 0.1004646389881967, "osmid": 24515739.0 }, "geometry": { "type": "Point", "coordinates": [ -0.5637112, 44.835321 ] } },
{ "type": "Feature", "properties": { "AAWT": 4058.0, "TR_AAWT": null, "savg": null, "raw_name": "Bordeaux 245 Rue du Tondu", "raw_oneway": true, "raw_direction": "Sens Entrant", "raw_techno": "BOUCLE", "osm_name": "Rue du Tondu", "osm_type": "tertiary", "osm_lanes": null, "osm_oneway": "True", "osm_distance": 0.33663335606557554, "osmid": 25860630.0 }, "geometry": { "type": "Point", "coordinates": [ -0.5920619, 44.8275412 ] } },
{ "type": "Feature", "properties": { "AAWT": 3178.0, "TR_AAWT": null, "savg": null, "raw_name": "Bordeaux Martinique", "raw_oneway": true, "raw_direction": "Sens Entrant", "raw_techno": "BOUCLE", "osm_name": "Cours de la Martinique", "osm_type": "tertiary", "osm_lanes": null, "osm_oneway": null, "osm_distance": 0.19721334104201158, "osmid": 163984524.0 }, "geometry": { "type": "Point", "coordinates": [ -0.5682806, 44.852531 ] } },
{ "type": "Feature", "properties": { "AAWT": 8648.0, "TR_AAWT": null, "savg": null, "raw_name": "Bordeaux Cours Galliéni après Quintin", "raw_oneway": true, "raw_direction": "Sens Sortant", "raw_techno": "BOUCLE", "osm_name": "Cours du Maréchal Gallieni", "osm_type": "primary", "osm_lanes": 2.0, "osm_oneway": null, "osm_distance": 2.2674954056159033, "osmid": 22750923.0 }, "geometry": { "type": "Point", "coordinates": [ -0.5941816, 44.8218025 ] } },
{ "type": "Feature", "properties": { "AAWT": 11197.0, "TR_AAWT": null, "savg": null, "raw_name": "Bordeaux Av. de Gaulle après Bocage", "raw_oneway": true, "raw_direction": "Sens Sortant", "raw_techno": "BOUCLE", "osm_name": "Avenue Charles de Gaulle", "osm_type": "secondary", "osm_lanes": null, "osm_oneway": "True", "osm_distance": 1.5932308628961454, "osmid": 35537541.0 }, "geometry": { "type": "Point", "coordinates": [ -0.6029098, 44.8497527 ] } },
{ "type": "Feature", "properties": { "AAWT": 5072.0, "TR_AAWT": null, "savg": null, "raw_name": "Talence Rue Vieille Tour après Lavoisier", "raw_oneway": true, "raw_direction": "Sens Entrant", "raw_techno": "BOUCLE", "osm_name": "Avenue de la Vieille Tour", "osm_type": "tertiary", "osm_lanes": null, "osm_oneway": "False", "osm_distance": 1.1125538137114002, "osmid": 442211139.0 }, "geometry": { "type": "Point", "coordinates": [ -0.6005876, 44.8151757 ] } },
{ "type": "Feature", "properties": { "AAWT": 4640.0, "TR_AAWT": null, "savg": null, "raw_name": "Bordeaux Av. Leclerc après St Amand", "raw_oneway": true, "raw_direction": "Sens Entrant", "raw_techno": "BOUCLE", "osm_name": "Avenue du Général Leclerc", "osm_type": "secondary", "osm_lanes": 2.0, "osm_oneway": "True", "osm_distance": 1.500405102535078, "osmid": 23678850.0 }, "geometry": { "type": "Point", "coordinates": [ -0.612732, 44.8546723 ] } },
{ "type": "Feature", "properties": { "AAWT": 9710.0, "TR_AAWT": null, "savg": null, "raw_name": "Bordeaux Béchade après giratoire", "raw_oneway": true, "raw_direction": "Sens Sortant", "raw_techno": "BOUCLE", "osm_name": "Rue de la Béchade", "osm_type": "tertiary", "osm_lanes": null, "osm_oneway": "False", "osm_distance": 0.68084499915175767, "osmid": 373868911.0 }, "geometry": { "type": "Point", "coordinates": [ -0.5988967, 44.8249089 ] } },
{ "type": "Feature", "properties": { "AAWT": 3672.0, "TR_AAWT": null, "savg": null, "raw_name": "Lormont Dupin après Lavergne", "raw_oneway": true, "raw_direction": "Av. de Paris> Pt Aquit", "raw_techno": "BOUCLE", "osm_name": "Rue André Dupin", "osm_type": "residential", "osm_lanes": null, "osm_oneway": null, "osm_distance": 1.554592595103738, "osmid": 432375194.0 }, "geometry": { "type": "Point", "coordinates": [ -0.5205961, 44.879648 ] } },
{ "type": "Feature", "properties": { "AAWT": 3954.0, "TR_AAWT": null, "savg": null, "raw_name": "Talence Cours Gambetta avant Lamartine", "raw_oneway": true, "raw_direction": "Sens Entrant", "raw_techno": "BOUCLE", "osm_name": "Cours Gambetta", "osm_type": "secondary", "osm_lanes": 1.0, "osm_oneway": "True", "osm_distance": 0.16971927650497434, "osmid": 42458344.0 }, "geometry": { "type": "Point", "coordinates": [ -0.5882141, 44.8144599 ] } },
{ "type": "Feature", "properties": { "AAWT": 12209.0, "TR_AAWT": null, "savg": null, "raw_name": "Eysines Av. du Médoc après G. Saux", "raw_oneway": true, "raw_direction": "Sens Sortant", "raw_techno": "BOUCLE", "osm_name": "Avenue du Médoc", "osm_type": "primary", "osm_lanes": 2.0, "osm_oneway": null, "osm_distance": 1.9191176165944883, "osmid": 771251362.0 }, "geometry": { "type": "Point", "coordinates": [ -0.6319957, 44.8832834 ] } },
{ "type": "Feature", "properties": { "AAWT": 4815.0, "TR_AAWT": null, "savg": null, "raw_name": "Talence Cours Gambetta après Pt SNCF", "raw_oneway": true, "raw_direction": "Sens Sortant", "raw_techno": "BOUCLE", "osm_name": "Cours Gambetta", "osm_type": "secondary", "osm_lanes": 1.0, "osm_oneway": "True", "osm_distance": 0.1368835398685147, "osmid": 22752234.0 }, "geometry": { "type": "Point", "coordinates": [ -0.5856086, 44.8172041 ] } },
{ "type": "Feature", "properties": { "AAWT": 8026.0, "TR_AAWT": null, "savg": null, "raw_name": "Le Bouscat Route du Médoc", "raw_oneway": true, "raw_direction": null, "raw_techno": "BOUCLE", "osm_name": "Route du Médoc", "osm_type": "secondary", "osm_lanes": null, "osm_oneway": "True", "osm_distance": 3.4679753885096218, "osmid": 769674456.0 }, "geometry": { "type": "Point", "coordinates": [ -0.6209694, 44.8759231 ] } },
{ "type": "Feature", "properties": { "AAWT": 4948.0, "TR_AAWT": null, "savg": null, "raw_name": "Talence Cours Gambetta avant Pt SNCF", "raw_oneway": true, "raw_direction": "Sens Entrant", "raw_techno": "BOUCLE", "osm_name": "Cours Gambetta", "osm_type": "secondary", "osm_lanes": 1.0, "osm_oneway": "True", "osm_distance": 0.047157657285387164, "osmid": 42458344.0 }, "geometry": { "type": "Point", "coordinates": [ -0.5856869, 44.8167291 ] } },
{ "type": "Feature", "properties": { "AAWT": 9719.0, "TR_AAWT": null, "savg": null, "raw_name": "Bruges Rte du Médocavant Croix du Vigean", "raw_oneway": true, "raw_direction": "Sens Sortant", "raw_techno": "BOUCLE", "osm_name": "Route du Médoc", "osm_type": "primary", "osm_lanes": 2.0, "osm_oneway": "True", "osm_distance": 1.3797794800360068, "osmid": 602241244.0 }, "geometry": { "type": "Point", "coordinates": [ -0.6283048, 44.8808416 ] } },
{ "type": "Feature", "properties": { "AAWT": 8044.0, "TR_AAWT": null, "savg": null, "raw_name": "Bordeaux 149 Blvd Albert 1er", "raw_oneway": true, "raw_direction": "Nord > Sud", "raw_techno": "BOUCLE", "osm_name": "Boulevard Albert 1er", "osm_type": "primary", "osm_lanes": 2.0, "osm_oneway": "True", "osm_distance": 0.49677082592949723, "osmid": 183268761.0 }, "geometry": { "type": "Point", "coordinates": [ -0.5643599, 44.8133303 ] } },
{ "type": "Feature", "properties": { "AAWT": 10284.0, "TR_AAWT": null, "savg": null, "raw_name": "Bruges Rte du Médoc  avant Hippodrome", "raw_oneway": true, "raw_direction": "Sens Entrant", "raw_techno": "BOUCLE", "osm_name": "Route du Médoc", "osm_type": "primary", "osm_lanes": 2.0, "osm_oneway": null, "osm_distance": 2.366735124619777, "osmid": 521828397.0 }, "geometry": { "type": "Point", "coordinates": [ -0.6239892, 44.8779626 ] } },
{ "type": "Feature", "properties": { "AAWT": 12421.0, "TR_AAWT": null, "savg": null, "raw_name": "Bordeaux Blvd Albert 1er après Daguin", "raw_oneway": true, "raw_direction": "Sud > Nord", "raw_techno": "BOUCLE", "osm_name": "Boulevard Albert 1er", "osm_type": "primary", "osm_lanes": 2.0, "osm_oneway": "True", "osm_distance": 0.69853344767081016, "osmid": 183268755.0 }, "geometry": { "type": "Point", "coordinates": [ -0.5616096, 44.812962 ] } },
{ "type": "Feature", "properties": { "AAWT": 6100.0, "TR_AAWT": null, "savg": null, "raw_name": "Eysines Av. de St Médard après Dubrana", "raw_oneway": true, "raw_direction": "Sens Sortant", "raw_techno": "BOUCLE", "osm_name": "Avenue de Saint-Médard", "osm_type": "secondary", "osm_lanes": null, "osm_oneway": null, "osm_distance": 2.7203588065481399, "osmid": 185996934.0 }, "geometry": { "type": "Point", "coordinates": [ -0.6391191, 44.8608559 ] } },
{ "type": "Feature", "properties": { "AAWT": 8478.0, "TR_AAWT": null, "savg": null, "raw_name": "Bordeaux 52 Blvd Albert 1er", "raw_oneway": true, "raw_direction": "Sud > Nord", "raw_techno": "BOUCLE", "osm_name": "Boulevard Albert 1er", "osm_type": "primary", "osm_lanes": 2.0, "osm_oneway": "True", "osm_distance": 0.9461319432277282, "osmid": 753328189.0 }, "geometry": { "type": "Point", "coordinates": [ -0.5682382, 44.8140437 ] } },
{ "type": "Feature", "properties": { "AAWT": 5926.0, "TR_AAWT": null, "savg": null, "raw_name": "Le Haillan G. Eiffel après Laplace", "raw_oneway": true, "raw_direction": "Sud > Nord", "raw_techno": "BOUCLE", "osm_name": "Avenue Gustave Eiffel", "osm_type": "unclassified", "osm_lanes": 2.0, "osm_oneway": null, "osm_distance": 2.5134593149359978, "osmid": 772253770.0 }, "geometry": { "type": "Point", "coordinates": [ -0.6672586, 44.8576537 ] } },
{ "type": "Feature", "properties": { "AAWT": 6105.0, "TR_AAWT": null, "savg": null, "raw_name": "Bordeaux Cours de la Somme après Rue Brun", "raw_oneway": true, "raw_direction": "Sens Sortant", "raw_techno": "BOUCLE", "osm_name": "Cours de la Somme", "osm_type": "secondary", "osm_lanes": 2.0, "osm_oneway": null, "osm_distance": 2.955761147562896, "osmid": 185627031.0 }, "geometry": { "type": "Point", "coordinates": [ -0.572279, 44.8167011 ] } },
{ "type": "Feature", "properties": { "AAWT": 6251.0, "TR_AAWT": null, "savg": null, "raw_name": "Le Haillan Av. Pasteur après Chavailles", "raw_oneway": true, "raw_direction": "Sens Entrant", "raw_techno": "BOUCLE", "osm_name": "Avenue Pasteur", "osm_type": "secondary", "osm_lanes": null, "osm_oneway": null, "osm_distance": 3.4115287851027642, "osmid": 602166298.0 }, "geometry": { "type": "Point", "coordinates": [ -0.681077, 44.8778901 ] } },
{ "type": "Feature", "properties": { "AAWT": 6842.0, "TR_AAWT": null, "savg": null, "raw_name": "Bordeaux Rte Toulouse après Suzon", "raw_oneway": true, "raw_direction": "Sens Entrant", "raw_techno": "BOUCLE", "osm_name": null, "osm_type": "service", "osm_lanes": null, "osm_oneway": null, "osm_distance": 4.6766772269069223, "osmid": 885198530.0 }, "geometry": { "type": "Point", "coordinates": [ -0.5728539, 44.8139833 ] } },
{ "type": "Feature", "properties": { "AAWT": 2697.0, "TR_AAWT": null, "savg": null, "raw_name": "Mérignac Daudet avant Magudas", "raw_oneway": true, "raw_direction": "Sud > Nord", "raw_techno": "BOUCLE", "osm_name": "Rue Alphonse Daudet", "osm_type": "tertiary", "osm_lanes": 2.0, "osm_oneway": "True", "osm_distance": 2.176422893093271, "osmid": 157086937.0 }, "geometry": { "type": "Point", "coordinates": [ -0.6596163, 44.8568776 ] } },
{ "type": "Feature", "properties": { "AAWT": 9104.0, "TR_AAWT": null, "savg": null, "raw_name": "Bordeaux Rue Ecole Normale", "raw_oneway": true, "raw_direction": "Sens Entrant", "raw_techno": "BOUCLE", "osm_name": "Rue de l'École Normale", "osm_type": "secondary", "osm_lanes": null, "osm_oneway": "True", "osm_distance": 1.2051526512162902, "osmid": 32881304.0 }, "geometry": { "type": "Point", "coordinates": [ -0.6020558, 44.8478334 ] } },
{ "type": "Feature", "properties": { "AAWT": 8016.0, "TR_AAWT": null, "savg": null, "raw_name": "Bordeaux Allée de Boutaut avant Laroque", "raw_oneway": true, "raw_direction": "Sens Sortant", "raw_techno": "BOUCLE", "osm_name": "Allée de Boutaut", "osm_type": "secondary", "osm_lanes": 2.0, "osm_oneway": "True", "osm_distance": 0.022698394263790417, "osmid": 196116945.0 }, "geometry": { "type": "Point", "coordinates": [ -0.576322, 44.8727517 ] } },
{ "type": "Feature", "properties": { "AAWT": 1267.0, "TR_AAWT": null, "savg": null, "raw_name": "Bordeaux Croix Blanche après Jean Soula", "raw_oneway": true, "raw_direction": "Sens Entrant", "raw_techno": "BOUCLE", "osm_name": "Rue de la Croix Blanche", "osm_type": "tertiary", "osm_lanes": 2.0, "osm_oneway": "True", "osm_distance": 0.95646149002425873, "osmid": 23605564.0 }, "geometry": { "type": "Point", "coordinates": [ -0.5914831, 44.8449704 ] } },
{ "type": "Feature", "properties": { "AAWT": 1107.0, "TR_AAWT": null, "savg": null, "raw_name": "Bordeaux Brunet avant Brandenburg", "raw_oneway": true, "raw_direction": "Sens Entrant", "raw_techno": "BOUCLE", "osm_name": "Rue Joseph Brunet", "osm_type": "residential", "osm_lanes": null, "osm_oneway": "False", "osm_distance": 2.2108551250864994, "osmid": 23157928.0 }, "geometry": { "type": "Point", "coordinates": [ -0.5442623, 44.8773476 ] } },
{ "type": "Feature", "properties": { "AAWT": 4013.0, "TR_AAWT": null, "savg": null, "raw_name": "Bordeaux Cours de la Libération", "raw_oneway": true, "raw_direction": "Sens Sortant", "raw_techno": "BOUCLE", "osm_name": "Avenue de la Libération", "osm_type": "secondary", "osm_lanes": null, "osm_oneway": "True", "osm_distance": 0.77219380878902755, "osmid": 194643851.0 }, "geometry": { "type": "Point", "coordinates": [ -0.5944385, 44.8544853 ] } },
{ "type": "Feature", "properties": { "AAWT": 2363.0, "TR_AAWT": null, "savg": null, "raw_name": "Bègles Moga  après Durcy", "raw_oneway": true, "raw_direction": "Sens Entrant", "raw_techno": "BOUCLE", "osm_name": "Rue des Frères Moga", "osm_type": "residential", "osm_lanes": null, "osm_oneway": "True", "osm_distance": 0.469730594319683, "osmid": 256985772.0 }, "geometry": { "type": "Point", "coordinates": [ -0.5512679, 44.7993814 ] } },
{ "type": "Feature", "properties": { "AAWT": 12751.0, "TR_AAWT": null, "savg": null, "raw_name": "Bordeaux Blvd Godard avant Trébod", "raw_oneway": true, "raw_direction": "Sud > Nord", "raw_techno": "BOUCLE", "osm_name": "Boulevard Godard", "osm_type": "primary", "osm_lanes": 2.0, "osm_oneway": "True", "osm_distance": 0.7164119642861464, "osmid": 117660896.0 }, "geometry": { "type": "Point", "coordinates": [ -0.5890063, 44.8597906 ] } },
{ "type": "Feature", "properties": { "AAWT": 7519.0, "TR_AAWT": null, "savg": null, "raw_name": "Pessac Av. Leclerc après Meyraud", "raw_oneway": true, "raw_direction": "Sens Sortant", "raw_techno": "BOUCLE", "osm_name": "Avenue du Général Leclerc", "osm_type": "primary", "osm_lanes": null, "osm_oneway": "True", "osm_distance": 0.66939007581202481, "osmid": 580826392.0 }, "geometry": { "type": "Point", "coordinates": [ -0.6656195, 44.7973367 ] } },
{ "type": "Feature", "properties": { "AAWT": 7437.0, "TR_AAWT": null, "savg": null, "raw_name": "Bordeaux Quai Chartrons avant Chantecrit", "raw_oneway": true, "raw_direction": "Sud > Nord", "raw_techno": "BOUCLE", "osm_name": "Quai de Bacalan", "osm_type": "secondary", "osm_lanes": 2.0, "osm_oneway": "True", "osm_distance": 0.13756715178939111, "osmid": 35445876.0 }, "geometry": { "type": "Point", "coordinates": [ -0.5597276, 44.8574056 ] } },
{ "type": "Feature", "properties": { "AAWT": 3789.0, "TR_AAWT": null, "savg": null, "raw_name": "Pessac Haut Lévèque avant Matisse", "raw_oneway": true, "raw_direction": "Sud > Nord", "raw_techno": "BOUCLE", "osm_name": "Avenue du Haut-Lévêque", "osm_type": "secondary", "osm_lanes": null, "osm_oneway": null, "osm_distance": 2.6557998462966879, "osmid": 580601498.0 }, "geometry": { "type": "Point", "coordinates": [ -0.6562515, 44.7892927 ] } },
{ "type": "Feature", "properties": { "AAWT": 5959.0, "TR_AAWT": null, "savg": null, "raw_name": "Bordeaux Quai de Bacalan après L. Faure", "raw_oneway": true, "raw_direction": "Nord > Sud", "raw_techno": "BOUCLE", "osm_name": "Quai de Bacalan", "osm_type": "secondary", "osm_lanes": 1.0, "osm_oneway": "True", "osm_distance": 0.19748759819290407, "osmid": 834287945.0 }, "geometry": { "type": "Point", "coordinates": [ -0.5542572, 44.8600107 ] } },
{ "type": "Feature", "properties": { "AAWT": 6715.0, "TR_AAWT": null, "savg": null, "raw_name": "Pessac Pasteur après Haut-Lévêque", "raw_oneway": true, "raw_direction": "Sens Entrant", "raw_techno": "BOUCLE", "osm_name": "Avenue Pasteur", "osm_type": "primary", "osm_lanes": null, "osm_oneway": "True", "osm_distance": 0.27573850183921095, "osmid": 103823483.0 }, "geometry": { "type": "Point", "coordinates": [ -0.662058, 44.7996042 ] } },
{ "type": "Feature", "properties": { "AAWT": 8394.0, "TR_AAWT": null, "savg": null, "raw_name": "Bordeaux Cours Balguerie Stuttenberg", "raw_oneway": true, "raw_direction": "Sens Sortant", "raw_techno": "BOUCLE", "osm_name": "Cours Balguerie Stuttenberg", "osm_type": "secondary", "osm_lanes": 2.0, "osm_oneway": "True", "osm_distance": 0.57863872912158787, "osmid": 213850495.0 }, "geometry": { "type": "Point", "coordinates": [ -0.5630634, 44.8610213 ] } },
{ "type": "Feature", "properties": { "AAWT": 7421.0, "TR_AAWT": null, "savg": null, "raw_name": "Pessac Pasteur avant l'Alouette", "raw_oneway": true, "raw_direction": "Sens Sortant", "raw_techno": "BOUCLE", "osm_name": "Avenue Pasteur", "osm_type": "primary", "osm_lanes": null, "osm_oneway": "True", "osm_distance": 1.6761718310724647, "osmid": 258642026.0 }, "geometry": { "type": "Point", "coordinates": [ -0.6619426, 44.7996996 ] } },
{ "type": "Feature", "properties": { "AAWT": 5672.0, "TR_AAWT": null, "savg": null, "raw_name": "Bordeaux Boulevard Alfred Daney", "raw_oneway": true, "raw_direction": "Sens Entrant", "raw_techno": "BOUCLE", "osm_name": "Boulevard Alfred Daney", "osm_type": "secondary", "osm_lanes": 2.0, "osm_oneway": "True", "osm_distance": 0.14896527258490236, "osmid": 213844111.0 }, "geometry": { "type": "Point", "coordinates": [ -0.5639623, 44.870959 ] } },
{ "type": "Feature", "properties": { "AAWT": 4664.0, "TR_AAWT": null, "savg": null, "raw_name": "Pessac Av. du Haut Lévêque après le CHR", "raw_oneway": true, "raw_direction": "Sud > Nord", "raw_techno": "BOUCLE", "osm_name": "Avenue du Haut-Lévêque", "osm_type": "secondary", "osm_lanes": null, "osm_oneway": "True", "osm_distance": 0.1986086254522354, "osmid": 335395727.0 }, "geometry": { "type": "Point", "coordinates": [ -0.6619654, 44.7970702 ] } },
{ "type": "Feature", "properties": { "AAWT": 14324.0, "TR_AAWT": null, "savg": null, "raw_name": "Bordeaux Pont Chaban Delmas", "raw_oneway": true, "raw_direction": "Sens Entrant", "raw_techno": "BOUCLE", "osm_name": "Pont Jacques Chaban-Delmas", "osm_type": "primary", "osm_lanes": 2.0, "osm_oneway": "True", "osm_distance": 0.8956006136426552, "osmid": 458508480.0 }, "geometry": { "type": "Point", "coordinates": [ -0.5497848, 44.856487 ] } },
{ "type": "Feature", "properties": { "AAWT": 8465.0, "TR_AAWT": null, "savg": null, "raw_name": "St Médard Av. Montaigne après Rue Capsec", "raw_oneway": true, "raw_direction": "Sens Entrant", "raw_techno": "BOUCLE", "osm_name": "Avenue Montaigne", "osm_type": "secondary", "osm_lanes": null, "osm_oneway": null, "osm_distance": 3.2044338711215676, "osmid": 4646557.0 }, "geometry": { "type": "Point", "coordinates": [ -0.7036716, 44.8881975 ] } },
{ "type": "Feature", "properties": { "AAWT": 16126.0, "TR_AAWT": null, "savg": null, "raw_name": "Bordeaux Pont Chaban Delmas", "raw_oneway": true, "raw_direction": "Sens Sortant", "raw_techno": "BOUCLE", "osm_name": "Pont Jacques Chaban-Delmas", "osm_type": "primary", "osm_lanes": 2.0, "osm_oneway": "True", "osm_distance": 3.1842749965197781, "osmid": 46120915.0 }, "geometry": { "type": "Point", "coordinates": [ -0.5535621, 44.8599429 ] } },
{ "type": "Feature", "properties": { "AAWT": 4804.0, "TR_AAWT": null, "savg": null, "raw_name": "Floirac Dubedout avant Allende", "raw_oneway": true, "raw_direction": "Sens Sortant", "raw_techno": "BOUCLE", "osm_name": "Avenue Hubert Dubedout", "osm_type": "secondary", "osm_lanes": 2.0, "osm_oneway": null, "osm_distance": 1.1710833688494993, "osmid": 41597289.0 }, "geometry": { "type": "Point", "coordinates": [ -0.5119886, 44.8469571 ] } },
{ "type": "Feature", "properties": { "AAWT": 8719.0, "TR_AAWT": null, "savg": null, "raw_name": "Le Bouscat Allée de Boutaut", "raw_oneway": true, "raw_direction": "Sens Entrant", "raw_techno": "BOUCLE", "osm_name": "Allée de Boutaut", "osm_type": "secondary", "osm_lanes": 1.0, "osm_oneway": "True", "osm_distance": 0.27133254480460145, "osmid": 196116946.0 }, "geometry": { "type": "Point", "coordinates": [ -0.5759689, 44.8672419 ] } },
{ "type": "Feature", "properties": { "AAWT": 6350.0, "TR_AAWT": null, "savg": null, "raw_name": "Bordeaux Cursol après Pasteur", "raw_oneway": true, "raw_direction": "Sens Entrant", "raw_techno": "BOUCLE", "osm_name": "Rue de Cursol", "osm_type": "secondary", "osm_lanes": 2.0, "osm_oneway": null, "osm_distance": 1.3275985557607171, "osmid": 189536169.0 }, "geometry": { "type": "Point", "coordinates": [ -0.5756565, 44.8350142 ] } },
{ "type": "Feature", "properties": { "AAWT": 6991.0, "TR_AAWT": null, "savg": null, "raw_name": "Bordeaux Allée de Boutaut", "raw_oneway": true, "raw_direction": "Sens Sortant", "raw_techno": "BOUCLE", "osm_name": "Allée de Boutaut", "osm_type": "secondary", "osm_lanes": 2.0, "osm_oneway": "True", "osm_distance": 0.36900147280691292, "osmid": 1178059213.0 }, "geometry": { "type": "Point", "coordinates": [ -0.5756295, 44.8664314 ] } },
{ "type": "Feature", "properties": { "AAWT": 4733.0, "TR_AAWT": null, "savg": null, "raw_name": "Bordeaux Pl République vers Cursol", "raw_oneway": true, "raw_direction": "Sens Sortant", "raw_techno": "BOUCLE", "osm_name": "Place de la République", "osm_type": "secondary", "osm_lanes": 2.0, "osm_oneway": null, "osm_distance": 1.3304504911152983, "osmid": 1005161837.0 }, "geometry": { "type": "Point", "coordinates": [ -0.579937, 44.8346616 ] } },
{ "type": "Feature", "properties": { "AAWT": 22416.0, "TR_AAWT": null, "savg": null, "raw_name": "Bordeaux Blvd A d'Aquitaine avant Latule", "raw_oneway": true, "raw_direction": "Sens Entrant", "raw_techno": "BOUCLE", "osm_name": "Boulevard Aliénor d'Aquitaine", "osm_type": "trunk", "osm_lanes": 2.0, "osm_oneway": "True", "osm_distance": 0.5516141932084343, "osmid": 688359563.0 }, "geometry": { "type": "Point", "coordinates": [ -0.5651702, 44.8739855 ] } },
{ "type": "Feature", "properties": { "AAWT": 1645.0, "TR_AAWT": null, "savg": null, "raw_name": "Bordeaux Descente => porte Cailhau", "raw_oneway": true, "raw_direction": "Bretelle Sud > Nord Descente > porte Cailhau", "raw_techno": "BOUCLE", "osm_name": "Quai Richelieu", "osm_type": "secondary_link", "osm_lanes": 1.0, "osm_oneway": "True", "osm_distance": 0.20095577729393588, "osmid": 5117192.0 }, "geometry": { "type": "Point", "coordinates": [ -0.5657687, 44.8372521 ] } },
{ "type": "Feature", "properties": { "AAWT": 2903.0, "TR_AAWT": null, "savg": null, "raw_name": "Bordeaux Martinique vers quais", "raw_oneway": true, "raw_direction": "Centre Ville Sortant", "raw_techno": "BOUCLE", "osm_name": "Cours de la Martinique", "osm_type": "tertiary", "osm_lanes": null, "osm_oneway": null, "osm_distance": 1.5574882919283333, "osmid": 163984524.0 }, "geometry": { "type": "Point", "coordinates": [ -0.5710787, 44.8537514 ] } },
{ "type": "Feature", "properties": { "AAWT": 1647.0, "TR_AAWT": null, "savg": null, "raw_name": "Bordeaux Juin après Belfort", "raw_oneway": true, "raw_direction": "Sens Entrant", "raw_techno": "BOUCLE", "osm_name": "Cours du Maréchal Juin", "osm_type": "secondary", "osm_lanes": 2.0, "osm_oneway": "True", "osm_distance": 0.39752668715931339, "osmid": 23245852.0 }, "geometry": { "type": "Point", "coordinates": [ -0.5822065, 44.8360294 ] } },
{ "type": "Feature", "properties": { "AAWT": 5049.0, "TR_AAWT": null, "savg": null, "raw_name": "Bordeaux Cours Portal après Doumer", "raw_oneway": true, "raw_direction": "Sens Sortant", "raw_techno": "BOUCLE", "osm_name": "Cours Portal", "osm_type": "secondary", "osm_lanes": 2.0, "osm_oneway": null, "osm_distance": 1.4322552754091233, "osmid": 194650352.0 }, "geometry": { "type": "Point", "coordinates": [ -0.573105, 44.8528892 ] } },
{ "type": "Feature", "properties": { "AAWT": 5737.0, "TR_AAWT": null, "savg": null, "raw_name": "Bordeaux Juin A.France", "raw_oneway": true, "raw_direction": "Sens Sortant", "raw_techno": "BOUCLE", "osm_name": "Cours du Maréchal Juin", "osm_type": "secondary", "osm_lanes": null, "osm_oneway": "True", "osm_distance": 0.28851474815794248, "osmid": 23158027.0 }, "geometry": { "type": "Point", "coordinates": [ -0.5839379, 44.8358328 ] } },
{ "type": "Feature", "properties": { "AAWT": 646.0, "TR_AAWT": null, "savg": null, "raw_name": "Bordeaux Cours E. de Fayolle après Doumer", "raw_oneway": true, "raw_direction": "Sens Sortant", "raw_techno": "BOUCLE", "osm_name": "Cours Évrard de Fayolle", "osm_type": "residential", "osm_lanes": null, "osm_oneway": "True", "osm_distance": 0.087493164573247462, "osmid": 171792011.0 }, "geometry": { "type": "Point", "coordinates": [ -0.5742126, 44.8527806 ] } },
{ "type": "Feature", "properties": { "AAWT": 6441.0, "TR_AAWT": null, "savg": null, "raw_name": "Mérignac Av. Mendès-France", "raw_oneway": true, "raw_direction": "Nord > Sud", "raw_techno": "BOUCLE", "osm_name": "Avenue Pierre Mendès-France", "osm_type": "secondary", "osm_lanes": 2.0, "osm_oneway": null, "osm_distance": 3.9708932808837183, "osmid": 24565200.0 }, "geometry": { "type": "Point", "coordinates": [ -0.637387, 44.8254007 ] } },
{ "type": "Feature", "properties": { "AAWT": 3508.0, "TR_AAWT": null, "savg": null, "raw_name": "Bordeaux Rue Godard après Lagrange", "raw_oneway": true, "raw_direction": "de Lagrange  > Counord", "raw_techno": "BOUCLE", "osm_name": "Rue Camille Godard", "osm_type": "tertiary", "osm_lanes": null, "osm_oneway": null, "osm_distance": 0.63879976518883974, "osmid": 194779077.0 }, "geometry": { "type": "Point", "coordinates": [ -0.5767243, 44.8550276 ] } },
{ "type": "Feature", "properties": { "AAWT": 5770.0, "TR_AAWT": null, "savg": null, "raw_name": "Mérignac Av. Mendès-France", "raw_oneway": true, "raw_direction": "Nord > Sud", "raw_techno": "BOUCLE", "osm_name": "Avenue Pierre Mendès-France", "osm_type": "secondary", "osm_lanes": null, "osm_oneway": "True", "osm_distance": 0.028740550334409618, "osmid": 47431003.0 }, "geometry": { "type": "Point", "coordinates": [ -0.6405681, 44.8323346 ] } },
{ "type": "Feature", "properties": { "AAWT": 2450.0, "TR_AAWT": null, "savg": null, "raw_name": "Pessac Av. Bougnard", "raw_oneway": true, "raw_direction": "Sens Entrant", "raw_techno": "BOUCLE", "osm_name": "Avenue Bougnard", "osm_type": "secondary", "osm_lanes": 2.0, "osm_oneway": null, "osm_distance": 1.2965027270027674, "osmid": 443665562.0 }, "geometry": { "type": "Point", "coordinates": [ -0.6358201, 44.7940224 ] } },
{ "type": "Feature", "properties": { "AAWT": 2239.0, "TR_AAWT": null, "savg": null, "raw_name": "Mérignac Eyquems avant Rue Bourly", "raw_oneway": true, "raw_direction": "Sens Entrant", "raw_techno": "BOUCLE", "osm_name": "Avenue des Eyquems", "osm_type": "tertiary", "osm_lanes": 2.0, "osm_oneway": null, "osm_distance": 1.1010696429787687, "osmid": 47431005.0 }, "geometry": { "type": "Point", "coordinates": [ -0.6361679, 44.8297563 ] } },
{ "type": "Feature", "properties": { "AAWT": 3296.0, "TR_AAWT": null, "savg": null, "raw_name": "Pessac Rue Cohé Centre après Pénard", "raw_oneway": true, "raw_direction": "Nord > Sud", "raw_techno": "BOUCLE", "osm_name": "Avenue Roger Cohé", "osm_type": "tertiary", "osm_lanes": null, "osm_oneway": null, "osm_distance": 1.7725126614223983, "osmid": 51265903.0 }, "geometry": { "type": "Point", "coordinates": [ -0.6323673, 44.8079654 ] } },
{ "type": "Feature", "properties": { "AAWT": 12989.0, "TR_AAWT": null, "savg": null, "raw_name": "Bassens Rd p Ricard > côte de la Garonne", "raw_oneway": true, "raw_direction": "Sud > Nord", "raw_techno": "BOUCLE", "osm_name": null, "osm_type": "secondary", "osm_lanes": 1.0, "osm_oneway": "True", "osm_distance": 0.2318010781640642, "osmid": 28146415.0 }, "geometry": { "type": "Point", "coordinates": [ -0.5170783, 44.8837472 ] } },
{ "type": "Feature", "properties": { "AAWT": 5782.0, "TR_AAWT": null, "savg": null, "raw_name": "Pessac Rue Chateaubriand aprè Lamartine", "raw_oneway": true, "raw_direction": "Sud > Nord", "raw_techno": "BOUCLE", "osm_name": "Rue Châteaubriand", "osm_type": "secondary", "osm_lanes": 2.0, "osm_oneway": "False", "osm_distance": 6.1384070449952821, "osmid": 980868452.0 }, "geometry": { "type": "Point", "coordinates": [ -0.6264487, 44.805871 ] } },
{ "type": "Feature", "properties": { "AAWT": 7215.0, "TR_AAWT": null, "savg": null, "raw_name": "Bassens Bourdieu avant Beaumont", "raw_oneway": true, "raw_direction": "Nord > Sud", "raw_techno": "BOUCLE", "osm_name": "Avenue Raoul Bourdieu", "osm_type": "tertiary", "osm_lanes": null, "osm_oneway": "True", "osm_distance": 0.79696882064095853, "osmid": 597872259.0 }, "geometry": { "type": "Point", "coordinates": [ -0.5169007, 44.8950734 ] } },
{ "type": "Feature", "properties": { "AAWT": 4539.0, "TR_AAWT": null, "savg": null, "raw_name": "Pessac Av. Jean Jaurès après Chiquet", "raw_oneway": true, "raw_direction": "Sens Entrant", "raw_techno": "BOUCLE", "osm_name": "Avenue Jean Jaurès", "osm_type": "primary", "osm_lanes": null, "osm_oneway": "True", "osm_distance": 0.4575392823666794, "osmid": 1351616735.0 }, "geometry": { "type": "Point", "coordinates": [ -0.6253713, 44.8081266 ] } },
{ "type": "Feature", "properties": { "AAWT": 3921.0, "TR_AAWT": null, "savg": null, "raw_name": "Bordeaux Rue Lamourous avant St. Genès.", "raw_oneway": true, "raw_direction": "Sens Sortant", "raw_techno": "BOUCLE", "osm_name": "Rue Lamourous", "osm_type": "tertiary", "osm_lanes": null, "osm_oneway": "True", "osm_distance": 0.83862739658015029, "osmid": 23164619.0 }, "geometry": { "type": "Point", "coordinates": [ -0.5805392, 44.8291587 ] } },
{ "type": "Feature", "properties": { "AAWT": 2559.0, "TR_AAWT": null, "savg": null, "raw_name": "Pessac Cordier après Cimetière", "raw_oneway": true, "raw_direction": "Sens Sortant", "raw_techno": "BOUCLE", "osm_name": "Avenue Jean Cordier", "osm_type": "tertiary", "osm_lanes": 2.0, "osm_oneway": null, "osm_distance": 2.4323873561212714, "osmid": 24552558.0 }, "geometry": { "type": "Point", "coordinates": [ -0.6256666, 44.8105199 ] } },
{ "type": "Feature", "properties": { "AAWT": 5098.0, "TR_AAWT": null, "savg": null, "raw_name": "Bordeaux Cours de la Marne après Meunier", "raw_oneway": true, "raw_direction": "Sens gare vers Victoire", "raw_techno": "BOUCLE", "osm_name": "Cours de la Marne", "osm_type": "secondary", "osm_lanes": null, "osm_oneway": null, "osm_distance": 1.800520844218735, "osmid": 216852217.0 }, "geometry": { "type": "Point", "coordinates": [ -0.5641726, 44.8289612 ] } },
{ "type": "Feature", "properties": { "AAWT": 7202.0, "TR_AAWT": null, "savg": null, "raw_name": "Talence 552 Cours  Libération", "raw_oneway": true, "raw_direction": "Sens Entrant", "raw_techno": "BOUCLE", "osm_name": "Cours de la Libération", "osm_type": "secondary", "osm_lanes": 1.0, "osm_oneway": "True", "osm_distance": 0.087093896710167623, "osmid": 47349785.0 }, "geometry": { "type": "Point", "coordinates": [ -0.595159, 44.8009276 ] } },
{ "type": "Feature", "properties": { "AAWT": 3444.0, "TR_AAWT": null, "savg": null, "raw_name": "Bordeaux Rue Michelet après St Sernin", "raw_oneway": true, "raw_direction": "Sens Entrant", "raw_techno": "BOUCLE", "osm_name": "Rue Edmond Michelet", "osm_type": "secondary", "osm_lanes": 2.0, "osm_oneway": "True", "osm_distance": 0.039360322360228968, "osmid": 180549976.0 }, "geometry": { "type": "Point", "coordinates": [ -0.581801, 44.8400909 ] } },
{ "type": "Feature", "properties": { "AAWT": 6935.0, "TR_AAWT": null, "savg": null, "raw_name": "Talence 455 Cours de la Libération", "raw_oneway": true, "raw_direction": "Sens Entrant", "raw_techno": "BOUCLE", "osm_name": "Cours de la Libération", "osm_type": "secondary", "osm_lanes": 1.0, "osm_oneway": "True", "osm_distance": 0.02279279836624969, "osmid": 500911769.0 }, "geometry": { "type": "Point", "coordinates": [ -0.5936051, 44.8020646 ] } },
{ "type": "Feature", "properties": { "AAWT": 5124.0, "TR_AAWT": null, "savg": null, "raw_name": "Bordeaux Cours de Verdun avant Gourgues", "raw_oneway": true, "raw_direction": "Sud > Nord", "raw_techno": "BOUCLE", "osm_name": "Cours de Verdun", "osm_type": "secondary", "osm_lanes": 2.0, "osm_oneway": "True", "osm_distance": 0.89770817401091796, "osmid": 816743253.0 }, "geometry": { "type": "Point", "coordinates": [ -0.5769622, 44.8466148 ] } },
{ "type": "Feature", "properties": { "AAWT": 3527.0, "TR_AAWT": null, "savg": null, "raw_name": "Gradignan F. de Monjous avant de Gaulle", "raw_oneway": true, "raw_direction": "Sud > Nord", "raw_techno": "BOUCLE", "osm_name": "Rue des Fontaines de Monjous", "osm_type": "tertiary", "osm_lanes": 2.0, "osm_oneway": null, "osm_distance": 1.6082274881891803, "osmid": 749297201.0 }, "geometry": { "type": "Point", "coordinates": [ -0.6081029, 44.7778618 ] } },
{ "type": "Feature", "properties": { "AAWT": 8528.0, "TR_AAWT": null, "savg": null, "raw_name": "Bordeaux Cours de Verdun", "raw_oneway": true, "raw_direction": "Nord > Sud", "raw_techno": "BOUCLE", "osm_name": "Cours de Verdun", "osm_type": "secondary", "osm_lanes": 2.0, "osm_oneway": "True", "osm_distance": 0.37716414674127102, "osmid": 27332723.0 }, "geometry": { "type": "Point", "coordinates": [ -0.5775707, 44.8457653 ] } },
{ "type": "Feature", "properties": { "AAWT": 4380.0, "TR_AAWT": null, "savg": null, "raw_name": "Gradignan Lahouneau avant de Gaulle", "raw_oneway": true, "raw_direction": "Nord > Sud", "raw_techno": "BOUCLE", "osm_name": "Rue de Lahouneau", "osm_type": "tertiary", "osm_lanes": null, "osm_oneway": null, "osm_distance": 1.5641737719971112, "osmid": 590541118.0 }, "geometry": { "type": "Point", "coordinates": [ -0.6111968, 44.7791829 ] } },
{ "type": "Feature", "properties": { "AAWT": 9498.0, "TR_AAWT": null, "savg": null, "raw_name": "Bordeaux Cours Clémenceau avant Buffon", "raw_oneway": true, "raw_direction": "Sud > Nord", "raw_techno": "BOUCLE", "osm_name": "Cours Georges Clemenceau", "osm_type": "secondary", "osm_lanes": 2.0, "osm_oneway": "True", "osm_distance": 0.97625409217124803, "osmid": 180933629.0 }, "geometry": { "type": "Point", "coordinates": [ -0.5786597, 44.84389 ] } },
{ "type": "Feature", "properties": { "AAWT": 2926.0, "TR_AAWT": null, "savg": null, "raw_name": "Villenave d'Ornon Labro vers Bègles", "raw_oneway": true, "raw_direction": "Sens Entrant", "raw_techno": "BOUCLE", "osm_name": "Chemin Alexis Labro", "osm_type": "tertiary", "osm_lanes": 2.0, "osm_oneway": null, "osm_distance": 2.171467288744279, "osmid": 25722952.0 }, "geometry": { "type": "Point", "coordinates": [ -0.5660387, 44.7877349 ] } },
{ "type": "Feature", "properties": { "AAWT": 2500.0, "TR_AAWT": null, "savg": null, "raw_name": "Bordeaux Rue d'Aviau avant Ducau", "raw_oneway": true, "raw_direction": "Sens Sortant", "raw_techno": "BOUCLE", "osm_name": "Rue d'Aviau", "osm_type": "secondary", "osm_lanes": null, "osm_oneway": "False", "osm_distance": 1.4971245171540333, "osmid": 860693189.0 }, "geometry": { "type": "Point", "coordinates": [ -0.5759775, 44.8498835 ] } },
{ "type": "Feature", "properties": { "AAWT": 11529.0, "TR_AAWT": null, "savg": null, "raw_name": "Villenave d'Ornon bretelle sortie int.", "raw_oneway": true, "raw_direction": "Bretelle sortie rocade intérieure", "raw_techno": "BOUCLE", "osm_name": null, "osm_type": "motorway_link", "osm_lanes": 2.0, "osm_oneway": "True", "osm_distance": 0.35698271314640667, "osmid": 754113708.0 }, "geometry": { "type": "Point", "coordinates": [ -0.5642516, 44.778297 ] } },
{ "type": "Feature", "properties": { "AAWT": 2727.0, "TR_AAWT": null, "savg": null, "raw_name": "Bordeaux Rue Judaïque après C. d'Eau", "raw_oneway": true, "raw_direction": "Sens Sortant", "raw_techno": "BOUCLE", "osm_name": "Rue Judaïque", "osm_type": "secondary", "osm_lanes": 1.0, "osm_oneway": "True", "osm_distance": 0.63159393315812151, "osmid": 185751347.0 }, "geometry": { "type": "Point", "coordinates": [ -0.5841386, 44.8413913 ] } },
{ "type": "Feature", "properties": { "AAWT": 7276.0, "TR_AAWT": null, "savg": null, "raw_name": "Villenave d'Ornon Toulouse Chatry/Labro", "raw_oneway": true, "raw_direction": "Sens Sortant", "raw_techno": "BOUCLE", "osm_name": "Route de Toulouse", "osm_type": "primary", "osm_lanes": 2.0, "osm_oneway": null, "osm_distance": 3.7757974893379442, "osmid": 411641053.0 }, "geometry": { "type": "Point", "coordinates": [ -0.5666828, 44.7884605 ] } },
{ "type": "Feature", "properties": { "AAWT": 923.0, "TR_AAWT": null, "savg": null, "raw_name": "Bordeaux Cours de la Marne après Malbec", "raw_oneway": true, "raw_direction": "Nord > Sud", "raw_techno": "BOUCLE", "osm_name": "Cours de la Marne", "osm_type": "secondary", "osm_lanes": 2.0, "osm_oneway": null, "osm_distance": 2.0613033077555349, "osmid": 79504725.0 }, "geometry": { "type": "Point", "coordinates": [ -0.5602663, 44.8280286 ] } },
{ "type": "Feature", "properties": { "AAWT": 6413.0, "TR_AAWT": null, "savg": null, "raw_name": "Villenave d'Ornon Av. Georges Clémenceau", "raw_oneway": true, "raw_direction": "Sens Entrant", "raw_techno": "BOUCLE", "osm_name": "Avenue Georges Clemenceau", "osm_type": "tertiary", "osm_lanes": 2.0, "osm_oneway": null, "osm_distance": 2.9946964167836181, "osmid": 797155457.0 }, "geometry": { "type": "Point", "coordinates": [ -0.5642214, 44.7815844 ] } },
{ "type": "Feature", "properties": { "AAWT": 8994.0, "TR_AAWT": null, "savg": null, "raw_name": "Bordeaux Quai Deschamps", "raw_oneway": true, "raw_direction": "Nord > Sud", "raw_techno": "BOUCLE", "osm_name": "Quai Deschamps", "osm_type": "secondary", "osm_lanes": 2.0, "osm_oneway": "True", "osm_distance": 8.1182229833463797, "osmid": 524491805.0 }, "geometry": { "type": "Point", "coordinates": [ -0.5524504, 44.8347133 ] } },
{ "type": "Feature", "properties": { "AAWT": 6619.0, "TR_AAWT": null, "savg": null, "raw_name": "Villenave d'Ornon Av des Pyrénées", "raw_oneway": true, "raw_direction": "Sens Entrant", "raw_techno": "BOUCLE", "osm_name": null, "osm_type": "primary", "osm_lanes": 3.0, "osm_oneway": "True", "osm_distance": 2.2679743178499394, "osmid": 589953723.0 }, "geometry": { "type": "Point", "coordinates": [ -0.5660716, 44.7800108 ] } },
{ "type": "Feature", "properties": { "AAWT": 10431.0, "TR_AAWT": null, "savg": null, "raw_name": "Bordeaux Rue peyronnet", "raw_oneway": true, "raw_direction": "Sens Entrant", "raw_techno": "BOUCLE", "osm_name": "Rue Peyronnet", "osm_type": "tertiary", "osm_lanes": 2.0, "osm_oneway": "True", "osm_distance": 0.87487372350745929, "osmid": 187403217.0 }, "geometry": { "type": "Point", "coordinates": [ -0.5590718, 44.8310596 ] } },
{ "type": "Feature", "properties": { "AAWT": 10234.0, "TR_AAWT": null, "savg": null, "raw_name": "Bordeaux Quai Chartrons après  Arnozan", "raw_oneway": true, "raw_direction": "Sud > Nord", "raw_techno": "BOUCLE", "osm_name": "Quai des Chartrons", "osm_type": "secondary", "osm_lanes": 2.0, "osm_oneway": "True", "osm_distance": 0.42415377783677222, "osmid": 834278925.0 }, "geometry": { "type": "Point", "coordinates": [ -0.570332, 44.8487995 ] } },
{ "type": "Feature", "properties": { "AAWT": 7710.0, "TR_AAWT": null, "savg": null, "raw_name": "Bordeaux Quai de Paludate", "raw_oneway": true, "raw_direction": "Sens Entrant vers Pont de Pierre", "raw_techno": "BOUCLE", "osm_name": "Dévoiement du Quai de Paludate", "osm_type": "secondary", "osm_lanes": null, "osm_oneway": "True", "osm_distance": 15.750818405360313, "osmid": 1322870342.0 }, "geometry": { "type": "Point", "coordinates": [ -0.5568506, 44.8307728 ] } },
{ "type": "Feature", "properties": { "AAWT": 14922.0, "TR_AAWT": null, "savg": null, "raw_name": "Bordeaux Quai Richelieu Aides/Cailhau", "raw_oneway": true, "raw_direction": "Nord > Sud", "raw_techno": "BOUCLE", "osm_name": "Quai Richelieu", "osm_type": "secondary", "osm_lanes": 2.0, "osm_oneway": "True", "osm_distance": 0.080727475982710295, "osmid": 26585732.0 }, "geometry": { "type": "Point", "coordinates": [ -0.5682398, 44.8394545 ] } },
{ "type": "Feature", "properties": { "AAWT": 16252.0, "TR_AAWT": null, "savg": null, "raw_name": "Bordeaux Blvd Wilson après Judaïque", "raw_oneway": true, "raw_direction": "Boulevards Nord > Sud", "raw_techno": "BOUCLE", "osm_name": "Boulevard du Président Wilson", "osm_type": "primary", "osm_lanes": 2.0, "osm_oneway": "True", "osm_distance": 0.62239722765450101, "osmid": 186499606.0 }, "geometry": { "type": "Point", "coordinates": [ -0.5993177, 44.839874 ] } },
{ "type": "Feature", "properties": { "AAWT": 6391.0, "TR_AAWT": null, "savg": null, "raw_name": "Bordeaux Av. Tassigny  avant Bleuets", "raw_oneway": true, "raw_direction": "Sens Entrant", "raw_techno": "BOUCLE", "osm_name": "Avenue du Maréchal de Lattre de Tassigny", "osm_type": "secondary", "osm_lanes": 2.0, "osm_oneway": null, "osm_distance": 2.3377179978481277, "osmid": 35693820.0 }, "geometry": { "type": "Point", "coordinates": [ -0.6365486, 44.8604665 ] } },
{ "type": "Feature", "properties": { "AAWT": 6961.0, "TR_AAWT": null, "savg": null, "raw_name": "Mérignac Mendès-France après Verdun", "raw_oneway": true, "raw_direction": "Mérignac > Pessac         Nord > Sud", "raw_techno": "BOUCLE", "osm_name": "Avenue Pierre Mendès-France", "osm_type": "tertiary", "osm_lanes": null, "osm_oneway": null, "osm_distance": 2.1395355926210087, "osmid": 1188017742.0 }, "geometry": { "type": "Point", "coordinates": [ -0.6399421, 44.8400676 ] } },
{ "type": "Feature", "properties": { "AAWT": 7185.0, "TR_AAWT": null, "savg": null, "raw_name": "Bordeaux Av. du Maréchal de Lattre de Tassigny", "raw_oneway": true, "raw_direction": "Sens Entrant", "raw_techno": "BOUCLE", "osm_name": "Avenue du Maréchal de Lattre de Tassigny", "osm_type": "secondary", "osm_lanes": null, "osm_oneway": null, "osm_distance": 1.5602097497287992, "osmid": 22898747.0 }, "geometry": { "type": "Point", "coordinates": [ -0.6182439, 44.8564947 ] } },
{ "type": "Feature", "properties": { "AAWT": 2828.0, "TR_AAWT": null, "savg": null, "raw_name": "Mérignac Av. Libération après de Gaulle", "raw_oneway": true, "raw_direction": "Sud > Nord", "raw_techno": "BOUCLE", "osm_name": "Avenue de la Libération", "osm_type": "secondary", "osm_lanes": 2.0, "osm_oneway": null, "osm_distance": 2.1540758272632572, "osmid": 600306243.0 }, "geometry": { "type": "Point", "coordinates": [ -0.6457896, 44.8434205 ] } },
{ "type": "Feature", "properties": { "AAWT": 2029.0, "TR_AAWT": null, "savg": null, "raw_name": "Le Bouscat Av. de la Libération", "raw_oneway": true, "raw_direction": null, "raw_techno": "BOUCLE", "osm_name": "Avenue de la Libération", "osm_type": "secondary", "osm_lanes": null, "osm_oneway": "True", "osm_distance": 5.2628579058075244, "osmid": 194643851.0 }, "geometry": { "type": "Point", "coordinates": [ -0.6031922, 44.8634045 ] } },
{ "type": "Feature", "properties": { "AAWT": 2832.0, "TR_AAWT": null, "savg": null, "raw_name": "Mérignac Av. Leclerc après V. Eglise", "raw_oneway": true, "raw_direction": "Sud > Nord", "raw_techno": "BOUCLE", "osm_name": "Avenue du Maréchal Leclerc", "osm_type": "secondary", "osm_lanes": null, "osm_oneway": "True", "osm_distance": 0.47338823547038894, "osmid": 389031844.0 }, "geometry": { "type": "Point", "coordinates": [ -0.6469625, 44.8407884 ] } },
{ "type": "Feature", "properties": { "AAWT": 3983.0, "TR_AAWT": null, "savg": null, "raw_name": "Lormont Dupin  après Resistance", "raw_oneway": true, "raw_direction": "Sens Entrant", "raw_techno": "BOUCLE", "osm_name": "Rue André Dupin", "osm_type": "residential", "osm_lanes": null, "osm_oneway": null, "osm_distance": 1.5004587988836908, "osmid": 22938703.0 }, "geometry": { "type": "Point", "coordinates": [ -0.5181813, 44.879945 ] } },
{ "type": "Feature", "properties": { "AAWT": 3732.0, "TR_AAWT": null, "savg": null, "raw_name": "Bordeaux Av. Thiers après Lauzac", "raw_oneway": true, "raw_direction": "Sens Entrant", "raw_techno": "BOUCLE", "osm_name": "Avenue Thiers", "osm_type": "secondary", "osm_lanes": 2.0, "osm_oneway": "True", "osm_distance": 0.17875331803038327, "osmid": 588024359.0 }, "geometry": { "type": "Point", "coordinates": [ -0.5405147, 44.8522146 ] } },
{ "type": "Feature", "properties": { "AAWT": 4651.0, "TR_AAWT": null, "savg": null, "raw_name": "Cenon Av. de Paris après 4 Pavillons", "raw_oneway": true, "raw_direction": "Sens Sortant", "raw_techno": "BOUCLE", "osm_name": "Avenue de Paris", "osm_type": "secondary", "osm_lanes": null, "osm_oneway": "True", "osm_distance": 0.58036627241815508, "osmid": 36235004.0 }, "geometry": { "type": "Point", "coordinates": [ -0.5129006, 44.8674405 ] } },
{ "type": "Feature", "properties": { "AAWT": 6578.0, "TR_AAWT": null, "savg": null, "raw_name": "Bordeaux 130 Av. Larminat après Sourdis", "raw_oneway": true, "raw_direction": "Sens Sortant", "raw_techno": "BOUCLE", "osm_name": "Rue du Général de Larminat", "osm_type": "secondary", "osm_lanes": 1.0, "osm_oneway": "True", "osm_distance": 0.30489866389713355, "osmid": 26616329.0 }, "geometry": { "type": "Point", "coordinates": [ -0.5890553, 44.8343362 ] } },
{ "type": "Feature", "properties": { "AAWT": 3608.0, "TR_AAWT": null, "savg": null, "raw_name": "Lormont Av. de Paris vers 4 Pavillons", "raw_oneway": true, "raw_direction": "Nord > Sud", "raw_techno": "BOUCLE", "osm_name": "Avenue de Paris", "osm_type": "secondary", "osm_lanes": null, "osm_oneway": "True", "osm_distance": 0.1334276280095682, "osmid": 433292033.0 }, "geometry": { "type": "Point", "coordinates": [ -0.5127086, 44.8686299 ] } },
{ "type": "Feature", "properties": { "AAWT": 7897.0, "TR_AAWT": null, "savg": null, "raw_name": "Bordeaux Av. Larminat après Devèze", "raw_oneway": true, "raw_direction": "Sens Sortant", "raw_techno": "BOUCLE", "osm_name": "Rue du Général de Larminat", "osm_type": "secondary", "osm_lanes": 2.0, "osm_oneway": "True", "osm_distance": 1.0065543723288717, "osmid": 36919171.0 }, "geometry": { "type": "Point", "coordinates": [ -0.5968623, 44.8333594 ] } },
{ "type": "Feature", "properties": { "AAWT": 6733.0, "TR_AAWT": null, "savg": null, "raw_name": "Eysines Av. du Médoc après Lesseps", "raw_oneway": true, "raw_direction": "Sens Entrant", "raw_techno": "BOUCLE", "osm_name": "Route du Médoc", "osm_type": "secondary", "osm_lanes": null, "osm_oneway": "True", "osm_distance": 4.2234477933244952, "osmid": 469411616.0 }, "geometry": { "type": "Point", "coordinates": [ -0.6149731, 44.8718656 ] } },
{ "type": "Feature", "properties": { "AAWT": 5176.0, "TR_AAWT": null, "savg": null, "raw_name": "Eysines Rte de Pauillac avant Médoc", "raw_oneway": true, "raw_direction": "Sens Entrant", "raw_techno": "BOUCLE", "osm_name": "Route de Pauillac", "osm_type": "secondary", "osm_lanes": 3.0, "osm_oneway": null, "osm_distance": 1.7704288252032585, "osmid": 221251422.0 }, "geometry": { "type": "Point", "coordinates": [ -0.6369396, 44.8869502 ] } },
{ "type": "Feature", "properties": { "AAWT": 11269.0, "TR_AAWT": null, "savg": null, "raw_name": "Mérignac Magudas avant Cigale", "raw_oneway": true, "raw_direction": "Sens Entrant", "raw_techno": "BOUCLE", "osm_name": "Avenue de Magudas", "osm_type": "secondary", "osm_lanes": 2.0, "osm_oneway": null, "osm_distance": 0.99544384016736531, "osmid": 599902473.0 }, "geometry": { "type": "Point", "coordinates": [ -0.6588304, 44.8572088 ] } },
{ "type": "Feature", "properties": { "AAWT": 7460.0, "TR_AAWT": null, "savg": null, "raw_name": "Le Haillan Av. Pasteur après Los Héros", "raw_oneway": true, "raw_direction": "Sens Entrant", "raw_techno": "BOUCLE", "osm_name": "Avenue Pasteur", "osm_type": "secondary", "osm_lanes": null, "osm_oneway": "True", "osm_distance": 0.64353817010107617, "osmid": 753947087.0 }, "geometry": { "type": "Point", "coordinates": [ -0.6711977, 44.8684058 ] } },
{ "type": "Feature", "properties": { "AAWT": 7208.0, "TR_AAWT": null, "savg": null, "raw_name": "Eysines Av. de St Médard", "raw_oneway": true, "raw_direction": "Sens Entrant", "raw_techno": "BOUCLE", "osm_name": "Avenue de Saint-Médard", "osm_type": "secondary", "osm_lanes": null, "osm_oneway": null, "osm_distance": 3.6333975251749488, "osmid": 753947079.0 }, "geometry": { "type": "Point", "coordinates": [ -0.6520497, 44.8626927 ] } },
{ "type": "Feature", "properties": { "AAWT": 14983.0, "TR_AAWT": null, "savg": null, "raw_name": "Mérignac Magudas après Cigale", "raw_oneway": true, "raw_direction": "Sens Sortant", "raw_techno": "BOUCLE", "osm_name": "Avenue de Magudas", "osm_type": "secondary", "osm_lanes": 2.0, "osm_oneway": null, "osm_distance": 1.6970325389078955, "osmid": 599902473.0 }, "geometry": { "type": "Point", "coordinates": [ -0.6587488, 44.8572262 ] } },
{ "type": "Feature", "properties": { "AAWT": 3967.0, "TR_AAWT": null, "savg": null, "raw_name": "Bordeaux Cours Bricaud après Ratabou", "raw_oneway": true, "raw_direction": "Sens Entrant", "raw_techno": "BOUCLE", "osm_name": "Cours Charles Bricaud", "osm_type": "secondary", "osm_lanes": 1.0, "osm_oneway": "True", "osm_distance": 0.027704143554299347, "osmid": 1178720175.0 }, "geometry": { "type": "Point", "coordinates": [ -0.5635556, 44.8909442 ] } },
{ "type": "Feature", "properties": { "AAWT": 7328.0, "TR_AAWT": null, "savg": null, "raw_name": "Bordeaux Allée de Boutaut après Laroque", "raw_oneway": true, "raw_direction": "Sens Sortant", "raw_techno": "BOUCLE", "osm_name": "Allée de Boutaut", "osm_type": "secondary", "osm_lanes": 2.0, "osm_oneway": "True", "osm_distance": 2.0564182662591759, "osmid": 184728037.0 }, "geometry": { "type": "Point", "coordinates": [ -0.5765822, 44.8748929 ] } },
{ "type": "Feature", "properties": { "AAWT": 9206.0, "TR_AAWT": null, "savg": null, "raw_name": "Bordeaux All. Boutaut après Claudeville", "raw_oneway": true, "raw_direction": "Sens Entrant", "raw_techno": "BOUCLE", "osm_name": "Allée de Boutaut", "osm_type": "secondary", "osm_lanes": 2.0, "osm_oneway": "True", "osm_distance": 0.23626292480107855, "osmid": 184728036.0 }, "geometry": { "type": "Point", "coordinates": [ -0.5767226, 44.8733679 ] } },
{ "type": "Feature", "properties": { "AAWT": 1191.0, "TR_AAWT": null, "savg": null, "raw_name": "Bordeaux Cours de Quebec après Laroque", "raw_oneway": true, "raw_direction": "Sud > Nord", "raw_techno": "BOUCLE", "osm_name": "Cours de Québec", "osm_type": "residential", "osm_lanes": null, "osm_oneway": "True", "osm_distance": 0.47961168718733466, "osmid": 184745717.0 }, "geometry": { "type": "Point", "coordinates": [ -0.5714706, 44.8764029 ] } },
{ "type": "Feature", "properties": { "AAWT": 4541.0, "TR_AAWT": null, "savg": null, "raw_name": "Bordeaux Vélodrome N>S", "raw_oneway": true, "raw_direction": "Nord > Sud", "raw_techno": "BOUCLE", "osm_name": "Cours Charles Bricaud", "osm_type": "secondary", "osm_lanes": 1.0, "osm_oneway": "True", "osm_distance": 0.099415160785379333, "osmid": 1178721110.0 }, "geometry": { "type": "Point", "coordinates": [ -0.5658184, 44.8970393 ] } },
{ "type": "Feature", "properties": { "AAWT": 2887.0, "TR_AAWT": null, "savg": null, "raw_name": "Bordeaux Achard niveau Pourmann", "raw_oneway": true, "raw_direction": "Sens Sortant", "raw_techno": "BOUCLE", "osm_name": "Rue Achard", "osm_type": "tertiary", "osm_lanes": null, "osm_oneway": "True", "osm_distance": 0.21935520546899767, "osmid": 257031723.0 }, "geometry": { "type": "Point", "coordinates": [ -0.5482287, 44.8676196 ] } },
{ "type": "Feature", "properties": { "AAWT": 5164.0, "TR_AAWT": null, "savg": null, "raw_name": "Pessac Haut Lévèque avant Magellan", "raw_oneway": true, "raw_direction": "Nord > Sud", "raw_techno": "BOUCLE", "osm_name": "Passage Supérieur du Haut-Lévêque", "osm_type": "secondary", "osm_lanes": null, "osm_oneway": "True", "osm_distance": 0.95883873844944278, "osmid": 581194457.0 }, "geometry": { "type": "Point", "coordinates": [ -0.6576327, 44.7922509 ] } },
{ "type": "Feature", "properties": { "AAWT": 3807.0, "TR_AAWT": null, "savg": null, "raw_name": "Pessac Haut Lévèque après Av. de Canéjan", "raw_oneway": true, "raw_direction": "Sud > Nord", "raw_techno": "BOUCLE", "osm_name": "Avenue du Haut-Lévêque", "osm_type": "secondary", "osm_lanes": null, "osm_oneway": "True", "osm_distance": 0.40378166076392774, "osmid": 580601509.0 }, "geometry": { "type": "Point", "coordinates": [ -0.6545411, 44.7868408 ] } },
{ "type": "Feature", "properties": { "AAWT": 13661.0, "TR_AAWT": null, "savg": null, "raw_name": "Pessac Av. du Bourghail après Monbalon", "raw_oneway": true, "raw_direction": "Sud > Nord", "raw_techno": "BOUCLE", "osm_name": "Avenue du Bourgailh", "osm_type": "primary", "osm_lanes": 2.0, "osm_oneway": "True", "osm_distance": 0.32586564494440456, "osmid": 580968495.0 }, "geometry": { "type": "Point", "coordinates": [ -0.663169, 44.8025503 ] } },
{ "type": "Feature", "properties": { "AAWT": 5085.0, "TR_AAWT": null, "savg": null, "raw_name": "Pessac Rue des Anciens de l'AFN", "raw_oneway": true, "raw_direction": "Nord > Sud", "raw_techno": "BOUCLE", "osm_name": "Avenue de Monbalon", "osm_type": "residential", "osm_lanes": 2.0, "osm_oneway": null, "osm_distance": 0.80099280871437872, "osmid": 363504097.0 }, "geometry": { "type": "Point", "coordinates": [ -0.6647268, 44.8027867 ] } },
{ "type": "Feature", "properties": { "AAWT": 3083.0, "TR_AAWT": null, "savg": null, "raw_name": "St Médard Av. de Gaulle avant Rousseau", "raw_oneway": true, "raw_direction": "Sens Entrant", "raw_techno": "BOUCLE", "osm_name": "Avenue du Général de Gaulle", "osm_type": "secondary", "osm_lanes": null, "osm_oneway": null, "osm_distance": 1.648365667456124, "osmid": 1180366317.0 }, "geometry": { "type": "Point", "coordinates": [ -0.7225626, 44.8974092 ] } },
{ "type": "Feature", "properties": { "AAWT": 7429.0, "TR_AAWT": null, "savg": null, "raw_name": "Cenon Av. Clémenceau avant 8 mai 45", "raw_oneway": true, "raw_direction": "Sens Sortant", "raw_techno": "BOUCLE", "osm_name": "Avenue Georges Clemenceau", "osm_type": "tertiary", "osm_lanes": 2.0, "osm_oneway": null, "osm_distance": 2.213739486634497, "osmid": 40754842.0 }, "geometry": { "type": "Point", "coordinates": [ -0.5084824, 44.8528015 ] } },
{ "type": "Feature", "properties": { "AAWT": 4969.0, "TR_AAWT": null, "savg": null, "raw_name": "Floirac Monrepos avant Cours Gambetta", "raw_oneway": true, "raw_direction": "Sens Entrant", "raw_techno": "BOUCLE", "osm_name": "Cours Gambetta", "osm_type": "secondary", "osm_lanes": 2.0, "osm_oneway": null, "osm_distance": 0.90035656120535679, "osmid": 206311035.0 }, "geometry": { "type": "Point", "coordinates": [ -0.5276973, 44.8437679 ] } },
{ "type": "Feature", "properties": { "AAWT": 8314.0, "TR_AAWT": null, "savg": null, "raw_name": "Cenon Bretelle Curie vers entre 2 mers", "raw_oneway": true, "raw_direction": "Curie > Entre Deux Mers", "raw_techno": "BOUCLE", "osm_name": null, "osm_type": "primary_link", "osm_lanes": 1.0, "osm_oneway": "True", "osm_distance": 0.018261734767282777, "osmid": 5117439.0 }, "geometry": { "type": "Point", "coordinates": [ -0.5387324, 44.8454648 ] } },
{ "type": "Feature", "properties": { "AAWT": 5018.0, "TR_AAWT": null, "savg": null, "raw_name": "Bordeaux Pl République vers Albret", "raw_oneway": true, "raw_direction": "Sens Entrant", "raw_techno": "BOUCLE", "osm_name": "Place de la République", "osm_type": "secondary", "osm_lanes": 2.0, "osm_oneway": null, "osm_distance": 1.1411693858524572, "osmid": 625506882.0 }, "geometry": { "type": "Point", "coordinates": [ -0.5786524, 44.8347975 ] } },
{ "type": "Feature", "properties": { "AAWT": 1007.0, "TR_AAWT": null, "savg": null, "raw_name": "Bordeaux Cours mal Joffre vers Burguet", "raw_oneway": true, "raw_direction": "Nord > Sud", "raw_techno": "BOUCLE", "osm_name": "Rue du Maréchal Joffre", "osm_type": "living_street", "osm_lanes": null, "osm_oneway": null, "osm_distance": 2.1211834361165645, "osmid": 1298789665.0 }, "geometry": { "type": "Point", "coordinates": [ -0.5786243, 44.836255 ] } },