{
  "data": {
    "trafficRegistrationPoints": [
      {
        "id": "41517V704478",
        "name": "BASTERUD",
        "location": {
          "coordinates": {
            "latLon": {
              "lat": 60.769163,
              "lon": 11.171156
            }
          }
        }
      },
      {
        "id": "99015V249528",
        "name": "Hjelset øst",
        "location": {
          "coordinates": {
            "latLon": {
              "lat": 62.787333,
              "lon": 7.521145
            }
          }
        }
      },
      {
        "id": "83652V319725",
        "name": "Strandgata nord",
        "location": {
          "coordinates": {
            "latLon": {
              "lat": 58.868273,
              "lon": 5.74443
            }
          }
        }
      },
      {
        "id": "15511V805138",
        "name": "Nesttunveien sør",
        "location": {
          "coordinates": {
            "latLon": {
              "lat": 60.314755,
              "lon": 5.354974
            }
          }
        }
      },
      {
        "id": "96132V805116",
        "name": "Midttuntunnelen",
        "location": {
          "coordinates": {
            "latLon": {
              "lat": 60.314868,
              "lon": 5.35738
            }
          }
        }
      },
      {
        "id": "31818V444229",
        "name": "Kjørbotunnelen ",
        "location": {
          "coordinates": {
            "latLon": {
              "lat": 59.90773,
              "lon": 10.483825
            }
          }
        }
      },
      {
        "id": "03075V249576",
        "name": "Malmedal",
        "location": {
          "coordinates": {
            "latLon": {
              "lat": 62.796068,
              "lon": 7.28165
            }
          }
        }
      },
      {
        "id": "88458V1125817",
        "name": "Langvassbukt vest",
        "location": {
          "coordinates": {
            "latLon": {
              "lat": 68.617805,
              "lon": 15.757541
            }
          }
        }
      },
      {
        "id": "76078V705182",
        "name": "UTHUS S",
        "location": {
          "coordinates": {
            "latLon": {
              "lat": 60.716225,
              "lon": 11.245311
            }
          }
        }
      },
      {
        "id": "18915V121774",
        "name": "Snartemo",
        "location": {
          "coordinates": {
            "latLon": {
              "lat": 58.331999,
              "lon": 7.208015
            }
          }
        }
      },
      {
        "id": "05325V930395",
        "name": "STORSKOG",
        "location": {
          "coordinates": {
            "latLon": {
              "lat": 69.660261,
              "lon": 30.214861
            }
          }
        }
      },
      {
        "id": "77194V72348",
        "name": "HITRATUNNELEN FRA SUNDE",
        "location": {
          "coordinates": {
            "latLon": {
              "lat": 63.497104,
              "lon": 9.145322
            }
          }
        }
      },
      {
        "id": "76065V521401",
        "name": "Klovholt",
        "location": {
          "coordinates": {
            "latLon": {
              "lat": 59.185095,
              "lon": 9.522904
            }
          }
        }
      },
      {
        "id": "34755V249562",
        "name": "Steinløysa",
        "location": {
          "coordinates": {
            "latLon": {
              "lat": 62.819895,
              "lon": 7.75749
            }
          }
        }
      },
      {
        "id": "21319V249561",
        "name": "Skjevik øst",
        "location": {
          "coordinates": {
            "latLon": {
              "lat": 62.784333,
              "lon": 7.559679
            }
          }
        }
      },
      {
        "id": "03476V41818",
        "name": "Jakobslivegen ved Skovgård",
        "location": {
          "coordinates": {
            "latLon": {
              "lat": 63.428212,
              "lon": 10.495448
            }
          }
        }
      },
      {
        "id": "55265V521064",
        "name": "Lannerheia",
        "location": {
          "coordinates": {
            "latLon": {
              "lat": 59.099639,
              "lon": 9.772268
            }
          }
        }
      },
      {
        "id": "93375V181030",
        "name": "Liertoppen syd",
        "location": {
          "coordinates": {
            "latLon": {
              "lat": 59.807884,
              "lon": 10.298149
            }
          }
        }
      },
      {
        "id": "19393V72810",
        "name": "STORLERSBAKKEN",
        "location": {
          "coordinates": {
            "latLon": {
              "lat": 63.326316,
              "lon": 10.338896
            }
          }
        }
      },
      {
        "id": "07072V930629",
        "name": "Kvalsund fartstavle",
        "location": {
          "coordinates": {
            "latLon": {
              "lat": 70.495039,
              "lon": 24.092222
            }
          }
        }
      },
      {
        "id": "84170V249428",
        "name": "Lerstadvegen",
        "location": {
          "coordinates": {
            "latLon": {
              "lat": 62.469536,
              "lon": 6.301737
            }
          }
        }
      },
      {
        "id": "01674V121448",
        "name": "Døle bru",
        "location": {
          "coordinates": {
            "latLon": {
              "lat": 58.092913,
              "lon": 7.62474
            }
          }
        }
      },
      {
        "id": "99950V704686",
        "name": "Disenå nord",
        "location": {
          "coordinates": {
            "latLon": {
              "lat": 60.232421,
              "lon": 11.67773
            }
          }
        }
      },
      {
        "id": "39158V121754",
        "name": "Øye",
        "location": {
          "coordinates": {
            "latLon": {
              "lat": 58.275613,
              "lon": 6.874918
            }
          }
        }
      },
      {
        "id": "89406V384520",
        "name": "Hermansverk aust",
        "location": {
          "coordinates": {
            "latLon": {
              "lat": 61.176121,
              "lon": 6.862816
            }
          }
        }
      },
      {
        "id": "60338V625649",
        "name": "EKEBERGTUNNELEN",
        "location": {
          "coordinates": {
            "latLon": {
              "lat": 59.900207,
              "lon": 10.774236
            }
          }
        }
      },
      {
        "id": "60438V249625",
        "name": "Tverrfjell",
        "location": {
          "coordinates": {
            "latLon": {
              "lat": 62.916051,
              "lon": 7.23566
            }
          }
        }
      },
      {
        "id": "24178V180975",
        "name": "Tranbykrysset",
        "location": {
          "coordinates": {
            "latLon": {
              "lat": 59.806882,
              "lon": 10.288248
            }
          }
        }
      },
      {
        "id": "15322V384480",
        "name": "Fjellvegen",
        "location": {
          "coordinates": {
            "latLon": {
              "lat": 61.44958,
              "lon": 5.855037
            }
          }
        }
      },
      {
        "id": "64673V320066",
        "name": "Nærbø",
        "location": {
          "coordinates": {
            "latLon": {
              "lat": 58.665261,
              "lon": 5.649371
            }
          }
        }
      },
      {
        "id": "12106V72837",
        "name": "GJØLME Ø",
        "location": {
          "coordinates": {
            "latLon": {
              "lat": 63.299721,
              "lon": 9.824633
            }
          }
        }
      },
      {
        "id": "37773V625378",
        "name": "AVKJ. FRA RV 4",
        "location": {
          "coordinates": {
            "latLon": {
              "lat": 59.943087,
              "lon": 10.811686
            }
          }
        }
      },
      {
        "id": "53953V704480",
        "name": "MJØSBRUA ØST",
        "location": {
          "coordinates": {
            "latLon": {
              "lat": 60.926851,
              "lon": 10.684215
            }
          }
        }
      },
      {
        "id": "80982V249217",
        "name": "Spjelkavik nord",
        "location": {
          "coordinates": {
            "latLon": {
              "lat": 62.462694,
              "lon": 6.356163
            }
          }
        }
      },
      {
        "id": "44656V72812",
        "name": "Elgeseter gate ved Abels gate",
        "location": {
          "coordinates": {
            "latLon": {
              "lat": 63.416095,
              "lon": 10.397616
            }
          }
        }
      },
      {
        "id": "73916V805421",
        "name": "Vågsbotn Fv. 578",
        "location": {
          "coordinates": {
            "latLon": {
              "lat": 60.476641,
              "lon": 5.347755
            }
          }
        }
      },
      {
        "id": "94299V704696",
        "name": "Røgden øst",
        "location": {
          "coordinates": {
            "latLon": {
              "lat": 60.388131,
              "lon": 12.578955
            }
          }
        }
      },
      {
        "id": "02250V930593",
        "name": "Alta bru",
        "location": {
          "coordinates": {
            "latLon": {
              "lat": 69.967649,
              "lon": 23.376245
            }
          }
        }
      },
      {
        "id": "62909V181278",
        "name": "Lappestein",
        "location": {
          "coordinates": {
            "latLon": {
              "lat": 60.498879,
              "lon": 7.872486
            }
          }
        }
      },
      {
        "id": "33456V625213",
        "name": "E6 Bryn",
        "location": {
          "coordinates": {
            "latLon": {
              "lat": 59.90946,
              "lon": 10.819031
            }
          }
        }
      },
      {
        "id": "18573V444291",
        "name": "Fjellsrud",
        "location": {
          "coordinates": {
            "latLon": {
              "lat": 59.877968,
              "lon": 11.244934
            }
          }
        }
      },
      {
        "id": "04026V805142",
        "name": "Solheimsviken",
        "location": {
          "coordinates": {
            "latLon": {
              "lat": 60.376401,
              "lon": 5.335407
            }
          }
        }
      },
      {
        "id": "01676V41944",
        "name": "Leirbrua ved Granåsen",
        "location": {
          "coordinates": {
            "latLon": {
              "lat": 63.379764,
              "lon": 10.31614
            }
          }
        }
      },
      {
        "id": "37772V72689",
        "name": "Torp",
        "location": {
          "coordinates": {
            "latLon": {
              "lat": 63.432195,
              "lon": 10.702801
            }
          }
        }
      },
      {
        "id": "15659V249545",
        "name": "Hjellegjerde",
        "location": {
          "coordinates": {
            "latLon": {
              "lat": 62.403703,
              "lon": 6.572401
            }
          }
        }
      },
      {
        "id": "55807V121796",
        "name": "Gyland",
        "location": {
          "coordinates": {
            "latLon": {
              "lat": 58.378526,
              "lon": 6.835401
            }
          }
        }
      },
      {
        "id": "45162V443741",
        "name": "Løkenveien",
        "location": {
          "coordinates": {
            "latLon": {
              "lat": 59.704905,
              "lon": 10.874993
            }
          }
        }
      },
      {
        "id": "00885V578661",
        "name": "Sannan",
        "location": {
          "coordinates": {
            "latLon": {
              "lat": 64.007047,
              "lon": 11.502173
            }
          }
        }
      },
      {
        "id": "37830V443804",
        "name": "Gamle Drammensvei",
        "location": {
          "coordinates": {
            "latLon": {
              "lat": 59.90925,
              "lon": 10.617132
            }
          }
        }
      },
      {
        "id": "43055V72322",
        "name": "EGGKLEIVA",
        "location": {
          "coordinates": {
            "latLon": {
              "lat": 63.28711,
              "lon": 10.04965
            }
          }
        }
      },
      {
        "id": "38171V443606",
        "name": "Avløs",
        "location": {
          "coordinates": {
            "latLon": {
              "lat": 59.910894,
              "lon": 10.550109
            }
          }
        }
      },
      {
        "id": "35829V885266",
        "name": "Krutfjellet",
        "location": {
          "coordinates": {
            "latLon": {
              "lat": 65.674486,
              "lon": 14.268984
            }
          }
        }
      },
      {
        "id": "52576V1126026",
        "name": "Gimle",
        "location": {
          "coordinates": {
            "latLon": {
              "lat": 69.683548,
              "lon": 18.998967
            }
          }
        }
      },
      {
        "id": "61487V319872",
        "name": "Risavika",
        "location": {
          "coordinates": {
            "latLon": {
              "lat": 58.929314,
              "lon": 5.607631
            }
          }
        }
      },
      {
        "id": "51938V443842",
        "name": "Lysaker (Lilleaker)",
        "location": {
          "coordinates": {
            "latLon": {
              "lat": 59.913752,
              "lon": 10.639871
            }
          }
        }
      },
      {
        "id": "00875V249529",
        "name": "Eidssetra",
        "location": {
          "coordinates": {
            "latLon": {
              "lat": 62.78839,
              "lon": 7.522886
            }
          }
        }
      },
      {
        "id": "20318V625294",
        "name": "FESTNINGTUNNEL",
        "location": {
          "coordinates": {
            "latLon": {
              "lat": 59.91118,
              "lon": 10.724291
            }
          }
        }
      },
      {
        "id": "51449V885379",
        "name": "Sommarset (Dragsarmen)",
        "location": {
          "coordinates": {
            "latLon": {
              "lat": 68.036577,
              "lon": 16.049345
            }
          }
        }
      },
      {
        "id": "56971V625377",
        "name": "PÅKJ. TIL RV 4",
        "location": {
          "coordinates": {
            "latLon": {
              "lat": 59.942955,
              "lon": 10.812438
            }
          }
        }
      },
      {
        "id": "16720V22149",
        "name": "Ny Vinterkjær vest",
        "location": {
          "coordinates": {
            "latLon": {
              "lat": 58.715409,
              "lon": 9.039277
            }
          }
        }
      },
      {
        "id": "10649V121767",
        "name": "Åsemoen",
        "location": {
          "coordinates": {
            "latLon": {
              "lat": 58.520709,
              "lon": 6.964185
            }
          }
        }
      },
      {
        "id": "64091V72859",
        "name": "ÅRNES",
        "location": {
          "coordinates": {
            "latLon": {
              "lat": 63.963265,
              "lon": 10.221814
            }
          }
        }
      },
      {
        "id": "72531V72363",
        "name": "TRØMOEN",
        "location": {
          "coordinates": {
            "latLon": {
              "lat": 64.020576,
              "lon": 10.374573
            }
          }
        }
      },
      {
        "id": "75005V805120",
        "name": "Håvardstun",
        "location": {
          "coordinates": {
            "latLon": {
              "lat": 60.290684,
              "lon": 5.295799
            }
          }
        }
      },
      {
        "id": "33313V2014318",
        "name": "Vassbotnbrua",
        "location": {
          "coordinates": {
            "latLon": {
              "lat": 59.072708,
              "lon": 9.925921
            }
          }
        }
      },
      {
        "id": "04939V804763",
        "name": "Osterøy-Trengereid",
        "location": {
          "coordinates": {
            "latLon": {
              "lat": 60.422027,
              "lon": 5.537558
            }
          }
        }
      },
      {
        "id": "85688V805140",
        "name": "Storetveit",
        "location": {
          "coordinates": {
            "latLon": {
              "lat": 60.354071,
              "lon": 5.349152
            }
          }
        }
      },
      {
        "id": "77570V384357",
        "name": "Havrenesvegen",
        "location": {
          "coordinates": {
            "latLon": {
              "lat": 61.598245,
              "lon": 5.016918
            }
          }
        }
      },
      {
        "id": "39215V320588",
        "name": "Vats",
        "location": {
          "coordinates": {
            "latLon": {
              "lat": 59.569844,
              "lon": 5.702694
            }
          }
        }
      },
      {
        "id": "43286V1060679",
        "name": "BEKKEHALLUM",
        "location": {
          "coordinates": {
            "latLon": {
              "lat": 60.282125,
              "lon": 10.529025
            }
          }
        }
      },
      {
        "id": "59199V72809",
        "name": "MELHUS SØR",
        "location": {
          "coordinates": {
            "latLon": {
              "lat": 63.256138,
              "lon": 10.282825
            }
          }
        }
      },
      {
        "id": "07608V384566",
        "name": "Angedalsvegen",
        "location": {
          "coordinates": {
            "latLon": {
              "lat": 61.451732,
              "lon": 5.864181
            }
          }
        }
      },
      {
        "id": "63209V971634",
        "name": "RØDSBAKKEN SYD",
        "location": {
          "coordinates": {
            "latLon": {
              "lat": 59.201241,
              "lon": 10.920792
            }
          }
        }
      },
      {
        "id": "14664V930577",
        "name": "Wesselborgen",
        "location": {
          "coordinates": {
            "latLon": {
              "lat": 69.721005,
              "lon": 30.048283
            }
          }
        }
      },
      {
        "id": "27754V805707",
        "name": "Damsgårdstunnelen",
        "location": {
          "coordinates": {
            "latLon": {
              "lat": 60.381229,
              "lon": 5.293341
            }
          }
        }
      },
      {
        "id": "77500V2037728",
        "name": "Ny Fv 33 Minnekryss",
        "location": {
          "coordinates": {
            "latLon": {
              "lat": 60.391085,
              "lon": 11.21375
            }
          }
        }
      },
      {
        "id": "93830V249046",
        "name": "Kvistad",
        "location": {
          "coordinates": {
            "latLon": {
              "lat": 62.162748,
              "lon": 6.341808
            }
          }
        }
      },
      {
        "id": "31619V320585",
        "name": "Grinde nord",
        "location": {
          "coordinates": {
            "latLon": {
              "lat": 59.433506,
              "lon": 5.460525
            }
          }
        }
      },
      {
        "id": "00671V121415",
        "name": "Vreistebakken",
        "location": {
          "coordinates": {
            "latLon": {
              "lat": 58.907731,
              "lon": 6.853027
            }
          }
        }
      },
      {
        "id": "38872V704479",
        "name": "RUDSHØGDA N",
        "location": {
          "coordinates": {
            "latLon": {
              "lat": 60.915201,
              "lon": 10.795034
            }
          }
        }
      },
      {
        "id": "57502V121402",
        "name": "Lundshaug",
        "location": {
          "coordinates": {
            "latLon": {
              "lat": 58.248915,
              "lon": 8.155312
            }
          }
        }
      },
      {
        "id": "45730V1175656",
        "name": "Kamfjord",
        "location": {
          "coordinates": {
            "latLon": {
              "lat": 59.128222,
              "lon": 10.242593
            }
          }
        }
      },
      {
        "id": "69306V704961",
        "name": "Skotterud nord",
        "location": {
          "coordinates": {
            "latLon": {
              "lat": 59.99725,
              "lon": 12.120732
            }
          }
        }
      },
      {
        "id": "83313V384154",
        "name": "Kvernbergtunnelen",
        "location": {
          "coordinates": {
            "latLon": {
              "lat": 61.457523,
              "lon": 5.829748
            }
          }
        }
      },
      {
        "id": "23071V1125776",
        "name": "Nordnes v/værstasjon",
        "location": {
          "coordinates": {
            "latLon": {
              "lat": 69.584701,
              "lon": 20.398726
            }
          }
        }
      },
      {
        "id": "29057V249668",
        "name": "Jendem øst",
        "location": {
          "coordinates": {
            "latLon": {
              "lat": 62.785455,
              "lon": 7.041077
            }
          }
        }
      },
      {
        "id": "57808V2282277",
        "name": "Kleverud",
        "location": {
          "coordinates": {
            "latLon": {
              "lat": 60.554705,
              "lon": 11.250692
            }
          }
        }
      },
      {
        "id": "20575V121775",
        "name": "Tjørsvågstrand",
        "location": {
          "coordinates": {
            "latLon": {
              "lat": 58.295452,
              "lon": 6.647738
            }
          }
        }
      },
      {
        "id": "91169V1801368",
        "name": "Kolobekken sør",
        "location": {
          "coordinates": {
            "latLon": {
              "lat": 60.64907,
              "lon": 11.292932
            }
          }
        }
      },
      {
        "id": "19474V885911",
        "name": "Alsgård",
        "location": {
          "coordinates": {
            "latLon": {
              "lat": 65.765271,
              "lon": 13.291183
            }
          }
        }
      },
      {
        "id": "40877V805709",
        "name": "Krossleitet",
        "location": {
          "coordinates": {
            "latLon": {
              "lat": 60.317393,
              "lon": 5.078403
            }
          }
        }
      },
      {
        "id": "99308V444048",
        "name": "Langeland",
        "location": {
          "coordinates": {
            "latLon": {
              "lat": 60.132634,
              "lon": 11.16312
            }
          }
        }
      },
      {
        "id": "49248V444298",
        "name": "Lystad",
        "location": {
          "coordinates": {
            "latLon": {
              "lat": 59.954548,
              "lon": 11.203197
            }
          }
        }
      },
      {
        "id": "72647V705260",
        "name": "Sæter",
        "location": {
          "coordinates": {
            "latLon": {
              "lat": 60.243595,
              "lon": 12.02774
            }
          }
        }
      },
      {
        "id": "89344V249096",
        "name": "Steinsøynes",
        "location": {
          "coordinates": {
            "latLon": {
              "lat": 63.38501,
              "lon": 7.809313
            }
          }
        }
      },
      {
        "id": "95375V121638",
        "name": "Vollan",
        "location": {
          "coordinates": {
            "latLon": {
              "lat": 58.131945,
              "lon": 7.03742
            }
          }
        }
      },
      {
        "id": "30904V72218",
        "name": "Moholt rampe fra Moholt",
        "location": {
          "coordinates": {
            "latLon": {
              "lat": 63.408653,
              "lon": 10.43991
            }
          }
        }
      },
      {
        "id": "59387V22200",
        "name": "Strengereid",
        "location": {
          "coordinates": {
            "latLon": {
              "lat": 58.529281,
              "lon": 8.891245
            }
          }
        }
      },
      {
        "id": "22791V625367",
        "name": "Bjerke",
        "location": {
          "coordinates": {
            "latLon": {
              "lat": 59.943089,
              "lon": 10.81252
            }
          }
        }
      },
      {
        "id": "41542V705184",
        "name": "VERVEN",
        "location": {
          "coordinates": {
            "latLon": {
              "lat": 60.86875,
              "lon": 10.948797
            }
          }
        }
      },
      {
        "id": "00310V578699",
        "name": "Verrabotn mot Meltingen",
        "location": {
          "coordinates": {
            "latLon": {
              "lat": 63.80244,
              "lon": 10.582034
            }
          }
        }
      },
      {
        "id": "41375V578138",
        "name": "Verrabotn mot Rissa",
        "location": {
          "coordinates": {
            "latLon": {
              "lat": 63.802373,
              "lon": 10.580767
            }
          }
        }
      },
      {
        "id": "41111V72156",
        "name": "Stavsjøtunnelen",
        "location": {
          "coordinates": {
            "latLon": {
              "lat": 63.411042,
              "lon": 10.773002
            }
          }
        }
      },
      {
        "id": "26420V805748",
        "name": "Mannsverk",
        "location": {
          "coordinates": {
            "latLon": {
              "lat": 60.354576,
              "lon": 5.368386
            }
          }
        }
      },
      {
        "id": "14570V320273",
        "name": "Forusbeen",
        "location": {
          "coordinates": {
            "latLon": {
              "lat": 58.892059,
              "lon": 5.732818
            }
          }
        }
      },
      {
        "id": "27366V805728",
        "name": "Alversund skule",
        "location": {
          "coordinates": {
            "latLon": {
              "lat": 60.569407,
              "lon": 5.237205
            }
          }
        }
      },
      {
        "id": "61864V885947",
        "name": "Kåringen nord",
        "location": {
          "coordinates": {
            "latLon": {
              "lat": 68.441796,
              "lon": 16.00709
            }
          }
        }
      },
      {
        "id": "64472V141952",
        "name": "Prof.Smiths Alle",
        "location": {
          "coordinates": {
            "latLon": {
              "lat": 59.740283,
              "lon": 10.168872
            }
          }
        }
      },
      {
        "id": "36436V805142",
        "name": "Damsgaard",
        "location": {
          "coordinates": {
            "latLon": {
              "lat": 60.383429,
              "lon": 5.309967
            }
          }
        }
      },
      {
        "id": "84996V1060616",
        "name": "ØYER GR. SØR (E6)",
        "location": {
          "coordinates": {
            "latLon": {
              "lat": 61.187451,
              "lon": 10.416608
            }
          }
        }
      },
      {
        "id": "89367V1060739",
        "name": "Øyer gr. sør",
        "location": {
          "coordinates": {
            "latLon": {
              "lat": 61.187314,
              "lon": 10.41623
            }
          }
        }
      },
      {
        "id": "19632V1665341",
        "name": "Kåringen Vest",
        "location": {
          "coordinates": {
            "latLon": {
              "lat": 68.441636,
              "lon": 16.007202
            }
          }
        }
      },
      {
        "id": "14178V705183",
        "name": "ÅKERSVIKA N",
        "location": {
          "coordinates": {
            "latLon": {
              "lat": 60.804866,
              "lon": 11.111406
            }
          }
        }
      },
      {
        "id": "59215V444233",
        "name": "Fusdalkrysset (Asker)",
        "location": {
          "coordinates": {
            "latLon": {
              "lat": 59.834138,
              "lon": 10.442252
            }
          }
        }
      },
      {
        "id": "07607V249425",
        "name": "Spjelkavik V.",
        "location": {
          "coordinates": {
            "latLon": {
              "lat": 62.462026,
              "lon": 6.355016
            }
          }
        }
      },
      {
        "id": "75122V249425",
        "name": "Borgundfjordvegen",
        "location": {
          "coordinates": {
            "latLon": {
              "lat": 62.462237,
              "lon": 6.316564
            }
          }
        }
      },
      {
        "id": "10350V121824",
        "name": "Spangereid",
        "location": {
          "coordinates": {
            "latLon": {
              "lat": 58.053257,
              "lon": 7.140047
            }
          }
        }
      },
      {
        "id": "49530V804761",
        "name": "Trengereid-Osterøy",
        "location": {
          "coordinates": {
            "latLon": {
              "lat": 60.422224,
              "lon": 5.5403
            }
          }
        }
      },
      {
        "id": "87935V704658",
        "name": "Stasjonsbakken",
        "location": {
          "coordinates": {
            "latLon": {
              "lat": 62.41126,
              "lon": 11.00517
            }
          }
        }
      },
      {
        "id": "49551V444021",
        "name": "Værhaug",
        "location": {
          "coordinates": {
            "latLon": {
              "lat": 60.005536,
              "lon": 10.999854
            }
          }
        }
      },
      {
        "id": "00244V72635",
        "name": "KVÅL FV 695",
        "location": {
          "coordinates": {
            "latLon": {
              "lat": 63.228221,
              "lon": 10.285554
            }
          }
        }
      },
      {
        "id": "27813V705193",
        "name": "Grundset sør",
        "location": {
          "coordinates": {
            "latLon": {
              "lat": 60.90182,
              "lon": 11.527589
            }
          }
        }
      },
      {
        "id": "13086V72353",
        "name": "Frøyatunnelen",
        "location": {
          "coordinates": {
            "latLon": {
              "lat": 63.654931,
              "lon": 8.820481
            }
          }
        }
      },
      {
        "id": "71780V1683910",
        "name": "Aure",
        "location": {
          "coordinates": {
            "latLon": {
              "lat": 62.392185,
              "lon": 6.578722
            }
          }
        }
      },
      {
        "id": "58509V804762",
        "name": "Rampe Arna til Osterøy",
        "location": {
          "coordinates": {
            "latLon": {
              "lat": 60.421662,
              "lon": 5.536833
            }
          }
        }
      },
      {
        "id": "41300V72150",
        "name": "Garli",
        "location": {
          "coordinates": {
            "latLon": {
              "lat": 62.891551,
              "lon": 10.102077
            }
          }
        }
      },
      {
        "id": "73725V320638",
        "name": "Kopervik sør",
        "location": {
          "coordinates": {
            "latLon": {
              "lat": 59.272618,
              "lon": 5.323652
            }
          }
        }
      },
      {
        "id": "12021V805693",
        "name": "Rådal",
        "location": {
          "coordinates": {
            "latLon": {
              "lat": 60.283242,
              "lon": 5.325618
            }
          }
        }
      },
      {
        "id": "98306V885361",
        "name": "Leknes Sør",
        "location": {
          "coordinates": {
            "latLon": {
              "lat": 68.145666,
              "lon": 13.619003
            }
          }
        }
      },
      {
        "id": "46503V22163",
        "name": "Ny Bygland",
        "location": {
          "coordinates": {
            "latLon": {
              "lat": 58.828977,
              "lon": 7.795904
            }
          }
        }
      },
      {
        "id": "61592V443890",
        "name": "Asker sentrum Føyka",
        "location": {
          "coordinates": {
            "latLon": {
              "lat": 59.832567,
              "lon": 10.437362
            }
          }
        }
      },
      {
        "id": "74937V180956",
        "name": "Bjøberg",
        "location": {
          "coordinates": {
            "latLon": {
              "lat": 60.930264,
              "lon": 8.19797
            }
          }
        }
      },
      {
        "id": "27130V72849",
        "name": "HITRATUNNELEN FRA HITRA",
        "location": {
          "coordinates": {
            "latLon": {
              "lat": 63.515806,
              "lon": 9.108377
            }
          }
        }
      },
      {
        "id": "64745V443652",
        "name": "ASKER RØYKENVEIEN",
        "location": {
          "coordinates": {
            "latLon": {
              "lat": 59.833581,
              "lon": 10.437857
            }
          }
        }
      },
      {
        "id": "01212V705242",
        "name": "Mosenget",
        "location": {
          "coordinates": {
            "latLon": {
              "lat": 62.499897,
              "lon": 11.170978
            }
          }
        }
      },
      {
        "id": "47166V804764",
        "name": "Rampe Osterøy til Arna",
        "location": {
          "coordinates": {
            "latLon": {
              "lat": 60.422092,
              "lon": 5.536767
            }
          }
        }
      },
      {
        "id": "81008V41567",
        "name": "Festningsgata",
        "location": {
          "coordinates": {
            "latLon": {
              "lat": 63.428405,
              "lon": 10.416203
            }
          }
        }
      },
      {
        "id": "17134V1175669",
        "name": "Lingelemveien",
        "location": {
          "coordinates": {
            "latLon": {
              "lat": 59.183853,
              "lon": 10.238915
            }
          }
        }
      },
      {
        "id": "15016V444232",
        "name": "LYSAKER VEST",
        "location": {
          "coordinates": {
            "latLon": {
              "lat": 59.907548,
              "lon": 10.618658
            }
          }
        }
      },
      {
        "id": "16987V72691",
        "name": "HOMMELVIK ØST",
        "location": {
          "coordinates": {
            "latLon": {
              "lat": 63.415165,
              "lon": 10.809694
            }
          }
        }
      },
      {
        "id": "48688V72832",
        "name": "TANEMSFLATA",
        "location": {
          "coordinates": {
            "latLon": {
              "lat": 63.310327,
              "lon": 10.430444
            }
          }
        }
      },
      {
        "id": "00786V249561",
        "name": "Skjevik nord",
        "location": {
          "coordinates": {
            "latLon": {
              "lat": 62.78807,
              "lon": 7.523087
            }
          }
        }
      },
      {
        "id": "00509V885112",
        "name": "Nordlandsporten",
        "location": {
          "coordinates": {
            "latLon": {
              "lat": 65.10148,
              "lon": 13.342134
            }
          }
        }
      },
      {
        "id": "99680V885948",
        "name": "Sortland (Kirkebakken)",
        "location": {
          "coordinates": {
            "latLon": {
              "lat": 68.697382,
              "lon": 15.413587
            }
          }
        }
      },
      {
        "id": "53810V2172079",
        "name": "BOLSTAD TUNNEL",
        "location": {
          "coordinates": {
            "latLon": {
              "lat": 59.604152,
              "lon": 10.174541
            }
          }
        }
      },
      {
        "id": "94510V72845",
        "name": "BERG",
        "location": {
          "coordinates": {
            "latLon": {
              "lat": 63.415899,
              "lon": 9.519169
            }
          }
        }
      },
      {
        "id": "67664V384034",
        "name": "Fodnestunnelen",
        "location": {
          "coordinates": {
            "latLon": {
              "lat": 61.146103,
              "lon": 7.430109
            }
          }
        }
      },
      {
        "id": "55153V805604",
        "name": "Herland",
        "location": {
          "coordinates": {
            "latLon": {
              "lat": 60.42209,
              "lon": 5.537688
            }
          }
        }
      },
      {
        "id": "04300V72813",
        "name": "Innherredsveien ved Fjæregata",
        "location": {
          "coordinates": {
            "latLon": {
              "lat": 63.436143,
              "lon": 10.420846
            }
          }
        }
      },
      {
        "id": "61651V1867072",
        "name": "Gullringtunnelen",
        "location": {
          "coordinates": {
            "latLon": {
              "lat": 61.471261,
              "lon": 7.541481
            }
          }
        }
      },
      {
        "id": "97970V930577",
        "name": "FV367 Kirkenes X E6",
        "location": {
          "coordinates": {
            "latLon": {
              "lat": 69.72511,
              "lon": 30.06747
            }
          }
        }
      },
      {
        "id": "54128V930419",
        "name": "Havøysund (Fastlandsiden)",
        "location": {
          "coordinates": {
            "latLon": {
              "lat": 70.989704,
              "lon": 24.676888
            }
          }
        }
      },
      {
        "id": "42289V1126309",
        "name": "Gansås",
        "location": {
          "coordinates": {
            "latLon": {
              "lat": 68.782364,
              "lon": 16.550399
            }
          }
        }
      },
      {
        "id": "17838V930639",
        "name": "Sandnes",
        "location": {
          "coordinates": {
            "latLon": {
              "lat": 69.674939,
              "lon": 29.961988
            }
          }
        }
      },
      {
        "id": "88768V705253",
        "name": "Berg øst",
        "location": {
          "coordinates": {
            "latLon": {
              "lat": 60.336879,
              "lon": 12.297255
            }
          }
        }
      },
      {
        "id": "97726V384079",
        "name": "Stryn sentrum",
        "location": {
          "coordinates": {
            "latLon": {
              "lat": 61.903723,
              "lon": 6.720761
            }
          }
        }
      },
      {
        "id": "49772V181256",
        "name": "Nyhus",
        "location": {
          "coordinates": {
            "latLon": {
              "lat": 60.414086,
              "lon": 10.085941
            }
          }
        }
      },
      {
        "id": "11160V443688",
        "name": "Nordmokorset sør",
        "location": {
          "coordinates": {
            "latLon": {
              "lat": 60.249377,
              "lon": 11.095471
            }
          }
        }
      },
      {
        "id": "25719V1763349",
        "name": "Ravneheitunnelen",
        "location": {
          "coordinates": {
            "latLon": {
              "lat": 58.121508,
              "lon": 6.772744
            }
          }
        }
      },
      {
        "id": "00091V121407",
        "name": "Osen",
        "location": {
          "coordinates": {
            "latLon": {
              "lat": 58.666931,
              "lon": 6.673877
            }
          }
        }
      },
      {
        "id": "00737V704646",
        "name": "Lutnes",
        "location": {
          "coordinates": {
            "latLon": {
              "lat": 61.047651,
              "lon": 12.596283
            }
          }
        }
      },
      {
        "id": "24974V72826",
        "name": "SVORKMO",
        "location": {
          "coordinates": {
            "latLon": {
              "lat": 63.169969,
              "lon": 9.733308
            }
          }
        }
      },
      {
        "id": "01538V444229",
        "name": "Kjørbotunnelen (midlertidig)",
        "location": {
          "coordinates": {
            "latLon": {
              "lat": 59.889046,
              "lon": 10.519604
            }
          }
        }
      },
      {
        "id": "34370V249341",
        "name": "Høgset vest",
        "location": {
          "coordinates": {
            "latLon": {
              "lat": 62.964844,
              "lon": 7.743947
            }
          }
        }
      },
      {
        "id": "81611V971798",
        "name": "Asmaløy",
        "location": {
          "coordinates": {
            "latLon": {
              "lat": 59.076872,
              "lon": 10.936503
            }
          }
        }
      },
      {
        "id": "42078V249003",
        "name": "Nesjestranda nord",
        "location": {
          "coordinates": {
            "latLon": {
              "lat": 62.702741,
              "lon": 7.425024
            }
          }
        }
      },
      {
        "id": "40372V578138",
        "name": "Verrabotn mot Malm",
        "location": {
          "coordinates": {
            "latLon": {
              "lat": 63.803011,
              "lon": 10.582443
            }
          }
        }
      },
      {
        "id": "19527B2798733",
        "name": "Trikkestallen (ComEth)",
        "location": {
          "coordinates": {
            "latLon": {
              "lat": 63.415078,
              "lon": 10.39674
            }
          }
        }
      },
      {
        "id": "84032V805677",
        "name": "FOSSE",
        "location": {
          "coordinates": {
            "latLon": {
              "lat": 60.268673,
              "lon": 6.041868
            }
          }
        }
      },
      {
        "id": "05690V249047",
        "name": "Åmbø",
        "location": {
          "coordinates": {
            "latLon": {
              "lat": 62.178745,
              "lon": 6.200068
            }
          }
        }
      },
      {
        "id": "70851V249569",
        "name": "Uri",
        "location": {
          "coordinates": {
            "latLon": {
              "lat": 62.313316,
              "lon": 7.275602
            }
          }
        }
      },
      {
        "id": "81477V249074",
        "name": "Grindvika",
        "location": {
          "coordinates": {
            "latLon": {
              "lat": 62.504534,
              "lon": 6.639825
            }
          }
        }
      },
      {
        "id": "16784B383742",
        "name": "ANGEDALSVEGEN (SYKKEL)",
        "location": {
          "coordinates": {
            "latLon": {
              "lat": 61.451778,
              "lon": 5.864202
            }
          }
        }
      },
      {
        "id": "21706V1175522",
        "name": "Skjelbred",
        "location": {
          "coordinates": {
            "latLon": {
              "lat": 59.146358,
              "lon": 10.164989
            }
          }
        }
      },
      {
        "id": "07530B1807128",
        "name": "Liljevatnet sykkel",
        "location": {
          "coordinates": {
            "latLon": {
              "lat": 60.367825,
              "lon": 5.149511
            }
          }
        }
      },
      {
        "id": "11138B1926267",
        "name": "Hafstad vest (sykkel)",
        "location": {
          "coordinates": {
            "latLon": {
              "lat": 61.449632,
              "lon": 5.864222
            }
          }
        }
      },
      {
        "id": "38587V805074",
        "name": "Knappskog fartstavle",
        "location": {
          "coordinates": {
            "latLon": {
              "lat": 60.377004,
              "lon": 5.056667
            }
          }
        }
      },
      {
        "id": "81995B886007",
        "name": "Skeid sykkel CMU",
        "location": {
          "coordinates": {
            "latLon": {
              "lat": 67.276089,
              "lon": 14.450296
            }
          }
        }
      },
      {
        "id": "45031B383742",
        "name": "Prestholten (sykkel)",
        "location": {
          "coordinates": {
            "latLon": {
              "lat": 61.454655,
              "lon": 5.873926
            }
          }
        }
      },
      {
        "id": "07058B2518655",
        "name": "Butterkvern s sykkel",
        "location": {
          "coordinates": {
            "latLon": {
              "lat": 60.880514,
              "lon": 10.951578
            }
          }
        }
      },
      {
        "id": "67550V971847",
        "name": "Sarpsborg mek. verksted",
        "location": {
          "coordinates": {
            "latLon": {
              "lat": 59.264477,
              "lon": 11.044202
            }
          }
        }
      },
      {
        "id": "81103V1059995",
        "name": "Fåvang sør",
        "location": {
          "coordinates": {
            "latLon": {
              "lat": 61.428607,
              "lon": 10.211571
            }
          }
        }
      },
      {
        "id": "91195V1125792",
        "name": "Seljelvnes",
        "location": {
          "coordinates": {
            "latLon": {
              "lat": 69.273798,
              "lon": 19.422468
            }
          }
        }
      },
      {
        "id": "98103V578629",
        "name": "KLINGA",
        "location": {
          "coordinates": {
            "latLon": {
              "lat": 64.410887,
              "lon": 11.481052
            }
          }
        }
      },
      {
        "id": "32279V578595",
        "name": "Vuddudalen",
        "location": {
          "coordinates": {
            "latLon": {
              "lat": 63.5749,
              "lon": 10.985007
            }
          }
        }
      },
      {
        "id": "05330V578625",
        "name": "ASP",
        "location": {
          "coordinates": {
            "latLon": {
              "lat": 64.070592,
              "lon": 11.49989
            }
          }
        }
      },
      {
        "id": "75717V971804",
        "name": "Skjærviken",
        "location": {
          "coordinates": {
            "latLon": {
              "lat": 59.214648,
              "lon": 11.084383
            }
          }
        }
      },
      {
        "id": "32951V971566",
        "name": "Kroksund nord",
        "location": {
          "coordinates": {
            "latLon": {
              "lat": 59.619225,
              "lon": 11.597055
            }
          }
        }
      },
      {
        "id": "93264V804936",
        "name": "Lukksund",
        "location": {
          "coordinates": {
            "latLon": {
              "lat": 60.051181,
              "lon": 5.700577
            }
          }
        }
      },
      {
        "id": "55109V804935",
        "name": "Lunde",
        "location": {
          "coordinates": {
            "latLon": {
              "lat": 60.035505,
              "lon": 5.515002
            }
          }
        }
      },
      {
        "id": "51586V319592",
        "name": "Forus nord påkjøring fra Sandnes",
        "location": {
          "coordinates": {
            "latLon": {
              "lat": 58.910911,
              "lon": 5.69598
            }
          }
        }
      },
      {
        "id": "34947V319593",
        "name": "Ev39 Forus nord Avkjøring mot Forus",
        "location": {
          "coordinates": {
            "latLon": {
              "lat": 58.910855,
              "lon": 5.695545
            }
          }
        }
      },
      {
        "id": "92533V444218",
        "name": "Dalsbekken bru",
        "location": {
          "coordinates": {
            "latLon": {
              "lat": 59.760238,
              "lon": 10.809792
            }
          }
        }
      },
      {
        "id": "89771V625363",
        "name": "Nylandsveien",
        "location": {
          "coordinates": {
            "latLon": {
              "lat": 59.914281,
              "lon": 10.75972
            }
          }
        }
      },
      {
        "id": "01170V578183",
        "name": "Eidet bru mot Sørli",
        "location": {
          "coordinates": {
            "latLon": {
              "lat": 64.440784,
              "lon": 13.627594
            }
          }
        }
      },
      {
        "id": "24079B1973068",
        "name": "Elverum torg nord sykkel",
        "location": {
          "coordinates": {
            "latLon": {
              "lat": 60.889478,
              "lon": 11.56016
            }
          }
        }
      },
      {
        "id": "04452V384125",
        "name": "Kjøspollen nord",
        "location": {
          "coordinates": {
            "latLon": {
              "lat": 61.942196,
              "lon": 6.489533
            }
          }
        }
      },
      {
        "id": "09086V1060616",
        "name": "Sannom sør (E6)",
        "location": {
          "coordinates": {
            "latLon": {
              "lat": 61.126821,
              "lon": 10.437622
            }
          }
        }
      },
      {
        "id": "45136V2237107",
        "name": "Granrudmoen nord (E6)",
        "location": {
          "coordinates": {
            "latLon": {
              "lat": 61.254802,
              "lon": 10.431551
            }
          }
        }
      },
      {
        "id": "17910V444303",
        "name": "Årnes Runni",
        "location": {
          "coordinates": {
            "latLon": {
              "lat": 60.134186,
              "lon": 11.484928
            }
          }
        }
      },
      {
        "id": "97870V249083",
        "name": "Angvik",
        "location": {
          "coordinates": {
            "latLon": {
              "lat": 62.893616,
              "lon": 8.074164
            }
          }
        }
      },
      {
        "id": "05975V249630",
        "name": "Flemma",
        "location": {
          "coordinates": {
            "latLon": {
              "lat": 62.930057,
              "lon": 8.087168
            }
          }
        }
      },
      {
        "id": "50073V249449",
        "name": "Kranaveien",
        "location": {
          "coordinates": {
            "latLon": {
              "lat": 63.120257,
              "lon": 7.72841
            }
          }
        }
      },
      {
        "id": "87992V384173",
        "name": "Bukta",
        "location": {
          "coordinates": {
            "latLon": {
              "lat": 61.76499,
              "lon": 6.177154
            }
          }
        }
      },
      {
        "id": "90731V121440",
        "name": "Auglandsbakken",
        "location": {
          "coordinates": {
            "latLon": {
              "lat": 58.12153,
              "lon": 7.958512
            }
          }
        }
      },
      {
        "id": "44646V444275",
        "name": "Flateby",
        "location": {
          "coordinates": {
            "latLon": {
              "lat": 59.823271,
              "lon": 10.681817
            }
          }
        }
      },
      {
        "id": "92748V249036",
        "name": "Rovde",
        "location": {
          "coordinates": {
            "latLon": {
              "lat": 62.169216,
              "lon": 5.71083
            }
          }
        }
      },
      {
        "id": "40530V249557",
        "name": "Koparnes",
        "location": {
          "coordinates": {
            "latLon": {
              "lat": 62.140405,
              "lon": 5.6724
            }
          }
        }
      },
      {
        "id": "11913V249605",
        "name": "Eidså",
        "location": {
          "coordinates": {
            "latLon": {
              "lat": 62.109879,
              "lon": 5.689647
            }
          }
        }
      },
      {
        "id": "78741V249551",
        "name": "Tryggestad",
        "location": {
          "coordinates": {
            "latLon": {
              "lat": 62.075929,
              "lon": 6.82502
            }
          }
        }
      },
      {
        "id": "51884B1868825",
        "name": "Lura sykkel",
        "location": {
          "coordinates": {
            "latLon": {
              "lat": 58.873749,
              "lon": 5.73371
            }
          }
        }
      },
      {
        "id": "71657V971306",
        "name": "Jonsten øst",
        "location": {
          "coordinates": {
            "latLon": {
              "lat": 59.356138,
              "lon": 10.857204
            }
          }
        }
      },
      {
        "id": "41994V2388337",
        "name": "Momarken øst",
        "location": {
          "coordinates": {
            "latLon": {
              "lat": 59.576728,
              "lon": 11.333546
            }
          }
        }
      },
      {
        "id": "59044V971518",
        "name": "Fjordveien",
        "location": {
          "coordinates": {
            "latLon": {
              "lat": 59.429052,
              "lon": 10.661346
            }
          }
        }
      },
      {
        "id": "17096V443647",
        "name": "Snarøyveien",
        "location": {
          "coordinates": {
            "latLon": {
              "lat": 59.900519,
              "lon": 10.625454
            }
          }
        }
      },
      {
        "id": "68462V521378",
        "name": "Dørdal",
        "location": {
          "coordinates": {
            "latLon": {
              "lat": 58.966342,
              "lon": 9.488389
            }
          }
        }
      },
      {
        "id": "17902V971414",
        "name": "Vatvedt",
        "location": {
          "coordinates": {
            "latLon": {
              "lat": 59.299576,
              "lon": 11.408666
            }
          }
        }
      },
      {
        "id": "38293B44654",
        "name": "F06 - Øysand KV sykkel - TESTPUNKT",
        "location": {
          "coordinates": {
            "latLon": {
              "lat": 63.323649,
              "lon": 10.245327
            }
          }
        }
      },
      {
        "id": "11961V578177",
        "name": "Byaenget testpunkt",
        "location": {
          "coordinates": {
            "latLon": {
              "lat": 64.025382,
              "lon": 11.501934
            }
          }
        }
      },
      {
        "id": "77505V1665632",
        "name": "Dokka øst (Fv. 33)",
        "location": {
          "coordinates": {
            "latLon": {
              "lat": 60.822101,
              "lon": 10.107033
            }
          }
        }
      },
      {
        "id": "03926B2486022",
        "name": "Hålogalandsbrua Sykkel",
        "location": {
          "coordinates": {
            "latLon": {
              "lat": 68.449099,
              "lon": 17.460849
            }
          }
        }
      },
      {
        "id": "95313V180820",
        "name": "Bergsenga",
        "location": {
          "coordinates": {
            "latLon": {
              "lat": 59.667946,
              "lon": 10.238477
            }
          }
        }
      },
      {
        "id": "11233V971869",
        "name": "Rundtjern",
        "location": {
          "coordinates": {
            "latLon": {
              "lat": 59.547773,
              "lon": 11.535122
            }
          }
        }
      },
      {
        "id": "21514V384489",
        "name": "Alsaker",
        "location": {
          "coordinates": {
            "latLon": {
              "lat": 61.915738,
              "lon": 6.032382
            }
          }
        }
      },
      {
        "id": "32285V249644",
        "name": "Eidestranda",
        "location": {
          "coordinates": {
            "latLon": {
              "lat": 63.30269,
              "lon": 8.545656
            }
          }
        }
      },
      {
        "id": "82395V249595",
        "name": "Omsund",
        "location": {
          "coordinates": {
            "latLon": {
              "lat": 63.107059,
              "lon": 7.815368
            }
          }
        }
      },
      {
        "id": "96841V443979",
        "name": "Skårersletta",
        "location": {
          "coordinates": {
            "latLon": {
              "lat": 59.918783,
              "lon": 10.955178
            }
          }
        }
      },
      {
        "id": "58090V805313",
        "name": "Lyderhornsveien",
        "location": {
          "coordinates": {
            "latLon": {
              "lat": 60.376576,
              "lon": 5.257317
            }
          }
        }
      },
      {
        "id": "21405V443151",
        "name": "Smihagen enveg mot",
        "location": {
          "coordinates": {
            "latLon": {
              "lat": 59.703322,
              "lon": 10.737141
            }
          }
        }
      },
      {
        "id": "27019V805142",
        "name": "Michael Krohns gate ved bomstasjon",
        "location": {
          "coordinates": {
            "latLon": {
              "lat": 60.381649,
              "lon": 5.317685
            }
          }
        }
      },
      {
        "id": "26139V1211205",
        "name": "ENSBY NORD (E6)",
        "location": {
          "coordinates": {
            "latLon": {
              "lat": 61.201941,
              "lon": 10.421482
            }
          }
        }
      },
      {
        "id": "52126V319814",
        "name": "NORDBØ  FARTSTAVLE",
        "location": {
          "coordinates": {
            "latLon": {
              "lat": 59.372087,
              "lon": 5.281991
            }
          }
        }
      },
      {
        "id": "79092V805000",
        "name": "Eikelandsosen",
        "location": {
          "coordinates": {
            "latLon": {
              "lat": 60.237715,
              "lon": 5.747641
            }
          }
        }
      },
      {
        "id": "12426B2798733",
        "name": "Trikkestallen",
        "location": {
          "coordinates": {
            "latLon": {
              "lat": 63.414974,
              "lon": 10.396793
            }
          }
        }
      },
      {
        "id": "77737V249600",
        "name": "Amdam",
        "location": {
          "coordinates": {
            "latLon": {
              "lat": 62.465469,
              "lon": 6.83249
            }
          }
        }
      },
      {
        "id": "00052V971723",
        "name": "Ørje vest",
        "location": {
          "coordinates": {
            "latLon": {
              "lat": 59.48467,
              "lon": 11.646164
            }
          }
        }
      },
      {
        "id": "40948V121493",
        "name": "Knarrevik",
        "location": {
          "coordinates": {
            "latLon": {
              "lat": 58.140174,
              "lon": 8.06053
            }
          }
        }
      },
      {
        "id": "80911V249530",
        "name": "Solneset",
        "location": {
          "coordinates": {
            "latLon": {
              "lat": 62.905805,
              "lon": 7.681187
            }
          }
        }
      },
      {
        "id": "98677V121493",
        "name": "Kongshavn",
        "location": {
          "coordinates": {
            "latLon": {
              "lat": 58.118692,
              "lon": 8.112761
            }
          }
        }
      },
      {
        "id": "05864V249059",
        "name": "Eidsvik",
        "location": {
          "coordinates": {
            "latLon": {
              "lat": 62.545319,
              "lon": 6.580043
            }
          }
        }
      },
      {
        "id": "10131V249424",
        "name": "Borgundvegen",
        "location": {
          "coordinates": {
            "latLon": {
              "lat": 62.471322,
              "lon": 6.200061
            }
          }
        }
      },
      {
        "id": "98792V249144",
        "name": "Raftenes",
        "location": {
          "coordinates": {
            "latLon": {
              "lat": 62.30242,
              "lon": 5.715935
            }
          }
        }
      },
      {
        "id": "38914V248981",
        "name": "Leikongeidet",
        "location": {
          "coordinates": {
            "latLon": {
              "lat": 62.243923,
              "lon": 5.759477
            }
          }
        }
      },
      {
        "id": "09777V249169",
        "name": "Mork",
        "location": {
          "coordinates": {
            "latLon": {
              "lat": 62.168174,
              "lon": 6.022333
            }
          }
        }
      },
      {
        "id": "60597V249545",
        "name": "Tynes",
        "location": {
          "coordinates": {
            "latLon": {
              "lat": 62.370483,
              "lon": 6.572439
            }
          }
        }
      },
      {
        "id": "59072V249597",
        "name": "Overå",
        "location": {
          "coordinates": {
            "latLon": {
              "lat": 62.305478,
              "lon": 7.09451
            }
          }
        }
      },
      {
        "id": "80064V320264",
        "name": "Hundvåg Ring",
        "location": {
          "coordinates": {
            "latLon": {
              "lat": 58.993958,
              "lon": 5.73438
            }
          }
        }
      },
      {
        "id": "91761V625485",
        "name": "Ljabrudiagonalen",
        "location": {
          "coordinates": {
            "latLon": {
              "lat": 59.840297,
              "lon": 10.786571
            }
          }
        }
      },
      {
        "id": "45595V249524",
        "name": "Vegsund",
        "location": {
          "coordinates": {
            "latLon": {
              "lat": 62.428472,
              "lon": 6.344935
            }
          }
        }
      },
      {
        "id": "84583V1060754",
        "name": "Skurengslia",
        "location": {
          "coordinates": {
            "latLon": {
              "lat": 61.675173,
              "lon": 9.533003
            }
          }
        }
      },
      {
        "id": "24484V1060113",
        "name": "Langrompa (Fv. 27)",
        "location": {
          "coordinates": {
            "latLon": {
              "lat": 61.687703,
              "lon": 10.133566
            }
          }
        }
      },
      {
        "id": "04211V1677432",
        "name": "Nye Ilsvikøra",
        "location": {
          "coordinates": {
            "latLon": {
              "lat": 63.430506,
              "lon": 10.359534
            }
          }
        }
      },
      {
        "id": "63845V2659017",
        "name": "Mellomdokka rampe rasteplass",
        "location": {
          "coordinates": {
            "latLon": {
              "lat": 61.581027,
              "lon": 9.764884
            }
          }
        }
      },
      {
        "id": "46418B2616452",
        "name": "Elgeseter bru sykkel øst",
        "location": {
          "coordinates": {
            "latLon": {
              "lat": 63.425015,
              "lon": 10.393928
            }
          }
        }
      },
      {
        "id": "35645V248950",
        "name": "Nørvasund",
        "location": {
          "coordinates": {
            "latLon": {
              "lat": 62.47023,
              "lon": 6.242926
            }
          }
        }
      },
      {
        "id": "90598V249547",
        "name": "Hevsdalen",
        "location": {
          "coordinates": {
            "latLon": {
              "lat": 62.29353,
              "lon": 6.811614
            }
          }
        }
      },
      {
        "id": "01015V971782",
        "name": "Spydeberg øst",
        "location": {
          "coordinates": {
            "latLon": {
              "lat": 59.608196,
              "lon": 11.09733
            }
          }
        }
      },
      {
        "id": "05525V971781",
        "name": "Jorderud",
        "location": {
          "coordinates": {
            "latLon": {
              "lat": 59.539574,
              "lon": 11.521308
            }
          }
        }
      },
      {
        "id": "20210V1175874",
        "name": "Unneberg",
        "location": {
          "coordinates": {
            "latLon": {
              "lat": 59.152238,
              "lon": 10.254017
            }
          }
        }
      },
      {
        "id": "17330V930335",
        "name": "Masi",
        "location": {
          "coordinates": {
            "latLon": {
              "lat": 69.420539,
              "lon": 23.616284
            }
          }
        }
      },
      {
        "id": "01919V249085",
        "name": "Toven N.",
        "location": {
          "coordinates": {
            "latLon": {
              "lat": 62.794441,
              "lon": 8.122399
            }
          }
        }
      },
      {
        "id": "05978B2621732",
        "name": "Røykenv v/eidssletta sykkel manuell",
        "location": {
          "coordinates": {
            "latLon": {
              "lat": 59.801298,
              "lon": 10.445052
            }
          }
        }
      },
      {
        "id": "25419V72197",
        "name": "Rampe E6 Okstadbakken retning Heimdal",
        "location": {
          "coordinates": {
            "latLon": {
              "lat": 63.384363,
              "lon": 10.37541
            }
          }
        }
      },
      {
        "id": "89312V971778",
        "name": "Fiulstad",
        "location": {
          "coordinates": {
            "latLon": {
              "lat": 59.403305,
              "lon": 10.718397
            }
          }
        }
      },
      {
        "id": "18366V971485",
        "name": "Knatterød",
        "location": {
          "coordinates": {
            "latLon": {
              "lat": 59.342735,
              "lon": 11.270142
            }
          }
        }
      },
      {
        "id": "00093V886070",
        "name": "HOLANDSVIKA-DREVJA",
        "location": {
          "coordinates": {
            "latLon": {
              "lat": 65.950112,
              "lon": 13.146842
            }
          }
        }
      },
      {
        "id": "97853V384482",
        "name": "Vassenden",
        "location": {
          "coordinates": {
            "latLon": {
              "lat": 61.502796,
              "lon": 6.129853
            }
          }
        }
      },
      {
        "id": "69870V249593",
        "name": "Gyl",
        "location": {
          "coordinates": {
            "latLon": {
              "lat": 62.951294,
              "lon": 8.146516
            }
          }
        }
      },
      {
        "id": "61469V605671",
        "name": "Tvetenveien v/Haugerud",
        "location": {
          "coordinates": {
            "latLon": {
              "lat": 59.922562,
              "lon": 10.8557
            }
          }
        }
      },
      {
        "id": "88356V72157",
        "name": "Jernbanebrua",
        "location": {
          "coordinates": {
            "latLon": {
              "lat": 63.435088,
              "lon": 10.400117
            }
          }
        }
      },
      {
        "id": "78481V42532",
        "name": "Stiklestadveien mot Jarleveien",
        "location": {
          "coordinates": {
            "latLon": {
              "lat": 63.441599,
              "lon": 10.431559
            }
          }
        }
      },
      {
        "id": "64219V805692",
        "name": "Årskog",
        "location": {
          "coordinates": {
            "latLon": {
              "lat": 59.935241,
              "lon": 5.33599
            }
          }
        }
      },
      {
        "id": "12568V1060441",
        "name": "Berge nord",
        "location": {
          "coordinates": {
            "latLon": {
              "lat": 61.46137,
              "lon": 10.163938
            }
          }
        }
      },
      {
        "id": "74942V249000",
        "name": "Tokle",
        "location": {
          "coordinates": {
            "latLon": {
              "lat": 62.576704,
              "lon": 7.768679
            }
          }
        }
      },
      {
        "id": "77119V885248",
        "name": "Svartistunnelen",
        "location": {
          "coordinates": {
            "latLon": {
              "lat": 66.731537,
              "lon": 13.912636
            }
          }
        }
      },
      {
        "id": "49169V521331",
        "name": "Tuddal",
        "location": {
          "coordinates": {
            "latLon": {
              "lat": 59.710496,
              "lon": 8.857589
            }
          }
        }
      },
      {
        "id": "48113V971798",
        "name": "Skjelsbu",
        "location": {
          "coordinates": {
            "latLon": {
              "lat": 59.098238,
              "lon": 10.911452
            }
          }
        }
      },
      {
        "id": "84616V384532",
        "name": "Rake",
        "location": {
          "coordinates": {
            "latLon": {
              "lat": 61.873711,
              "lon": 6.813275
            }
          }
        }
      },
      {
        "id": "92479V249072",
        "name": "Stokkeland",
        "location": {
          "coordinates": {
            "latLon": {
              "lat": 62.622913,
              "lon": 7.02099
            }
          }
        }
      },
      {
        "id": "32658V249585",
        "name": "Surnadal",
        "location": {
          "coordinates": {
            "latLon": {
              "lat": 62.974075,
              "lon": 8.745806
            }
          }
        }
      },
      {
        "id": "21978V521397",
        "name": "Moheim",
        "location": {
          "coordinates": {
            "latLon": {
              "lat": 59.125506,
              "lon": 9.695077
            }
          }
        }
      },
      {
        "id": "21945V521158",
        "name": "Lårdal",
        "location": {
          "coordinates": {
            "latLon": {
              "lat": 59.491458,
              "lon": 8.167931
            }
          }
        }
      },
      {
        "id": "56386V521143",
        "name": "Gøytilkrysset",
        "location": {
          "coordinates": {
            "latLon": {
              "lat": 59.476891,
              "lon": 7.954078
            }
          }
        }
      },
      {
        "id": "32600V521502",
        "name": "Lognvik",
        "location": {
          "coordinates": {
            "latLon": {
              "lat": 59.673323,
              "lon": 8.182747
            }
          }
        }
      },
      {
        "id": "37915V971568",
        "name": "Sekkelsten vest",
        "location": {
          "coordinates": {
            "latLon": {
              "lat": 59.576588,
              "lon": 11.195233
            }
          }
        }
      },
      {
        "id": "99593V521339",
        "name": "Tessungdalen",
        "location": {
          "coordinates": {
            "latLon": {
              "lat": 60.07015,
              "lon": 8.774125
            }
          }
        }
      },
      {
        "id": "53994V521414",
        "name": "Miland",
        "location": {
          "coordinates": {
            "latLon": {
              "lat": 59.897096,
              "lon": 8.701577
            }
          }
        }
      },
      {
        "id": "20818V521413",
        "name": "Vemork",
        "location": {
          "coordinates": {
            "latLon": {
              "lat": 59.87465,
              "lon": 8.490273
            }
          }
        }
      },
      {
        "id": "93216V521201",
        "name": "Krossli",
        "location": {
          "coordinates": {
            "latLon": {
              "lat": 59.359153,
              "lon": 8.15474
            }
          }
        }
      },
      {
        "id": "08696V521141",
        "name": "Åmdals verk",
        "location": {
          "coordinates": {
            "latLon": {
              "lat": 59.372879,
              "lon": 8.049136
            }
          }
        }
      },
      {
        "id": "53444V521424",
        "name": "Vrådal",
        "location": {
          "coordinates": {
            "latLon": {
              "lat": 59.327529,
              "lon": 8.413529
            }
          }
        }
      },
      {
        "id": "63807V521209",
        "name": "Gautefall",
        "location": {
          "coordinates": {
            "latLon": {
              "lat": 59.077772,
              "lon": 8.825381
            }
          }
        }
      },
      {
        "id": "94778V971796",
        "name": "Svingen",
        "location": {
          "coordinates": {
            "latLon": {
              "lat": 59.133375,
              "lon": 11.282941
            }
          }
        }
      },
      {
        "id": "98059V320501",
        "name": "Sundvegen X Kvalavågvegen",
        "location": {
          "coordinates": {
            "latLon": {
              "lat": 59.322044,
              "lon": 5.224011
            }
          }
        }
      },
      {
        "id": "04814V220359",
        "name": "Larsgårdringen ",
        "location": {
          "coordinates": {
            "latLon": {
              "lat": 62.473689,
              "lon": 6.23374
            }
          }
        }
      },
      {
        "id": "93854V443786",
        "name": "Gml. Mossevei Oslo gr.",
        "location": {
          "coordinates": {
            "latLon": {
              "lat": 59.819519,
              "lon": 10.772948
            }
          }
        }
      },
      {
        "id": "41964V72828",
        "name": "HAAKER",
        "location": {
          "coordinates": {
            "latLon": {
              "lat": 62.608888,
              "lon": 9.615325
            }
          }
        }
      },
      {
        "id": "97076V72643",
        "name": "MELHUS SENTR",
        "location": {
          "coordinates": {
            "latLon": {
              "lat": 63.286491,
              "lon": 10.273318
            }
          }
        }
      },
      {
        "id": "50767V72878",
        "name": "ØLHOLMSLYKKJA",
        "location": {
          "coordinates": {
            "latLon": {
              "lat": 63.321093,
              "lon": 10.135585
            }
          }
        }
      },
      {
        "id": "09348V72878",
        "name": "ØYSAND VEST",
        "location": {
          "coordinates": {
            "latLon": {
              "lat": 63.320972,
              "lon": 10.197183
            }
          }
        }
      },
      {
        "id": "70353V72688",
        "name": "VIKHAMMER",
        "location": {
          "coordinates": {
            "latLon": {
              "lat": 63.436531,
              "lon": 10.619563
            }
          }
        }
      },
      {
        "id": "98737V1677432",
        "name": "ILSVIKØRA",
        "location": {
          "coordinates": {
            "latLon": {
              "lat": 63.431952,
              "lon": 10.351429
            }
          }
        }
      },
      {
        "id": "69522V72836",
        "name": "LEINØRA",
        "location": {
          "coordinates": {
            "latLon": {
              "lat": 63.343513,
              "lon": 10.243346
            }
          }
        }
      },
      {
        "id": "43627V72850",
        "name": "SISTRANDA SENTR",
        "location": {
          "coordinates": {
            "latLon": {
              "lat": 63.733462,
              "lon": 8.830555
            }
          }
        }
      },
      {
        "id": "74529V72851",
        "name": "KRABBSUNDBRUA",
        "location": {
          "coordinates": {
            "latLon": {
              "lat": 63.641618,
              "lon": 9.001294
            }
          }
        }
      },
      {
        "id": "94685V144855",
        "name": "VEAR",
        "location": {
          "coordinates": {
            "latLon": {
              "lat": 59.728318,
              "lon": 10.452401
            }
          }
        }
      },
      {
        "id": "77214V181261",
        "name": "SOHO",
        "location": {
          "coordinates": {
            "latLon": {
              "lat": 59.664927,
              "lon": 9.687534
            }
          }
        }
      },
      {
        "id": "02032V181043",
        "name": "BYBRUA",
        "location": {
          "coordinates": {
            "latLon": {
              "lat": 59.725631,
              "lon": 10.249559
            }
          }
        }
      },
      {
        "id": "99797V180782",
        "name": "RINGEN",
        "location": {
          "coordinates": {
            "latLon": {
              "lat": 60.372615,
              "lon": 10.082393
            }
          }
        }
      },
      {
        "id": "87986V885137",
        "name": "HESTBRINKEN",
        "location": {
          "coordinates": {
            "latLon": {
              "lat": 66.804199,
              "lon": 15.423439
            }
          }
        }
      },
      {
        "id": "03830V885915",
        "name": "KORGEN",
        "location": {
          "coordinates": {
            "latLon": {
              "lat": 66.089697,
              "lon": 13.816463
            }
          }
        }
      },
      {
        "id": "12980V885268",
        "name": "HOLMVASSELV",
        "location": {
          "coordinates": {
            "latLon": {
              "lat": 65.370761,
              "lon": 13.349041
            }
          }
        }
      },
      {
        "id": "50586V885388",
        "name": "Nord-Herøy",
        "location": {
          "coordinates": {
            "latLon": {
              "lat": 65.996354,
              "lon": 12.308743
            }
          }
        }
      },
      {
        "id": "40488V971307",
        "name": "Patterød sør",
        "location": {
          "coordinates": {
            "latLon": {
              "lat": 59.440656,
              "lon": 10.705699
            }
          }
        }
      },
      {
        "id": "62407V121747",
        "name": "FØSSA",
        "location": {
          "coordinates": {
            "latLon": {
              "lat": 58.0956,
              "lon": 7.800174
            }
          }
        }
      },
      {
        "id": "73001V121766",
        "name": "BLÅKEDALEN",
        "location": {
          "coordinates": {
            "latLon": {
              "lat": 58.450536,
              "lon": 7.275005
            }
          }
        }
      },
      {
        "id": "53152V141952",
        "name": "PROF. SMITHS ALLE",
        "location": {
          "coordinates": {
            "latLon": {
              "lat": 59.739877,
              "lon": 10.171402
            }
          }
        }
      },
      {
        "id": "06366V1175889",
        "name": "KOPSTAD",
        "location": {
          "coordinates": {
            "latLon": {
              "lat": 59.421569,
              "lon": 10.353176
            }
          }
        }
      },
      {
        "id": "80614V22147",
        "name": "BROKELANDSHEIA",
        "location": {
          "coordinates": {
            "latLon": {
              "lat": 58.83169,
              "lon": 9.08689
            }
          }
        }
      },
      {
        "id": "11044V2390266",
        "name": "SAGDAMMEN - nedlagt",
        "location": {
          "coordinates": {
            "latLon": {
              "lat": 63.568719,
              "lon": 10.177237
            }
          }
        }
      },
      {
        "id": "47570V2237110",
        "name": "ØYER NORD",
        "location": {
          "coordinates": {
            "latLon": {
              "lat": 61.268766,
              "lon": 10.40661
            }
          }
        }
      },
      {
        "id": "00613V1666814",
        "name": "BOGANES NORD",
        "location": {
          "coordinates": {
            "latLon": {
              "lat": 58.914167,
              "lon": 5.726013
            }
          }
        }
      },
      {
        "id": "78460V319732",
        "name": "BOGANES SYD",
        "location": {
          "coordinates": {
            "latLon": {
              "lat": 58.909481,
              "lon": 5.727908
            }
          }
        }
      },
      {
        "id": "85902V320593",
        "name": "HØLE",
        "location": {
          "coordinates": {
            "latLon": {
              "lat": 58.896756,
              "lon": 6.007252
            }
          }
        }
      },
      {
        "id": "08897V319847",
        "name": "VIKESÅ BRU",
        "location": {
          "coordinates": {
            "latLon": {
              "lat": 58.638137,
              "lon": 6.086331
            }
          }
        }
      },
      {
        "id": "89005V320576",
        "name": "RÅSE BRU",
        "location": {
          "coordinates": {
            "latLon": {
              "lat": 58.467904,
              "lon": 6.523664
            }
          }
        }
      },
      {
        "id": "31443V319702",
        "name": "ÅNA SIRA",
        "location": {
          "coordinates": {
            "latLon": {
              "lat": 58.308564,
              "lon": 6.414566
            }
          }
        }
      },
      {
        "id": "52345V1696393",
        "name": "SKÅREDALEN",
        "location": {
          "coordinates": {
            "latLon": {
              "lat": 59.401503,
              "lon": 5.334506
            }
          }
        }
      },
      {
        "id": "11137V444236",
        "name": "ULLENSAKER KRK.",
        "location": {
          "coordinates": {
            "latLon": {
              "lat": 60.082094,
              "lon": 11.160854
            }
          }
        }
      },
      {
        "id": "09037V943474",
        "name": "St Mariegate",
        "location": {
          "coordinates": {
            "latLon": {
              "lat": 59.280106,
              "lon": 11.121466
            }
          }
        }
      },
      {
        "id": "78450V804811",
        "name": "Halhjem - Moberg",
        "location": {
          "coordinates": {
            "latLon": {
              "lat": 60.181042,
              "lon": 5.45198
            }
          }
        }
      },
      {
        "id": "09661V1175833",
        "name": "Svarstad",
        "location": {
          "coordinates": {
            "latLon": {
              "lat": 59.393965,
              "lon": 9.951851
            }
          }
        }
      },
      {
        "id": "96986V1175833",
        "name": "Skjerven",
        "location": {
          "coordinates": {
            "latLon": {
              "lat": 59.456978,
              "lon": 10.019268
            }
          }
        }
      },
      {
        "id": "27630V1175817",
        "name": "Amundrød",
        "location": {
          "coordinates": {
            "latLon": {
              "lat": 59.103034,
              "lon": 10.106242
            }
          }
        }
      },
      {
        "id": "97499V444301",
        "name": "GYSTAD",
        "location": {
          "coordinates": {
            "latLon": {
              "lat": 60.140631,
              "lon": 11.193051
            }
          }
        }
      },
      {
        "id": "22418V443478",
        "name": "MAURA",
        "location": {
          "coordinates": {
            "latLon": {
              "lat": 60.256082,
              "lon": 11.046844
            }
          }
        }
      },
      {
        "id": "65498V444230",
        "name": "NYGÅRD NORD",
        "location": {
          "coordinates": {
            "latLon": {
              "lat": 59.724268,
              "lon": 10.785644
            }
          }
        }
      },
      {
        "id": "87348V319729",
        "name": "FORUS NF.SANDNES GR",
        "location": {
          "coordinates": {
            "latLon": {
              "lat": 58.890147,
              "lon": 5.731646
            }
          }
        }
      },
      {
        "id": "45014V444012",
        "name": "SM NITTEDALGT.V/OBS",
        "location": {
          "coordinates": {
            "latLon": {
              "lat": 59.956985,
              "lon": 11.026145
            }
          }
        }
      },
      {
        "id": "03022V805629",
        "name": "RØLDAL",
        "location": {
          "coordinates": {
            "latLon": {
              "lat": 59.852439,
              "lon": 6.867702
            }
          }
        }
      },
      {
        "id": "04245V805003",
        "name": "GAMLE PUDDEFJORDSBRO",
        "location": {
          "coordinates": {
            "latLon": {
              "lat": 60.386215,
              "lon": 5.319008
            }
          }
        }
      },
      {
        "id": "97313V805143",
        "name": "GRAVDAL",
        "location": {
          "coordinates": {
            "latLon": {
              "lat": 60.380102,
              "lon": 5.26863
            }
          }
        }
      },
      {
        "id": "10936V805657",
        "name": "DALSLEITET",
        "location": {
          "coordinates": {
            "latLon": {
              "lat": 60.601437,
              "lon": 6.549117
            }
          }
        }
      },
      {
        "id": "28050V805658",
        "name": "MYRKDAL",
        "location": {
          "coordinates": {
            "latLon": {
              "lat": 60.880169,
              "lon": 6.508762
            }
          }
        }
      },
      {
        "id": "01885V2534401",
        "name": "GAUPHOLM",
        "location": {
          "coordinates": {
            "latLon": {
              "lat": 60.363815,
              "lon": 5.694126
            }
          }
        }
      },
      {
        "id": "09370V804786",
        "name": "ROMARHEIM",
        "location": {
          "coordinates": {
            "latLon": {
              "lat": 60.747708,
              "lon": 5.628132
            }
          }
        }
      },
      {
        "id": "70332V805837",
        "name": "KROSSLEITET",
        "location": {
          "coordinates": {
            "latLon": {
              "lat": 60.90772,
              "lon": 5.472631
            }
          }
        }
      },
      {
        "id": "86204V804917",
        "name": "BRATTLANDSDALEN",
        "location": {
          "coordinates": {
            "latLon": {
              "lat": 59.749598,
              "lon": 6.775284
            }
          }
        }
      },
      {
        "id": "80036V1696541",
        "name": "SØRÅS (NEDLAGT)",
        "location": {
          "coordinates": {
            "latLon": {
              "lat": 60.311046,
              "lon": 5.331378
            }
          }
        }
      },
      {
        "id": "71215V2403072",
        "name": "SKJOLD, TRAVERBANEN",
        "location": {
          "coordinates": {
            "latLon": {
              "lat": 60.309946,
              "lon": 5.348536
            }
          }
        }
      },
      {
        "id": "44595V2684728",
        "name": "FLATØY",
        "location": {
          "coordinates": {
            "latLon": {
              "lat": 60.541466,
              "lon": 5.262722
            }
          }
        }
      },
      {
        "id": "71507V805682",
        "name": "LINDÅS",
        "location": {
          "coordinates": {
            "latLon": {
              "lat": 60.74008,
              "lon": 5.152885
            }
          }
        }
      },
      {
        "id": "24562V805718",
        "name": "BJØRGE",
        "location": {
          "coordinates": {
            "latLon": {
              "lat": 60.338561,
              "lon": 5.250285
            }
          }
        }
      },
      {
        "id": "60913V805631",
        "name": "FJERA",
        "location": {
          "coordinates": {
            "latLon": {
              "lat": 59.873607,
              "lon": 6.387556
            }
          }
        }
      },
      {
        "id": "45189V805710",
        "name": "VORLAND",
        "location": {
          "coordinates": {
            "latLon": {
              "lat": 60.239433,
              "lon": 5.067786
            }
          }
        }
      },
      {
        "id": "55009V805681",
        "name": "HUNDVIN",
        "location": {
          "coordinates": {
            "latLon": {
              "lat": 60.665238,
              "lon": 5.23958
            }
          }
        }
      },
      {
        "id": "53491V805595",
        "name": "HAUGSVIK",
        "location": {
          "coordinates": {
            "latLon": {
              "lat": 60.818469,
              "lon": 6.689282
            }
          }
        }
      },
      {
        "id": "46032V804738",
        "name": "LØNO",
        "location": {
          "coordinates": {
            "latLon": {
              "lat": 60.682622,
              "lon": 6.460688
            }
          }
        }
      },
      {
        "id": "49427V805599",
        "name": "GEITLE",
        "location": {
          "coordinates": {
            "latLon": {
              "lat": 60.636894,
              "lon": 6.238193
            }
          }
        }
      },
      {
        "id": "39443V804769",
        "name": "ENGEVIK",
        "location": {
          "coordinates": {
            "latLon": {
              "lat": 59.942704,
              "lon": 5.426357
            }
          }
        }
      },
      {
        "id": "61326V805608",
        "name": "FØRDE",
        "location": {
          "coordinates": {
            "latLon": {
              "lat": 59.614231,
              "lon": 5.480262
            }
          }
        }
      },
      {
        "id": "31949V805761",
        "name": "MATRE",
        "location": {
          "coordinates": {
            "latLon": {
              "lat": 59.799345,
              "lon": 5.972339
            }
          }
        }
      },
      {
        "id": "34289V805008",
        "name": "LODDEFJORD(NEDLAGT)",
        "location": {
          "coordinates": {
            "latLon": {
              "lat": 60.367402,
              "lon": 5.233954
            }
          }
        }
      },
      {
        "id": "42615V444251",
        "name": "Mjær",
        "location": {
          "coordinates": {
            "latLon": {
              "lat": 59.723551,
              "lon": 11.059303
            }
          }
        }
      },
      {
        "id": "13289V2571508",
        "name": "Langhusveien",
        "location": {
          "coordinates": {
            "latLon": {
              "lat": 59.730229,
              "lon": 10.841707
            }
          }
        }
      },
      {
        "id": "40197V625504",
        "name": "DRAMMENSV V/TENNISHA",
        "location": {
          "coordinates": {
            "latLon": {
              "lat": 59.921973,
              "lon": 10.683446
            }
          }
        }
      },
      {
        "id": "39750V625530",
        "name": "ØSTRE AKERV V/VEITV",
        "location": {
          "coordinates": {
            "latLon": {
              "lat": 59.940507,
              "lon": 10.856105
            }
          }
        }
      },
      {
        "id": "84797V625405",
        "name": "STORE RINGVEI",
        "location": {
          "coordinates": {
            "latLon": {
              "lat": 59.946553,
              "lon": 10.708643
            }
          }
        }
      },
      {
        "id": "69869V625292",
        "name": "E18-MOSSEV V/BEKKELA",
        "location": {
          "coordinates": {
            "latLon": {
              "lat": 59.884039,
              "lon": 10.769429
            }
          }
        }
      },
      {
        "id": "12962V625515",
        "name": "TØYENBEKKEN 2007",
        "location": {
          "coordinates": {
            "latLon": {
              "lat": 59.9112,
              "lon": 10.759795
            }
          }
        }
      },
      {
        "id": "71879V625369",
        "name": "MAILUNDVEIEN",
        "location": {
          "coordinates": {
            "latLon": {
              "lat": 59.930809,
              "lon": 10.770964
            }
          }
        }
      },
      {
        "id": "04720V625497",
        "name": "SØRVANGEN",
        "location": {
          "coordinates": {
            "latLon": {
              "lat": 59.916967,
              "lon": 10.6552
            }
          }
        }
      },
      {
        "id": "77367V625580",
        "name": "MAJORSTUEN",
        "location": {
          "coordinates": {
            "latLon": {
              "lat": 59.929249,
              "lon": 10.714291
            }
          }
        }
      },
      {
        "id": "72073V625213",
        "name": "ULVENSPLITTEN 2002",
        "location": {
          "coordinates": {
            "latLon": {
              "lat": 59.923184,
              "lon": 10.812926
            }
          }
        }
      },
      {
        "id": "90021V625363",
        "name": "NYLANDSVEIEN",
        "location": {
          "coordinates": {
            "latLon": {
              "lat": 59.914296,
              "lon": 10.759736
            }
          }
        }
      },
      {
        "id": "33985V625485",
        "name": "LJABRUVEIEN",
        "location": {
          "coordinates": {
            "latLon": {
              "lat": 59.843771,
              "lon": 10.819757
            }
          }
        }
      },
      {
        "id": "43198V625500",
        "name": "GALGEBERG",
        "location": {
          "coordinates": {
            "latLon": {
              "lat": 59.905446,
              "lon": 10.780746
            }
          }
        }
      },
      {
        "id": "32766V605350",
        "name": "SMALVOLLVEIEN",
        "location": {
          "coordinates": {
            "latLon": {
              "lat": 59.91558,
              "lon": 10.832788
            }
          }
        }
      },
      {
        "id": "26397V605239",
        "name": "SAM EYDES VEI",
        "location": {
          "coordinates": {
            "latLon": {
              "lat": 59.937111,
              "lon": 10.881485
            }
          }
        }
      },
      {
        "id": "53295V705207",
        "name": "BRANDVAL S",
        "location": {
          "coordinates": {
            "latLon": {
              "lat": 60.313421,
              "lon": 12.019041
            }
          }
        }
      },
      {
        "id": "29546B2798733",
        "name": "Trikkestallen (Otus3D)",
        "location": {
          "coordinates": {
            "latLon": {
              "lat": 63.415227,
              "lon": 10.396666
            }
          }
        }
      },
      {
        "id": "79597V1175830",
        "name": "Kvelde nord",
        "location": {
          "coordinates": {
            "latLon": {
              "lat": 59.211508,
              "lon": 9.964193
            }
          }
        }
      },
      {
        "id": "06394V605377",
        "name": "SOGNSVEIEN",
        "location": {
          "coordinates": {
            "latLon": {
              "lat": 59.950494,
              "lon": 10.729743
            }
          }
        }
      },
      {
        "id": "06921V603649",
        "name": "BETZY KJELDSBERGS V",
        "location": {
          "coordinates": {
            "latLon": {
              "lat": 59.951973,
              "lon": 10.775916
            }
          }
        }
      },
      {
        "id": "19918V605851",
        "name": "ØSTENSJØVEIEN",
        "location": {
          "coordinates": {
            "latLon": {
              "lat": 59.903908,
              "lon": 10.824752
            }
          }
        }
      },
      {
        "id": "53323V603741",
        "name": "BROBEKKVEIEN",
        "location": {
          "coordinates": {
            "latLon": {
              "lat": 59.933973,
              "lon": 10.827115
            }
          }
        }
      },
      {
        "id": "23377V384193",
        "name": "KJØDE",
        "location": {
          "coordinates": {
            "latLon": {
              "lat": 62.003388,
              "lon": 5.465511
            }
          }
        }
      },
      {
        "id": "89462V2487649",
        "name": "BORLAUG AUST",
        "location": {
          "coordinates": {
            "latLon": {
              "lat": 61.07411,
              "lon": 7.956971
            }
          }
        }
      },
      {
        "id": "98406V384089",
        "name": "BORLAUG SØR",
        "location": {
          "coordinates": {
            "latLon": {
              "lat": 61.072449,
              "lon": 7.955091
            }
          }
        }
      },
      {
        "id": "65662V384517",
        "name": "VASSBAKKEN",
        "location": {
          "coordinates": {
            "latLon": {
              "lat": 61.483032,
              "lon": 7.637211
            }
          }
        }
      },
      {
        "id": "43667V384518",
        "name": "GAUPNE SØR",
        "location": {
          "coordinates": {
            "latLon": {
              "lat": 61.400365,
              "lon": 7.299207
            }
          }
        }
      },
      {
        "id": "53145V384518",
        "name": "GAUPNE VEST",
        "location": {
          "coordinates": {
            "latLon": {
              "lat": 61.4005,
              "lon": 7.285481
            }
          }
        }
      },
      {
        "id": "47210V384102",
        "name": "KVAM",
        "location": {
          "coordinates": {
            "latLon": {
              "lat": 61.245576,
              "lon": 7.111547
            }
          }
        }
      },
      {
        "id": "02207V384135",
        "name": "RØNEID",
        "location": {
          "coordinates": {
            "latLon": {
              "lat": 61.402852,
              "lon": 7.2845
            }
          }
        }
      },
      {
        "id": "70721V384111",
        "name": "DALSØYRA",
        "location": {
          "coordinates": {
            "latLon": {
              "lat": 60.943821,
              "lon": 5.136934
            }
          }
        }
      },
      {
        "id": "79857V384528",
        "name": "FLEKKE SØR",
        "location": {
          "coordinates": {
            "latLon": {
              "lat": 61.299975,
              "lon": 5.358846
            }
          }
        }
      },
      {
        "id": "77323V384530",
        "name": "OSEN BRU VEST",
        "location": {
          "coordinates": {
            "latLon": {
              "lat": 61.359733,
              "lon": 5.670147
            }
          }
        }
      },
      {
        "id": "92204V384149",
        "name": "FLEKKE VEST",
        "location": {
          "coordinates": {
            "latLon": {
              "lat": 61.307869,
              "lon": 5.352723
            }
          }
        }
      },
      {
        "id": "78543V384144",
        "name": "LAVIK VEST",
        "location": {
          "coordinates": {
            "latLon": {
              "lat": 61.069819,
              "lon": 5.396443
            }
          }
        }
      },