{
"type": "FeatureCollection",
"name": "Glasgow_AADT_2017",
"crs": { "type": "name", "properties": { "name": "urn:ogc:def:crs:OGC:1.3:CRS84" } },
"features": [
{ "type": "Feature", "properties": { "AADT": 7897, "TR_AADT": 205, "2W_AADT": 49, "raw_name": "A8", "raw_oneway": true, "raw_direction": "M8-->Morrison Street", "raw_techno": "Estimated using previous year's AADF on this link", "osm_name": "Gloucester Street", "osm_type": "primary", "osm_lanes": 2.0, "osm_oneway": "True", "osm_distance": 0.98492438226136769, "osm_maxspeed": 48.2802, "osmid": 129761317.0 }, "geometry": { "type": "Point", "coordinates": [ -4.270159054, 55.851868293 ] } },
{ "type": "Feature", "properties": { "AADT": 70654, "TR_AADT": 8029, "2W_AADT": 214, "raw_name": "M74", "raw_oneway": true, "raw_direction": "A74-->A724", "raw_techno": "Estimated using previous year's AADF on this link", "osm_name": null, "osm_type": "motorway", "osm_lanes": 3.0, "osm_oneway": "True", "osm_distance": 7.1527112392146286, "osm_maxspeed": 96.5604, "osmid": 59837137.0 }, "geometry": { "type": "Point", "coordinates": [ -4.180267528, 55.83607715 ] } },
{ "type": "Feature", "properties": { "AADT": 83839, "TR_AADT": 5809, "2W_AADT": 259, "raw_name": "M8", "raw_oneway": true, "raw_direction": "11-->10", "raw_techno": "Automatic counter", "osm_name": null, "osm_type": "motorway", "osm_lanes": 3.0, "osm_oneway": "True", "osm_distance": 2.6012514865614116, "osm_maxspeed": 112.6538, "osmid": 152135170.0 }, "geometry": { "type": "Point", "coordinates": [ -4.139832958, 55.869527789 ] } },
{ "type": "Feature", "properties": { "AADT": 154312, "TR_AADT": 8146, "2W_AADT": 275, "raw_name": "M8", "raw_oneway": true, "raw_direction": "16-->15", "raw_techno": "Automatic counter", "osm_name": null, "osm_type": "motorway", "osm_lanes": 4.0, "osm_oneway": "True", "osm_distance": 0.49321146374031605, "osm_maxspeed": 80.467, "osmid": 22821276.0 }, "geometry": { "type": "Point", "coordinates": [ -4.243720513, 55.869384611 ] } },
{ "type": "Feature", "properties": { "AADT": 15185, "TR_AADT": 379, "2W_AADT": 60, "raw_name": "A8", "raw_oneway": true, "raw_direction": "A8 Bridgegate-->A89/A749", "raw_techno": "Estimated using previous year's AADF on this link", "osm_name": "Saltmarket", "osm_type": "primary", "osm_lanes": 4.0, "osm_oneway": null, "osm_distance": 4.2363327543220599, "osm_maxspeed": 32.1868, "osmid": 83607382.0 }, "geometry": { "type": "Point", "coordinates": [ -4.245152727, 55.855427964 ] } },
{ "type": "Feature", "properties": { "AADT": 8000, "TR_AADT": 222, "2W_AADT": 15, "raw_name": "A80", "raw_oneway": true, "raw_direction": "A8-->M8", "raw_techno": "Estimated using previous year's AADF on this link", "osm_name": "Cumbernauld Road", "osm_type": "primary", "osm_lanes": null, "osm_oneway": "False", "osm_distance": 7.6649014692560442, "osm_maxspeed": 48.2802, "osmid": 1194002130.0 }, "geometry": { "type": "Point", "coordinates": [ -4.192471763, 55.867612388 ] } },
{ "type": "Feature", "properties": { "AADT": 20357, "TR_AADT": 285, "2W_AADT": 97, "raw_name": "A82", "raw_oneway": true, "raw_direction": "A804-->A804", "raw_techno": "Estimated using previous year's AADF on this link", "osm_name": null, "osm_type": "primary_link", "osm_lanes": 1.0, "osm_oneway": "True", "osm_distance": 1.5678791412003297, "osm_maxspeed": 48.2802, "osmid": 4799012.0 }, "geometry": { "type": "Point", "coordinates": [ -4.269372614, 55.870711593 ] } },
{ "type": "Feature", "properties": { "AADT": 6764, "TR_AADT": 64, "2W_AADT": 17, "raw_name": "A730", "raw_oneway": true, "raw_direction": "A728-->A8", "raw_techno": "Estimated using previous year's AADF on this link", "osm_name": "Gorbals Street", "osm_type": "primary", "osm_lanes": 3.0, "osm_oneway": "True", "osm_distance": 1.5064959304491403, "osm_maxspeed": 48.2802, "osmid": 995975738.0 }, "geometry": { "type": "Point", "coordinates": [ -4.253805196, 55.850326622 ] } },
{ "type": "Feature", "properties": { "AADT": 19884, "TR_AADT": 515, "2W_AADT": 17, "raw_name": "A736", "raw_oneway": true, "raw_direction": "A726-->B762 Barrhead Road", "raw_techno": "Automatic counter", "osm_name": "Barrhead Road", "osm_type": "primary", "osm_lanes": null, "osm_oneway": "True", "osm_distance": 6.8230506177620507, "osm_maxspeed": 64.3736, "osmid": 4750266.0 }, "geometry": { "type": "Point", "coordinates": [ -4.365472925, 55.821266342 ] } },
{ "type": "Feature", "properties": { "AADT": 41852, "TR_AADT": 490, "2W_AADT": 110, "raw_name": "A739", "raw_oneway": true, "raw_direction": "A814-->A82", "raw_techno": "Estimated using previous year's AADF on this link", "osm_name": "Crow Road", "osm_type": "primary", "osm_lanes": 4.0, "osm_oneway": "False", "osm_distance": 10.14228441128013, "osm_maxspeed": 48.2802, "osmid": 140570266.0 }, "geometry": { "type": "Point", "coordinates": [ -4.326062752, 55.883134206 ] } },
{ "type": "Feature", "properties": { "AADT": 15929, "TR_AADT": 701, "2W_AADT": 44, "raw_name": "A749", "raw_oneway": true, "raw_direction": "LA Boundary-->A74", "raw_techno": "Estimated using previous year's AADF on this link", "osm_name": "Dalmarnock Road", "osm_type": "primary", "osm_lanes": null, "osm_oneway": null, "osm_distance": 2.7419681710625876, "osm_maxspeed": 48.2802, "osmid": 4750216.0 }, "geometry": { "type": "Point", "coordinates": [ -4.21792442, 55.84306998 ] } },
{ "type": "Feature", "properties": { "AADT": 8817, "TR_AADT": 224, "2W_AADT": 61, "raw_name": "A804", "raw_oneway": true, "raw_direction": "A814-->A82", "raw_techno": "Estimated using previous year's AADF on this link", "osm_name": "Baliol Lane", "osm_type": "service", "osm_lanes": null, "osm_oneway": "True", "osm_distance": 10.305993478833749, "osm_maxspeed": null, "osmid": 82759381.0 }, "geometry": { "type": "Point", "coordinates": [ -4.270210139, 55.868629021 ] } },
{ "type": "Feature", "properties": { "AADT": 12585, "TR_AADT": 548, "2W_AADT": 26, "raw_name": "A879", "raw_oneway": true, "raw_direction": "M8-->B808 Hayston Street", "raw_techno": "Estimated using previous year's AADF on this link", "osm_name": "Saracen Street", "osm_type": "primary", "osm_lanes": 2.0, "osm_oneway": null, "osm_distance": 18.859603520723702, "osm_maxspeed": 48.2802, "osmid": 199097890.0 }, "geometry": { "type": "Point", "coordinates": [ -4.254081363, 55.882676368 ] } },
{ "type": "Feature", "properties": { "AADT": 88124, "TR_AADT": 6519, "2W_AADT": 216, "raw_name": "M8", "raw_oneway": true, "raw_direction": "13-->12", "raw_techno": "Automatic counter", "osm_name": null, "osm_type": "motorway", "osm_lanes": 3.0, "osm_oneway": "True", "osm_distance": 1.3935878000722104, "osm_maxspeed": 96.5604, "osmid": 203405676.0 }, "geometry": { "type": "Point", "coordinates": [ -4.191178511, 55.873027809 ] } },
{ "type": "Feature", "properties": { "AADT": 124223, "TR_AADT": 5946, "2W_AADT": 316, "raw_name": "M8", "raw_oneway": true, "raw_direction": "23-->22", "raw_techno": "Estimated using previous year's AADF on this link", "osm_name": null, "osm_type": "motorway", "osm_lanes": 3.0, "osm_oneway": "True", "osm_distance": 10.611675273223169, "osm_maxspeed": 80.467, "osmid": 119028145.0 }, "geometry": { "type": "Point", "coordinates": [ -4.301682048, 55.849439964 ] } },
{ "type": "Feature", "properties": { "AADT": 6192, "TR_AADT": 78, "2W_AADT": 13, "raw_name": "A8", "raw_oneway": true, "raw_direction": "A730-->A814", "raw_techno": "Estimated using previous year's AADF on this link", "osm_name": "Victoria Bridge", "osm_type": "primary", "osm_lanes": 2.0, "osm_oneway": "False", "osm_distance": 8.8876028727091523, "osm_maxspeed": 32.1868, "osmid": 4521172.0 }, "geometry": { "type": "Point", "coordinates": [ -4.250820987, 55.853976253 ] } },
{ "type": "Feature", "properties": { "AADT": 15715, "TR_AADT": 403, "2W_AADT": 42, "raw_name": "A8", "raw_oneway": true, "raw_direction": "A89-->A803", "raw_techno": "Estimated using previous year's AADF on this link", "osm_name": "High Street", "osm_type": "primary", "osm_lanes": 2.0, "osm_oneway": null, "osm_distance": 0.097190939219927608, "osm_maxspeed": 32.1868, "osmid": 685023881.0 }, "geometry": { "type": "Point", "coordinates": [ -4.238429138, 55.860763209 ] } },
{ "type": "Feature", "properties": { "AADT": 10458, "TR_AADT": 930, "2W_AADT": 39, "raw_name": "A74", "raw_oneway": true, "raw_direction": "M74-->B7058 Mount Vernon Avenue", "raw_techno": "Estimated using previous year's AADF on this link", "osm_name": null, "osm_type": "service", "osm_lanes": null, "osm_oneway": null, "osm_distance": 3.4294499441014064, "osm_maxspeed": null, "osmid": 199657907.0 }, "geometry": { "type": "Point", "coordinates": [ -4.117309605, 55.837473816 ] } },
{ "type": "Feature", "properties": { "AADT": 17112, "TR_AADT": 736, "2W_AADT": 36, "raw_name": "A804", "raw_oneway": true, "raw_direction": "M8/A81-->M8/A879", "raw_techno": "Estimated using previous year's AADF on this link", "osm_name": "Dobbie's Loan", "osm_type": "primary", "osm_lanes": 4.0, "osm_oneway": null, "osm_distance": 6.1312350196422427, "osm_maxspeed": 48.2802, "osmid": 209263579.0 }, "geometry": { "type": "Point", "coordinates": [ -4.258129554, 55.86978605 ] } },
{ "type": "Feature", "properties": { "AADT": 26724, "TR_AADT": 750, "2W_AADT": 93, "raw_name": "A814", "raw_oneway": true, "raw_direction": "Kingsway-->A739", "raw_techno": "Estimated using previous year's AADF on this link", "osm_name": "Victoria Park Drive South", "osm_type": "residential", "osm_lanes": null, "osm_oneway": null, "osm_distance": 10.038735547442737, "osm_maxspeed": 48.2802, "osmid": 23950558.0 }, "geometry": { "type": "Point", "coordinates": [ -4.335160597, 55.874873025 ] } },
{ "type": "Feature", "properties": { "AADT": 19196, "TR_AADT": 411, "2W_AADT": 112, "raw_name": "A814", "raw_oneway": true, "raw_direction": "A814 James Watt St-->A77", "raw_techno": "Estimated using previous year's AADF on this link", "osm_name": null, "osm_type": "service", "osm_lanes": null, "osm_oneway": null, "osm_distance": 1.1501463968565526, "osm_maxspeed": null, "osmid": 588506826.0 }, "geometry": { "type": "Point", "coordinates": [ -4.262165779, 55.856733994 ] } },
{ "type": "Feature", "properties": { "AADT": 39750, "TR_AADT": 1153, "2W_AADT": 126, "raw_name": "A739", "raw_oneway": true, "raw_direction": "M8-->A8", "raw_techno": "Automatic counter", "osm_name": "Meiklewood Road", "osm_type": "primary", "osm_lanes": 1.0, "osm_oneway": "True", "osm_distance": 9.8310615795091643, "osm_maxspeed": null, "osmid": 382927384.0 }, "geometry": { "type": "Point", "coordinates": [ -4.340413438, 55.85589915 ] } },
{ "type": "Feature", "properties": { "AADT": 157063, "TR_AADT": 8189, "2W_AADT": 229, "raw_name": "M8", "raw_oneway": true, "raw_direction": "15-->14", "raw_techno": "Estimated using previous year's AADF on this link", "osm_name": null, "osm_type": "motorway", "osm_lanes": 5.0, "osm_oneway": "True", "osm_distance": 3.9881700075303894, "osm_maxspeed": 80.467, "osmid": 118222680.0 }, "geometry": { "type": "Point", "coordinates": [ -4.22275752, 55.866170189 ] } },
{ "type": "Feature", "properties": { "AADT": 131711, "TR_AADT": 8777, "2W_AADT": 467, "raw_name": "M8", "raw_oneway": true, "raw_direction": "25-->24", "raw_techno": "Automatic counter", "osm_name": null, "osm_type": "motorway", "osm_lanes": 3.0, "osm_oneway": "True", "osm_distance": 5.9921870321842601, "osm_maxspeed": 112.6538, "osmid": 200051899.0 }, "geometry": { "type": "Point", "coordinates": [ -4.333813764, 55.852429492 ] } },
{ "type": "Feature", "properties": { "AADT": 10800, "TR_AADT": 287, "2W_AADT": 25, "raw_name": "A8", "raw_oneway": true, "raw_direction": "B768-->A761", "raw_techno": "Estimated using previous year's AADF on this link", "osm_name": "Edmiston Drive", "osm_type": "primary", "osm_lanes": null, "osm_oneway": "True", "osm_distance": 1.2746744179568379, "osm_maxspeed": 48.2802, "osmid": 8029406.0 }, "geometry": { "type": "Point", "coordinates": [ -4.309847733, 55.852432534 ] } },
{ "type": "Feature", "properties": { "AADT": 14201, "TR_AADT": 361, "2W_AADT": 36, "raw_name": "A8", "raw_oneway": true, "raw_direction": "A814-->A8 Saltmarket", "raw_techno": "Estimated using previous year's AADF on this link", "osm_name": "Bridgegate", "osm_type": "primary", "osm_lanes": null, "osm_oneway": "True", "osm_distance": 3.0660333978274785, "osm_maxspeed": 32.1868, "osmid": 262604451.0 }, "geometry": { "type": "Point", "coordinates": [ -4.247680649, 55.854932424 ] } },
{ "type": "Feature", "properties": { "AADT": 15893, "TR_AADT": 354, "2W_AADT": 60, "raw_name": "A8", "raw_oneway": true, "raw_direction": "A803 Springburn Rd-->A803 Castle St", "raw_techno": "Estimated using previous year's AADF on this link", "osm_name": "Castle Street", "osm_type": "primary", "osm_lanes": 4.0, "osm_oneway": null, "osm_distance": 6.9967766808776011, "osm_maxspeed": 48.2802, "osmid": 250475790.0 }, "geometry": { "type": "Point", "coordinates": [ -4.235504613, 55.865489844 ] } },
{ "type": "Feature", "properties": { "AADT": 22409, "TR_AADT": 427, "2W_AADT": 41, "raw_name": "A82", "raw_oneway": true, "raw_direction": "A739-->LA Boundary", "raw_techno": "Estimated using previous year's AADF on this link", "osm_name": "Great Western Road", "osm_type": "primary", "osm_lanes": 2.0, "osm_oneway": "True", "osm_distance": 3.3317481737888244, "osm_maxspeed": 48.2802, "osmid": 199101531.0 }, "geometry": { "type": "Point", "coordinates": [ -4.365481967, 55.900268179 ] } },
{ "type": "Feature", "properties": { "AADT": 10768, "TR_AADT": 224, "2W_AADT": 11, "raw_name": "A89", "raw_oneway": true, "raw_direction": "B765 Killin St-->A8", "raw_techno": "Estimated using previous year's AADF on this link", "osm_name": "Baillieston Road", "osm_type": "primary", "osm_lanes": null, "osm_oneway": null, "osm_distance": 2.2136494527430122, "osm_maxspeed": 48.2802, "osmid": 5119269.0 }, "geometry": { "type": "Point", "coordinates": [ -4.135569642, 55.85009966 ] } },
{ "type": "Feature", "properties": { "AADT": 16623, "TR_AADT": 545, "2W_AADT": 36, "raw_name": "A728", "raw_oneway": true, "raw_direction": "A730-->A8/A74", "raw_techno": "Estimated using previous year's AADF on this link", "osm_name": "Laurieston Road", "osm_type": "primary", "osm_lanes": null, "osm_oneway": "True", "osm_distance": 1.6775445979554766, "osm_maxspeed": 48.2802, "osmid": 431732039.0 }, "geometry": { "type": "Point", "coordinates": [ -4.253701229, 55.848531034 ] } },
{ "type": "Feature", "properties": { "AADT": 12751, "TR_AADT": 205, "2W_AADT": 37, "raw_name": "A761", "raw_oneway": true, "raw_direction": "A739-->A8", "raw_techno": "Estimated using previous year's AADF on this link", "osm_name": "Paisley Road West", "osm_type": "primary", "osm_lanes": null, "osm_oneway": "True", "osm_distance": 2.8503241547502838, "osm_maxspeed": 48.2802, "osmid": 4981583.0 }, "geometry": { "type": "Point", "coordinates": [ -4.317608327, 55.848601622 ] } },
{ "type": "Feature", "properties": { "AADT": 18049, "TR_AADT": 575, "2W_AADT": 64, "raw_name": "A803", "raw_oneway": true, "raw_direction": "A8-->A804", "raw_techno": "Estimated using previous year's AADF on this link", "osm_name": null, "osm_type": "primary", "osm_lanes": 2.0, "osm_oneway": "True", "osm_distance": 12.228726895027069, "osm_maxspeed": 48.2802, "osmid": 4839474.0 }, "geometry": { "type": "Point", "coordinates": [ -4.236241307, 55.867184062 ] } },
{ "type": "Feature", "properties": { "AADT": 18422, "TR_AADT": 469, "2W_AADT": 51, "raw_name": "A814", "raw_oneway": true, "raw_direction": "A77-->A8", "raw_techno": "Estimated using previous year's AADF on this link", "osm_name": "Maxwell Street", "osm_type": "unclassified", "osm_lanes": null, "osm_oneway": "True", "osm_distance": 0.4508976705381319, "osm_maxspeed": 32.1868, "osmid": 4862551.0 }, "geometry": { "type": "Point", "coordinates": [ -4.254117169, 55.855713383 ] } },
{ "type": "Feature", "properties": { "AADT": 12943, "TR_AADT": 444, "2W_AADT": 15, "raw_name": "A736", "raw_oneway": true, "raw_direction": "B762 Barrhead Road-->A761", "raw_techno": "Estimated using previous year's AADF on this link", "osm_name": "Crookston Road", "osm_type": "primary", "osm_lanes": null, "osm_oneway": null, "osm_distance": 9.1921588242682084, "osm_maxspeed": 48.2802, "osmid": 177390915.0 }, "geometry": { "type": "Point", "coordinates": [ -4.362937026, 55.83210041 ] } },
{ "type": "Feature", "properties": { "AADT": 87769, "TR_AADT": 5919, "2W_AADT": 200, "raw_name": "M8", "raw_oneway": true, "raw_direction": "12-->11", "raw_techno": "Automatic counter", "osm_name": null, "osm_type": "motorway_link", "osm_lanes": 1.0, "osm_oneway": "True", "osm_distance": 6.1990863509236602, "osm_maxspeed": 48.2802, "osmid": 24324051.0 }, "geometry": { "type": "Point", "coordinates": [ -4.179949546, 55.872328549 ] } },
{ "type": "Feature", "properties": { "AADT": 135657, "TR_AADT": 6696, "2W_AADT": 150, "raw_name": "M8", "raw_oneway": true, "raw_direction": "17-->16", "raw_techno": "Automatic counter", "osm_name": null, "osm_type": "motorway", "osm_lanes": 4.0, "osm_oneway": "True", "osm_distance": 5.7047627141198722, "osm_maxspeed": 80.467, "osmid": 3469492.0 }, "geometry": { "type": "Point", "coordinates": [ -4.254949616, 55.870078049 ] } },
{ "type": "Feature", "properties": { "AADT": 16858, "TR_AADT": 460, "2W_AADT": 51, "raw_name": "A8", "raw_oneway": true, "raw_direction": "A814 Clyde St-->A8 Bridgegate", "raw_techno": "Estimated using previous year's AADF on this link", "osm_name": "Saltmarket", "osm_type": "primary", "osm_lanes": 4.0, "osm_oneway": null, "osm_distance": 4.8743795698007597, "osm_maxspeed": 32.1868, "osmid": 595322020.0 }, "geometry": { "type": "Point", "coordinates": [ -4.246032696, 55.854063782 ] } },
{ "type": "Feature", "properties": { "AADT": 13521, "TR_AADT": 243, "2W_AADT": 60, "raw_name": "A77", "raw_oneway": true, "raw_direction": "B768 Langside Avenue-->B763 Nithsdale Drive", "raw_techno": "Estimated using previous year's AADF on this link", "osm_name": "Pollokshaws Road", "osm_type": "primary", "osm_lanes": 2.0, "osm_oneway": null, "osm_distance": 3.4642095538905284, "osm_maxspeed": 48.2802, "osmid": 203910670.0 }, "geometry": { "type": "Point", "coordinates": [ -4.269021318, 55.837284587 ] } },
{ "type": "Feature", "properties": { "AADT": 10060, "TR_AADT": 290, "2W_AADT": 26, "raw_name": "A81", "raw_oneway": true, "raw_direction": "M8/A804-->B808 Bilsland Drive", "raw_techno": "Estimated using previous year's AADF on this link", "osm_name": null, "osm_type": "service", "osm_lanes": null, "osm_oneway": null, "osm_distance": 12.626989962330409, "osm_maxspeed": null, "osmid": 334936759.0 }, "geometry": { "type": "Point", "coordinates": [ -4.271493743, 55.879659924 ] } },
{ "type": "Feature", "properties": { "AADT": 14031, "TR_AADT": 398, "2W_AADT": 35, "raw_name": "A804", "raw_oneway": true, "raw_direction": "A82-->M8/A81", "raw_techno": "Estimated using previous year's AADF on this link", "osm_name": null, "osm_type": "motorway", "osm_lanes": 4.0, "osm_oneway": "True", "osm_distance": 2.1757348250083632, "osm_maxspeed": 80.467, "osmid": 4345002.0 }, "geometry": { "type": "Point", "coordinates": [ -4.26293332, 55.869931458 ] } },
{ "type": "Feature", "properties": { "AADT": 14796, "TR_AADT": 306, "2W_AADT": 76, "raw_name": "A814", "raw_oneway": true, "raw_direction": "M8/A804-->A814 James Watt St", "raw_techno": "Estimated using previous year's AADF on this link", "osm_name": "Broomielaw", "osm_type": "primary", "osm_lanes": 4.0, "osm_oneway": null, "osm_distance": 0.79237992119637957, "osm_maxspeed": 32.1868, "osmid": 203957021.0 }, "geometry": { "type": "Point", "coordinates": [ -4.265368613, 55.856854799 ] } },
{ "type": "Feature", "properties": { "AADT": 12794, "TR_AADT": 475, "2W_AADT": 35, "raw_name": "A879", "raw_oneway": true, "raw_direction": "Skirsa St-->LA Boundary", "raw_techno": "Estimated using previous year's AADF on this link", "osm_name": null, "osm_type": "service", "osm_lanes": null, "osm_oneway": null, "osm_distance": 0.87631289707930071, "osm_maxspeed": null, "osmid": 515821465.0 }, "geometry": { "type": "Point", "coordinates": [ -4.269609882, 55.902163317 ] } },
{ "type": "Feature", "properties": { "AADT": 14557, "TR_AADT": 304, "2W_AADT": 37, "raw_name": "A739", "raw_oneway": true, "raw_direction": "A761-->M8", "raw_techno": "Estimated using previous year's AADF on this link", "osm_name": null, "osm_type": "service", "osm_lanes": null, "osm_oneway": null, "osm_distance": 3.9776190191114917, "osm_maxspeed": null, "osmid": 579055774.0 }, "geometry": { "type": "Point", "coordinates": [ -4.34306505, 55.846860994 ] } },
{ "type": "Feature", "properties": { "AADT": 90790, "TR_AADT": 5393, "2W_AADT": 169, "raw_name": "M8", "raw_oneway": true, "raw_direction": "9-->M73", "raw_techno": "Estimated using previous year's AADF on this link", "osm_name": null, "osm_type": "motorway", "osm_lanes": 3.0, "osm_oneway": "True", "osm_distance": 8.4578780313325108, "osm_maxspeed": 112.6538, "osmid": 23049207.0 }, "geometry": { "type": "Point", "coordinates": [ -4.105807573, 55.861037874 ] } },
{ "type": "Feature", "properties": { "AADT": 95277, "TR_AADT": 7327, "2W_AADT": 374, "raw_name": "M8", "raw_oneway": true, "raw_direction": "14-->13", "raw_techno": "Automatic counter", "osm_name": null, "osm_type": "motorway", "osm_lanes": 5.0, "osm_oneway": "True", "osm_distance": 6.5627298346383061, "osm_maxspeed": 80.467, "osmid": 219273309.0 }, "geometry": { "type": "Point", "coordinates": [ -4.210060957, 55.867747036 ] } },
{ "type": "Feature", "properties": { "AADT": 128803, "TR_AADT": 7269, "2W_AADT": 207, "raw_name": "M8", "raw_oneway": true, "raw_direction": "18-->17", "raw_techno": "Estimated using previous year's AADF on this link", "osm_name": null, "osm_type": "motorway", "osm_lanes": 3.0, "osm_oneway": "True", "osm_distance": 1.1773635073881654, "osm_maxspeed": 80.467, "osmid": 736368181.0 }, "geometry": { "type": "Point", "coordinates": [ -4.271505582, 55.866178488 ] } },
{ "type": "Feature", "properties": { "AADT": 132236, "TR_AADT": 6721, "2W_AADT": 365, "raw_name": "M8", "raw_oneway": true, "raw_direction": "24-->23", "raw_techno": "Automatic counter", "osm_name": null, "osm_type": "motorway", "osm_lanes": 3.0, "osm_oneway": "True", "osm_distance": 6.1954521772457882, "osm_maxspeed": 80.467, "osmid": 200051860.0 }, "geometry": { "type": "Point", "coordinates": [ -4.31222526, 55.849421953 ] } },
{ "type": "Feature", "properties": { "AADT": 18254, "TR_AADT": 590, "2W_AADT": 68, "raw_name": "A8", "raw_oneway": true, "raw_direction": "A739-->B768", "raw_techno": "Estimated using previous year's AADF on this link", "osm_name": "Shieldhall Road", "osm_type": "primary", "osm_lanes": 2.0, "osm_oneway": "True", "osm_distance": 6.2098630893230755, "osm_maxspeed": 48.2802, "osmid": 255331058.0 }, "geometry": { "type": "Point", "coordinates": [ -4.337221289, 55.855959849 ] } },
{ "type": "Feature", "properties": { "AADT": 19533, "TR_AADT": 791, "2W_AADT": 43, "raw_name": "A8", "raw_oneway": true, "raw_direction": "A730-->A74/A728", "raw_techno": "Estimated using previous year's AADF on this link", "osm_name": "Ballater Street", "osm_type": "primary", "osm_lanes": null, "osm_oneway": null, "osm_distance": 11.529159565684358, "osm_maxspeed": 48.2802, "osmid": 4642285.0 }, "geometry": { "type": "Point", "coordinates": [ -4.250665226, 55.851282866 ] } },
{ "type": "Feature", "properties": { "AADT": 10612, "TR_AADT": 623, "2W_AADT": 37, "raw_name": "A8", "raw_oneway": true, "raw_direction": "A89-->M8/M73", "raw_techno": "Estimated using previous year's AADF on this link", "osm_name": "Glasgow and Edinburgh Road", "osm_type": "primary", "osm_lanes": 2.0, "osm_oneway": "True", "osm_distance": 6.5052833604760893, "osm_maxspeed": 48.2802, "osmid": 457751879.0 }, "geometry": { "type": "Point", "coordinates": [ -4.09895644, 55.852527327 ] } },
{ "type": "Feature", "properties": { "AADT": 7483, "TR_AADT": 132, "2W_AADT": 22, "raw_name": "A89", "raw_oneway": true, "raw_direction": "A8-->M73", "raw_techno": "Estimated using previous year's AADF on this link", "osm_name": null, "osm_type": null, "osm_lanes": null, "osm_oneway": null, "osm_distance": null, "osm_maxspeed": null, "osmid": null }, "geometry": { "type": "Point", "coordinates": [ -4.098206747, 55.853438829 ] } },
{ "type": "Feature", "properties": { "AADT": 16268, "TR_AADT": 517, "2W_AADT": 36, "raw_name": "A749", "raw_oneway": true, "raw_direction": "A74-->A8", "raw_techno": "Estimated using previous year's AADF on this link", "osm_name": "London Road", "osm_type": "primary", "osm_lanes": 2.0, "osm_oneway": null, "osm_distance": 3.0541927178533901, "osm_maxspeed": 48.2802, "osmid": 4548199.0 }, "geometry": { "type": "Point", "coordinates": [ -4.238041827, 55.854029691 ] } },
{ "type": "Feature", "properties": { "AADT": 27144, "TR_AADT": 522, "2W_AADT": 56, "raw_name": "A803", "raw_oneway": true, "raw_direction": "A804-->B808 Springburn Road", "raw_techno": "Estimated using previous year's AADF on this link", "osm_name": "Springburn Road", "osm_type": "primary", "osm_lanes": 2.0, "osm_oneway": "True", "osm_distance": 0.87683622757046831, "osm_maxspeed": 64.3736, "osmid": 250475812.0 }, "geometry": { "type": "Point", "coordinates": [ -4.2330588, 55.878565982 ] } },
{ "type": "Feature", "properties": { "AADT": 9277, "TR_AADT": 190, "2W_AADT": 23, "raw_name": "A804", "raw_oneway": true, "raw_direction": "M8/A879-->A803", "raw_techno": "Estimated using previous year's AADF on this link", "osm_name": "Baird Street", "osm_type": "primary", "osm_lanes": 4.0, "osm_oneway": null, "osm_distance": 9.6667077406788202, "osm_maxspeed": 48.2802, "osmid": 732295445.0 }, "geometry": { "type": "Point", "coordinates": [ -4.243668724, 55.868486814 ] } },
{ "type": "Feature", "properties": { "AADT": 51007, "TR_AADT": 1138, "2W_AADT": 206, "raw_name": "A814", "raw_oneway": true, "raw_direction": "A739-->A814 Finnieston St", "raw_techno": "Automatic counter", "osm_name": "Clydeside Expressway", "osm_type": "primary", "osm_lanes": 2.0, "osm_oneway": "True", "osm_distance": 3.0079500678914779, "osm_maxspeed": 80.467, "osmid": 27110727.0 }, "geometry": { "type": "Point", "coordinates": [ -4.318870684, 55.869788577 ] } },
{ "type": "Feature", "properties": { "AADT": 20590, "TR_AADT": 336, "2W_AADT": 75, "raw_name": "A814", "raw_oneway": true, "raw_direction": "A77 Commerce St-->A77 Bridge St", "raw_techno": "Estimated using previous year's AADF on this link", "osm_name": "Broomielaw", "osm_type": "primary", "osm_lanes": null, "osm_oneway": "True", "osm_distance": 4.3542481702713598, "osm_maxspeed": 32.1868, "osmid": 735349188.0 }, "geometry": { "type": "Point", "coordinates": [ -4.258957752, 55.856523327 ] } },
{ "type": "Feature", "properties": { "AADT": 78546, "TR_AADT": 7911, "2W_AADT": 200, "raw_name": "M8", "raw_oneway": true, "raw_direction": "M73-->LA boundary", "raw_techno": "Estimated using previous year's AADF on this link", "osm_name": null, "osm_type": "motorway", "osm_lanes": 2.0, "osm_oneway": "True", "osm_distance": 0.36328121088841975, "osm_maxspeed": 112.6538, "osmid": 475274834.0 }, "geometry": { "type": "Point", "coordinates": [ -4.086455505, 55.851796363 ] } },
{ "type": "Feature", "properties": { "AADT": 14346, "TR_AADT": 408, "2W_AADT": 38, "raw_name": "A8", "raw_oneway": true, "raw_direction": "A74/A728-->A814", "raw_techno": "Estimated using previous year's AADF on this link", "osm_name": "Albert Bridge", "osm_type": "primary", "osm_lanes": null, "osm_oneway": null, "osm_distance": 9.9317020425399143, "osm_maxspeed": 32.1868, "osmid": 4521173.0 }, "geometry": { "type": "Point", "coordinates": [ -4.247525099, 55.852239032 ] } },
{ "type": "Feature", "properties": { "AADT": 15940, "TR_AADT": 301, "2W_AADT": 51, "raw_name": "A8", "raw_oneway": true, "raw_direction": "A803 Castle St-->A80", "raw_techno": "Estimated using previous year's AADF on this link", "osm_name": "Kennyhill Square", "osm_type": "residential", "osm_lanes": null, "osm_oneway": null, "osm_distance": 5.8366728097861005, "osm_maxspeed": null, "osmid": 4904409.0 }, "geometry": { "type": "Point", "coordinates": [ -4.206587433, 55.862866349 ] } },
{ "type": "Feature", "properties": { "AADT": 8605, "TR_AADT": 199, "2W_AADT": 26, "raw_name": "A74", "raw_oneway": true, "raw_direction": "A749-->A8", "raw_techno": "Estimated using previous year's AADF on this link", "osm_name": null, "osm_type": "service", "osm_lanes": null, "osm_oneway": null, "osm_distance": 0.86968637533350024, "osm_maxspeed": null, "osmid": 101937838.0 }, "geometry": { "type": "Point", "coordinates": [ -4.236645596, 55.846415775 ] } },
{ "type": "Feature", "properties": { "AADT": 94197, "TR_AADT": 8163, "2W_AADT": 197, "raw_name": "M8", "raw_oneway": true, "raw_direction": "10-->9", "raw_techno": "Estimated using previous year's AADF on this link", "osm_name": null, "osm_type": "motorway", "osm_lanes": 3.0, "osm_oneway": "True", "osm_distance": 11.505902591531019, "osm_maxspeed": 112.6538, "osmid": 60310291.0 }, "geometry": { "type": "Point", "coordinates": [ -4.121919691, 55.863457161 ] } },
{ "type": "Feature", "properties": { "AADT": 19552, "TR_AADT": 382, "2W_AADT": 74, "raw_name": "A82", "raw_oneway": true, "raw_direction": "A804-->A739", "raw_techno": "Estimated using previous year's AADF on this link", "osm_name": "Great Western Road", "osm_type": "primary", "osm_lanes": 4.0, "osm_oneway": null, "osm_distance": 0.040897321496423118, "osm_maxspeed": 48.2802, "osmid": 4295451.0 }, "geometry": { "type": "Point", "coordinates": [ -4.284075492, 55.876101633 ] } },
{ "type": "Feature", "properties": { "AADT": 6922, "TR_AADT": 217, "2W_AADT": 17, "raw_name": "A814", "raw_oneway": true, "raw_direction": "A8 Gorbals St-->A8 Saltmarket", "raw_techno": "Estimated using previous year's AADF on this link", "osm_name": "Clyde Street", "osm_type": "primary", "osm_lanes": null, "osm_oneway": "True", "osm_distance": 5.4953427326032767, "osm_maxspeed": 32.1868, "osmid": 4596880.0 }, "geometry": { "type": "Point", "coordinates": [ -4.249224893, 55.85400545 ] } },
{ "type": "Feature", "properties": { "AADT": 13541, "TR_AADT": 382, "2W_AADT": 41, "raw_name": "A814", "raw_oneway": true, "raw_direction": "A804-->A814 Stobcross St", "raw_techno": "Estimated using previous year's AADF on this link", "osm_name": "Lancefield Quay", "osm_type": "tertiary", "osm_lanes": 3.0, "osm_oneway": null, "osm_distance": 5.6524262508044743, "osm_maxspeed": null, "osmid": 26404121.0 }, "geometry": { "type": "Point", "coordinates": [ -4.276568163, 55.857097401 ] } },
{ "type": "Feature", "properties": { "AADT": 47498, "TR_AADT": 805, "2W_AADT": 134, "raw_name": "A739", "raw_oneway": true, "raw_direction": "A8-->A814", "raw_techno": "Automatic counter", "osm_name": null, "osm_type": null, "osm_lanes": null, "osm_oneway": null, "osm_distance": null, "osm_maxspeed": null, "osmid": null }, "geometry": { "type": "Point", "coordinates": [ -4.331590089, 55.868649408 ] } },
{ "type": "Feature", "properties": { "AADT": 32289, "TR_AADT": 449, "2W_AADT": 78, "raw_name": "A739", "raw_oneway": true, "raw_direction": "A82-->LA boundary", "raw_techno": "Estimated using previous year's AADF on this link", "osm_name": "Bearsden Road", "osm_type": "primary", "osm_lanes": 2.0, "osm_oneway": "True", "osm_distance": 0.13658384993278336, "osm_maxspeed": 48.2802, "osmid": 895142386.0 }, "geometry": { "type": "Point", "coordinates": [ -4.325002513, 55.892141829 ] } },
{ "type": "Feature", "properties": { "AADT": 20067, "TR_AADT": 325, "2W_AADT": 55, "raw_name": "A761", "raw_oneway": true, "raw_direction": "A739-->A736", "raw_techno": "Estimated using previous year's AADF on this link", "osm_name": "Paisley Road West", "osm_type": "primary", "osm_lanes": null, "osm_oneway": "True", "osm_distance": 7.3480940884655883, "osm_maxspeed": 48.2802, "osmid": 177390928.0 }, "geometry": { "type": "Point", "coordinates": [ -4.349393634, 55.845841489 ] } },
{ "type": "Feature", "properties": { "AADT": 17754, "TR_AADT": 568, "2W_AADT": 23, "raw_name": "A736", "raw_oneway": true, "raw_direction": "A761-->LA boundary", "raw_techno": "Estimated using previous year's AADF on this link", "osm_name": "Hillington Road", "osm_type": "primary", "osm_lanes": null, "osm_oneway": "True", "osm_distance": 2.3913053794222479, "osm_maxspeed": 48.2802, "osmid": 4681642.0 }, "geometry": { "type": "Point", "coordinates": [ -4.364354159, 55.855441272 ] } },
{ "type": "Feature", "properties": { "AADT": 20790, "TR_AADT": 528, "2W_AADT": 64, "raw_name": "A803", "raw_oneway": true, "raw_direction": "B808-->LA boundary", "raw_techno": "Estimated using previous year's AADF on this link", "osm_name": null, "osm_type": "service", "osm_lanes": null, "osm_oneway": null, "osm_distance": 0.80330737167750599, "osm_maxspeed": null, "osmid": 166129255.0 }, "geometry": { "type": "Point", "coordinates": [ -4.233358255, 55.8893454 ] } },
{ "type": "Feature", "properties": { "AADT": 15816, "TR_AADT": 418, "2W_AADT": 62, "raw_name": "A81", "raw_oneway": true, "raw_direction": "B808-->LA boundary", "raw_techno": "Estimated using previous year's AADF on this link", "osm_name": "Maryhill Road", "osm_type": "primary", "osm_lanes": 4.0, "osm_oneway": null, "osm_distance": 1.2436245290988721, "osm_maxspeed": 48.2802, "osmid": 177450943.0 }, "geometry": { "type": "Point", "coordinates": [ -4.299866342, 55.897107913 ] } },
{ "type": "Feature", "properties": { "AADT": 21039, "TR_AADT": 482, "2W_AADT": 44, "raw_name": "A726", "raw_oneway": true, "raw_direction": "M77-->LA boundary", "raw_techno": "Estimated using previous year's AADF on this link", "osm_name": "Nitshill Road", "osm_type": "primary", "osm_lanes": 2.0, "osm_oneway": "True", "osm_distance": 0.29505518762495814, "osm_maxspeed": 48.2802, "osmid": 250475786.0 }, "geometry": { "type": "Point", "coordinates": [ -4.330814511, 55.802335152 ] } },
{ "type": "Feature", "properties": { "AADT": 67850, "TR_AADT": 3663, "2W_AADT": 110, "raw_name": "M77", "raw_oneway": true, "raw_direction": "LA boundary-->3", "raw_techno": "Automatic counter", "osm_name": null, "osm_type": "motorway", "osm_lanes": 3.0, "osm_oneway": "True", "osm_distance": 5.9147250806474805, "osm_maxspeed": 96.5604, "osmid": 163761542.0 }, "geometry": { "type": "Point", "coordinates": [ -4.338390914, 55.795630199 ] } },
{ "type": "Feature", "properties": { "AADT": 4050, "TR_AADT": 142, "2W_AADT": 17, "raw_name": "A741", "raw_oneway": true, "raw_direction": "Ferry-->A814", "raw_techno": "Estimated using previous year's AADF on this link", "osm_name": "Yoker Ferry Road", "osm_type": "unclassified", "osm_lanes": null, "osm_oneway": null, "osm_distance": 2.3766307140700791, "osm_maxspeed": 48.2802, "osmid": 21757270.0 }, "geometry": { "type": "Point", "coordinates": [ -4.379875162, 55.887138274 ] } },
{ "type": "Feature", "properties": { "AADT": 22630, "TR_AADT": 938, "2W_AADT": 41, "raw_name": "A74", "raw_oneway": true, "raw_direction": "LA Boundary-->M74 jn3", "raw_techno": "Estimated using previous year's AADF on this link", "osm_name": "Hamilton Road", "osm_type": "primary", "osm_lanes": 2.0, "osm_oneway": "True", "osm_distance": 2.3617116422428546, "osm_maxspeed": 48.2802, "osmid": 39072002.0 }, "geometry": { "type": "Point", "coordinates": [ -4.109408658, 55.836081775 ] } },
{ "type": "Feature", "properties": { "AADT": 94152, "TR_AADT": 8428, "2W_AADT": 159, "raw_name": "M73", "raw_oneway": true, "raw_direction": "LA boundary-->2", "raw_techno": "Estimated using previous year's AADF on this link", "osm_name": null, "osm_type": "motorway", "osm_lanes": 3.0, "osm_oneway": "True", "osm_distance": 6.1782078483884106, "osm_maxspeed": 80.467, "osmid": 23049191.0 }, "geometry": { "type": "Point", "coordinates": [ -4.092533677, 55.845986294 ] } },
{ "type": "Feature", "properties": { "AADT": 50773, "TR_AADT": 6321, "2W_AADT": 69, "raw_name": "M73", "raw_oneway": true, "raw_direction": "2-->LA boundary", "raw_techno": "Estimated using previous year's AADF on this link", "osm_name": null, "osm_type": "motorway", "osm_lanes": 2.0, "osm_oneway": "True", "osm_distance": 2.540908728703192, "osm_maxspeed": 112.6538, "osmid": 412542889.0 }, "geometry": { "type": "Point", "coordinates": [ -4.084607532, 55.860545169 ] } },
{ "type": "Feature", "properties": { "AADT": 50773, "TR_AADT": 6321, "2W_AADT": 69, "raw_name": "M73", "raw_oneway": true, "raw_direction": "LA boundary-->LA Boundary", "raw_techno": "Estimated using previous year's AADF on this link", "osm_name": null, "osm_type": "motorway", "osm_lanes": 2.0, "osm_oneway": "True", "osm_distance": 6.133044360259591, "osm_maxspeed": 112.6538, "osmid": 490760600.0 }, "geometry": { "type": "Point", "coordinates": [ -4.081431111, 55.880325555 ] } },
{ "type": "Feature", "properties": { "AADT": 18637, "TR_AADT": 532, "2W_AADT": 37, "raw_name": "A814", "raw_oneway": true, "raw_direction": "LA boundary-->A714", "raw_techno": "Estimated using previous year's AADF on this link", "osm_name": "Dumbarton Road", "osm_type": "primary", "osm_lanes": 4.0, "osm_oneway": null, "osm_distance": 0.074347929119736617, "osm_maxspeed": 48.2802, "osmid": 198044376.0 }, "geometry": { "type": "Point", "coordinates": [ -4.384077674, 55.890472258 ] } },
{ "type": "Feature", "properties": { "AADT": 10659, "TR_AADT": 210, "2W_AADT": 25, "raw_name": "A761", "raw_oneway": true, "raw_direction": "LA boundary-->A736", "raw_techno": "Estimated using previous year's AADF on this link", "osm_name": "Paisley Road West", "osm_type": "primary", "osm_lanes": null, "osm_oneway": "True", "osm_distance": 0.34706384729633494, "osm_maxspeed": 48.2802, "osmid": 5136954.0 }, "geometry": { "type": "Point", "coordinates": [ -4.366296424, 55.845337664 ] } },
{ "type": "Feature", "properties": { "AADT": 20443, "TR_AADT": 443, "2W_AADT": 54, "raw_name": "A726", "raw_oneway": true, "raw_direction": "LA boundary-->A736", "raw_techno": "Estimated using previous year's AADF on this link", "osm_name": "Hurlet Road", "osm_type": "primary", "osm_lanes": null, "osm_oneway": "True", "osm_distance": 5.3859550848235802, "osm_maxspeed": 112.6538, "osmid": 398402596.0 }, "geometry": { "type": "Point", "coordinates": [ -4.375794128, 55.820348292 ] } },
{ "type": "Feature", "properties": { "AADT": 16925, "TR_AADT": 489, "2W_AADT": 21, "raw_name": "A726", "raw_oneway": true, "raw_direction": "A736-->M77", "raw_techno": "Estimated using previous year's AADF on this link", "osm_name": null, "osm_type": "tertiary", "osm_lanes": null, "osm_oneway": null, "osm_distance": 0.24652611948578737, "osm_maxspeed": null, "osmid": 250475796.0 }, "geometry": { "type": "Point", "coordinates": [ -4.348050172, 55.80766936 ] } },
{ "type": "Feature", "properties": { "AADT": 81110, "TR_AADT": 5215, "2W_AADT": 210, "raw_name": "M77", "raw_oneway": true, "raw_direction": "3-->2", "raw_techno": "Automatic counter", "osm_name": null, "osm_type": "motorway", "osm_lanes": 2.0, "osm_oneway": "True", "osm_distance": 5.1896411162516483, "osm_maxspeed": 80.467, "osmid": 17169002.0 }, "geometry": { "type": "Point", "coordinates": [ -4.332658953, 55.811827124 ] } },
{ "type": "Feature", "properties": { "AADT": 78487, "TR_AADT": 8919, "2W_AADT": 237, "raw_name": "M74", "raw_oneway": true, "raw_direction": "LA Boundary-->3", "raw_techno": "Estimated using previous year's AADF on this link", "osm_name": null, "osm_type": "motorway", "osm_lanes": 3.0, "osm_oneway": "True", "osm_distance": 3.2454759500061758, "osm_maxspeed": 112.6538, "osmid": 73592576.0 }, "geometry": { "type": "Point", "coordinates": [ -4.109831373, 55.835040999 ] } },
{ "type": "Feature", "properties": { "AADT": 8712, "TR_AADT": 305, "2W_AADT": 55, "raw_name": "A804", "raw_oneway": true, "raw_direction": "M8-->A814", "raw_techno": "Estimated using previous year's AADF on this link", "osm_name": null, "osm_type": "motorway_link", "osm_lanes": 1.0, "osm_oneway": "True", "osm_distance": 0.5162654945757964, "osm_maxspeed": 80.467, "osmid": 4799419.0 }, "geometry": { "type": "Point", "coordinates": [ -4.270530193, 55.85905144 ] } },
{ "type": "Feature", "properties": { "AADT": 7138, "TR_AADT": 194, "2W_AADT": 49, "raw_name": "A803", "raw_oneway": true, "raw_direction": "A8-->A804", "raw_techno": "Estimated from nearby links", "osm_name": "Castle Street", "osm_type": "primary", "osm_lanes": 4.0, "osm_oneway": null, "osm_distance": 7.3654362432683875, "osm_maxspeed": 48.2802, "osmid": 55668652.0 }, "geometry": { "type": "Point", "coordinates": [ -4.234824954, 55.867569295 ] } },
{ "type": "Feature", "properties": { "AADT": 18293, "TR_AADT": 1041, "2W_AADT": 33, "raw_name": "A763", "raw_oneway": true, "raw_direction": "M74-->A74", "raw_techno": "Estimated using previous year's AADF on this link", "osm_name": "Carmyle Avenue", "osm_type": "primary", "osm_lanes": null, "osm_oneway": "True", "osm_distance": 1.8751487115422192, "osm_maxspeed": 48.2802, "osmid": 80584636.0 }, "geometry": { "type": "Point", "coordinates": [ -4.160179314, 55.835829518 ] } },
{ "type": "Feature", "properties": { "AADT": 10609, "TR_AADT": 303, "2W_AADT": 25, "raw_name": "A752", "raw_oneway": true, "raw_direction": "LA Boundary-->LA boundary", "raw_techno": "Estimated using previous year's AADF on this link", "osm_name": "Heathery Knowe Road", "osm_type": "unclassified", "osm_lanes": null, "osm_oneway": null, "osm_distance": 2.1630606963727681, "osm_maxspeed": null, "osmid": 22726649.0 }, "geometry": { "type": "Point", "coordinates": [ -4.078517716, 55.863209527 ] } },
{ "type": "Feature", "properties": { "AADT": 6318, "TR_AADT": 271, "2W_AADT": 18, "raw_name": "A74", "raw_oneway": true, "raw_direction": "A763-->B7058 Mount Vernon Avenue", "raw_techno": "Estimated using previous year's AADF on this link", "osm_name": "London Road", "osm_type": "primary", "osm_lanes": null, "osm_oneway": "True", "osm_distance": 0.17172349011399576, "osm_maxspeed": 64.3736, "osmid": 80584629.0 }, "geometry": { "type": "Point", "coordinates": [ -4.149269768, 55.837818124 ] } },
{ "type": "Feature", "properties": { "AADT": 15705, "TR_AADT": 1115, "2W_AADT": 30, "raw_name": "A879", "raw_oneway": true, "raw_direction": "B808 Hayston Street-->Skirsa St", "raw_techno": "Estimated using previous year's AADF on this link", "osm_name": "Balmore Road", "osm_type": "primary", "osm_lanes": null, "osm_oneway": null, "osm_distance": 6.5773001109481983, "osm_maxspeed": 48.2802, "osmid": 4470833.0 }, "geometry": { "type": "Point", "coordinates": [ -4.259368864, 55.891117457 ] } },
{ "type": "Feature", "properties": { "AADT": 6489, "TR_AADT": 198, "2W_AADT": 17, "raw_name": "A8", "raw_oneway": true, "raw_direction": "B765 Stepps Road-->A89", "raw_techno": "Estimated using previous year's AADF on this link", "osm_name": "Edinburgh Road", "osm_type": "primary", "osm_lanes": 3.0, "osm_oneway": "True", "osm_distance": 5.4484157498888406, "osm_maxspeed": 64.3736, "osmid": 4856729.0 }, "geometry": { "type": "Point", "coordinates": [ -4.142596381, 55.861660832 ] } },
{ "type": "Feature", "properties": { "AADT": 12510, "TR_AADT": 304, "2W_AADT": 20, "raw_name": "A80", "raw_oneway": true, "raw_direction": "M8-->LA Boundary", "raw_techno": "Estimated using previous year's AADF on this link", "osm_name": null, "osm_type": null, "osm_lanes": null, "osm_oneway": null, "osm_distance": null, "osm_maxspeed": null, "osmid": null }, "geometry": { "type": "Point", "coordinates": [ -4.161435015, 55.884338588 ] } },
{ "type": "Feature", "properties": { "AADT": 7107, "TR_AADT": 385, "2W_AADT": 28, "raw_name": "A74", "raw_oneway": true, "raw_direction": "A763-->Fullarton Road roundabout", "raw_techno": "Estimated using previous year's AADF on this link", "osm_name": "London Road", "osm_type": "primary", "osm_lanes": null, "osm_oneway": "True", "osm_distance": 7.8314164023027191, "osm_maxspeed": 64.3736, "osmid": 80584629.0 }, "geometry": { "type": "Point", "coordinates": [ -4.165922902, 55.83572849 ] } },
{ "type": "Feature", "properties": { "AADT": 8214, "TR_AADT": 211, "2W_AADT": 29, "raw_name": "A8", "raw_oneway": true, "raw_direction": "A80-->B765 Stepps Road", "raw_techno": "Estimated using previous year's AADF on this link", "osm_name": "Edinburgh Road", "osm_type": "primary", "osm_lanes": 3.0, "osm_oneway": "True", "osm_distance": 2.8296499097005063, "osm_maxspeed": 64.3736, "osmid": 44067907.0 }, "geometry": { "type": "Point", "coordinates": [ -4.158616268, 55.862369367 ] } },
{ "type": "Feature", "properties": { "AADT": 18293, "TR_AADT": 1041, "2W_AADT": 33, "raw_name": "A763", "raw_oneway": true, "raw_direction": "LA Boundary-->M74", "raw_techno": "Estimated using previous year's AADF on this link", "osm_name": "Clydeford Road", "osm_type": "primary", "osm_lanes": null, "osm_oneway": "True", "osm_distance": 12.777198723829757, "osm_maxspeed": 48.2802, "osmid": 209287978.0 }, "geometry": { "type": "Point", "coordinates": [ -4.16093731, 55.832221289 ] } },
{ "type": "Feature", "properties": { "AADT": 11171, "TR_AADT": 185, "2W_AADT": 28, "raw_name": "A77", "raw_oneway": true, "raw_direction": "LA Boundary-->B768 Langside Avenue", "raw_techno": "Estimated using previous year's AADF on this link", "osm_name": "Kilmarnock Road", "osm_type": "primary", "osm_lanes": 2.0, "osm_oneway": null, "osm_distance": 3.8999639361839447, "osm_maxspeed": 48.2802, "osmid": 386066799.0 }, "geometry": { "type": "Point", "coordinates": [ -4.281693117, 55.830039825 ] } },
{ "type": "Feature", "properties": { "AADT": 16890, "TR_AADT": 436, "2W_AADT": 51, "raw_name": "A728", "raw_oneway": true, "raw_direction": "B762/B766-->B768 Prospecthill Road", "raw_techno": "Estimated using previous year's AADF on this link", "osm_name": "Aikenhead Road", "osm_type": "primary", "osm_lanes": null, "osm_oneway": null, "osm_distance": 11.136141211317387, "osm_maxspeed": 48.2802, "osmid": 251261265.0 }, "geometry": { "type": "Point", "coordinates": [ -4.250309151, 55.821630713 ] } },
{ "type": "Feature", "properties": { "AADT": 19655, "TR_AADT": 794, "2W_AADT": 49, "raw_name": "A814", "raw_oneway": true, "raw_direction": "A741-->Kingsway", "raw_techno": "Estimated using previous year's AADF on this link", "osm_name": "Dumbarton Road", "osm_type": "primary", "osm_lanes": 4.0, "osm_oneway": null, "osm_distance": 3.0112764252489241, "osm_maxspeed": 48.2802, "osmid": 203514913.0 }, "geometry": { "type": "Point", "coordinates": [ -4.367665587, 55.883598979 ] } },
{ "type": "Feature", "properties": { "AADT": 30286, "TR_AADT": 1235, "2W_AADT": 97, "raw_name": "A814", "raw_oneway": true, "raw_direction": "M8 Slips-->A804", "raw_techno": "Estimated using previous year's AADF on this link", "osm_name": "Clydeside Expressway", "osm_type": "primary", "osm_lanes": 2.0, "osm_oneway": "True", "osm_distance": 2.2190127933188539, "osm_maxspeed": 80.467, "osmid": 4869276.0 }, "geometry": { "type": "Point", "coordinates": [ -4.271771957, 55.85979245 ] } },
{ "type": "Feature", "properties": { "AADT": 8995, "TR_AADT": 221, "2W_AADT": 24, "raw_name": "M8", "raw_oneway": true, "raw_direction": "A814-->M8", "raw_techno": "Estimated using previous year's AADF on this link", "osm_name": null, "osm_type": "motorway_link", "osm_lanes": 1.0, "osm_oneway": "True", "osm_distance": 1.4132506866343169, "osm_maxspeed": 80.467, "osmid": 39891126.0 }, "geometry": { "type": "Point", "coordinates": [ -4.270995491, 55.859357413 ] } },
{ "type": "Feature", "properties": { "AADT": 19553, "TR_AADT": 221, "2W_AADT": 61, "raw_name": "M8", "raw_oneway": true, "raw_direction": "M8-->Pitt Street", "raw_techno": "Estimated using previous year's AADF on this link", "osm_name": null, "osm_type": "motorway_link", "osm_lanes": 2.0, "osm_oneway": "True", "osm_distance": 0.9874563473221577, "osm_maxspeed": 80.467, "osmid": 121017978.0 }, "geometry": { "type": "Point", "coordinates": [ -4.267167195, 55.861944528 ] } },
{ "type": "Feature", "properties": { "AADT": 6991, "TR_AADT": 79, "2W_AADT": 24, "raw_name": "M8", "raw_oneway": true, "raw_direction": "M8-->Waterloo Street", "raw_techno": "Estimated using previous year's AADF on this link", "osm_name": null, "osm_type": "motorway_link", "osm_lanes": 1.0, "osm_oneway": "True", "osm_distance": 0.51334841586577595, "osm_maxspeed": 80.467, "osmid": 400611707.0 }, "geometry": { "type": "Point", "coordinates": [ -4.266689363, 55.860874835 ] } },
{ "type": "Feature", "properties": { "AADT": 11511, "TR_AADT": 385, "2W_AADT": 38, "raw_name": "M8", "raw_oneway": true, "raw_direction": "A814-->M8", "raw_techno": "Estimated using previous year's AADF on this link", "osm_name": null, "osm_type": "motorway_link", "osm_lanes": 1.0, "osm_oneway": "True", "osm_distance": 1.7632643566875892, "osm_maxspeed": 80.467, "osmid": 4764313.0 }, "geometry": { "type": "Point", "coordinates": [ -4.271811509, 55.860196157 ] } },
{ "type": "Feature", "properties": { "AADT": 144106, "TR_AADT": 6417, "2W_AADT": 225, "raw_name": "M8", "raw_oneway": true, "raw_direction": "A8-->M8 Slips", "raw_techno": "Estimated using previous year's AADF on this link", "osm_name": "Kingston Bridge", "osm_type": "motorway", "osm_lanes": 5.0, "osm_oneway": "True", "osm_distance": 1.3505531488098861, "osm_maxspeed": 80.467, "osmid": 69067225.0 }, "geometry": { "type": "Point", "coordinates": [ -4.270036725, 55.854701613 ] } },
{ "type": "Feature", "properties": { "AADT": 118165, "TR_AADT": 2500, "2W_AADT": 231, "raw_name": "M8", "raw_oneway": true, "raw_direction": "M8-->M8", "raw_techno": "Estimated using previous year's AADF on this link", "osm_name": null, "osm_type": "motorway", "osm_lanes": 2.0, "osm_oneway": "True", "osm_distance": 1.4132088144347781, "osm_maxspeed": 80.467, "osmid": 4784924.0 }, "geometry": { "type": "Point", "coordinates": [ -4.270244131, 55.858256833 ] } },
{ "type": "Feature", "properties": { "AADT": 49645, "TR_AADT": 1458, "2W_AADT": 236, "raw_name": "A814", "raw_oneway": true, "raw_direction": "A814-->M8 Slips", "raw_techno": "Estimated using previous year's AADF on this link", "osm_name": "Clydeside Expressway", "osm_type": "primary", "osm_lanes": 2.0, "osm_oneway": "True", "osm_distance": 1.7186712185685782, "osm_maxspeed": 80.467, "osmid": 4869276.0 }, "geometry": { "type": "Point", "coordinates": [ -4.276746764, 55.860149848 ] } },
{ "type": "Feature", "properties": { "AADT": 73845, "TR_AADT": 4909, "2W_AADT": 261, "raw_name": "M80", "raw_oneway": true, "raw_direction": "1-->2", "raw_techno": "Automatic counter", "osm_name": null, "osm_type": "motorway", "osm_lanes": 2.0, "osm_oneway": "True", "osm_distance": 2.7086665597266992, "osm_maxspeed": 80.467, "osmid": 33891163.0 }, "geometry": { "type": "Point", "coordinates": [ -4.191633902, 55.881108261 ] } },
{ "type": "Feature", "properties": { "AADT": 74676, "TR_AADT": 3311, "2W_AADT": 180, "raw_name": "M80", "raw_oneway": true, "raw_direction": "2-->LA Boundary", "raw_techno": "Manual count", "osm_name": null, "osm_type": "motorway", "osm_lanes": 2.0, "osm_oneway": "True", "osm_distance": 2.2926745772823778, "osm_maxspeed": 80.467, "osmid": 33891162.0 }, "geometry": { "type": "Point", "coordinates": [ -4.171526147, 55.893238033 ] } },
{ "type": "Feature", "properties": { "AADT": 89839, "TR_AADT": 4509, "2W_AADT": 223, "raw_name": "M77", "raw_oneway": true, "raw_direction": "2-->1", "raw_techno": "Automatic counter", "osm_name": null, "osm_type": null, "osm_lanes": null, "osm_oneway": null, "osm_distance": null, "osm_maxspeed": null, "osmid": null }, "geometry": { "type": "Point", "coordinates": [ -4.332334451, 55.827741486 ] } },
{ "type": "Feature", "properties": { "AADT": 10721, "TR_AADT": 363, "2W_AADT": 17, "raw_name": "A8", "raw_oneway": true, "raw_direction": "M8-->A8", "raw_techno": "Estimated using previous year's AADF on this link", "osm_name": "Wallace Street", "osm_type": "primary", "osm_lanes": 2.0, "osm_oneway": "True", "osm_distance": 4.4440415722015763, "osm_maxspeed": 48.2802, "osmid": 1219330341.0 }, "geometry": { "type": "Point", "coordinates": [ -4.268325498, 55.852755934 ] } },
{ "type": "Feature", "properties": { "AADT": 20862, "TR_AADT": 704, "2W_AADT": 56, "raw_name": "A8", "raw_oneway": true, "raw_direction": "A8-->A730", "raw_techno": "Estimated using previous year's AADF on this link", "osm_name": "Norfolk Street", "osm_type": "primary", "osm_lanes": 4.0, "osm_oneway": null, "osm_distance": 5.3127249870613502, "osm_maxspeed": 48.2802, "osmid": 33175470.0 }, "geometry": { "type": "Point", "coordinates": [ -4.253909175, 55.85212221 ] } },
{ "type": "Feature", "properties": { "AADT": 19447, "TR_AADT": 261, "2W_AADT": 84, "raw_name": "A77", "raw_oneway": true, "raw_direction": "A77-->A77", "raw_techno": "Estimated using previous year's AADF on this link", "osm_name": "Pollokshaws Road", "osm_type": "primary", "osm_lanes": 2.0, "osm_oneway": null, "osm_distance": 0.80208279756712553, "osm_maxspeed": 48.2802, "osmid": 4483407.0 }, "geometry": { "type": "Point", "coordinates": [ -4.263405372, 55.842331208 ] } },
{ "type": "Feature", "properties": { "AADT": 16574, "TR_AADT": 213, "2W_AADT": 50, "raw_name": "A814", "raw_oneway": true, "raw_direction": "M8/A804-->A814 Bromielaw", "raw_techno": "Estimated using previous year's AADF on this link", "osm_name": "Argyle Street", "osm_type": "primary", "osm_lanes": 2.0, "osm_oneway": "True", "osm_distance": 1.0955724139110636, "osm_maxspeed": 32.1868, "osmid": 8751900.0 }, "geometry": { "type": "Point", "coordinates": [ -4.266482434, 55.859242926 ] } },
{ "type": "Feature", "properties": { "AADT": 78487, "TR_AADT": 8919, "2W_AADT": 237, "raw_name": "M74", "raw_oneway": true, "raw_direction": "A74-->A763", "raw_techno": "Estimated using previous year's AADF on this link", "osm_name": null, "osm_type": "motorway", "osm_lanes": 3.0, "osm_oneway": "True", "osm_distance": 2.809837665942915, "osm_maxspeed": 112.6538, "osmid": 73592576.0 }, "geometry": { "type": "Point", "coordinates": [ -4.136087451, 55.834497851 ] } },
{ "type": "Feature", "properties": { "AADT": 69361, "TR_AADT": 8476, "2W_AADT": 216, "raw_name": "M74", "raw_oneway": true, "raw_direction": "A763-->A74", "raw_techno": "Estimated using previous year's AADF on this link", "osm_name": null, "osm_type": "motorway", "osm_lanes": 3.0, "osm_oneway": "True", "osm_distance": 4.7868867757667619, "osm_maxspeed": 96.5604, "osmid": 26452722.0 }, "geometry": { "type": "Point", "coordinates": [ -4.161778266, 55.835001552 ] } },
{ "type": "Feature", "properties": { "AADT": 58080, "TR_AADT": 7097, "2W_AADT": 181, "raw_name": "M74", "raw_oneway": true, "raw_direction": "A74-->A74", "raw_techno": "Automatic counter", "osm_name": null, "osm_type": "motorway", "osm_lanes": 3.0, "osm_oneway": "True", "osm_distance": 6.9055634860960149, "osm_maxspeed": 96.5604, "osmid": 275119228.0 }, "geometry": { "type": "Point", "coordinates": [ -4.171806037, 55.835552831 ] } },
{ "type": "Feature", "properties": { "AADT": 74163, "TR_AADT": 8428, "2W_AADT": 224, "raw_name": "M74", "raw_oneway": true, "raw_direction": "A724-->A730/B763", "raw_techno": "Estimated using previous year's AADF on this link", "osm_name": null, "osm_type": "motorway", "osm_lanes": 3.0, "osm_oneway": "True", "osm_distance": 9.2742781192392858, "osm_maxspeed": 80.467, "osmid": 55885958.0 }, "geometry": { "type": "Point", "coordinates": [ -4.234134984, 55.834957492 ] } },
{ "type": "Feature", "properties": { "AADT": 66252, "TR_AADT": 8096, "2W_AADT": 207, "raw_name": "M74", "raw_oneway": true, "raw_direction": "A730/B763-->A730/B763", "raw_techno": "Automatic counter", "osm_name": null, "osm_type": "motorway", "osm_lanes": 3.0, "osm_oneway": "True", "osm_distance": 6.8863045352064223, "osm_maxspeed": 80.467, "osmid": 55885958.0 }, "geometry": { "type": "Point", "coordinates": [ -4.239468482, 55.837448861 ] } },
{ "type": "Feature", "properties": { "AADT": 91964, "TR_AADT": 10451, "2W_AADT": 278, "raw_name": "M74", "raw_oneway": true, "raw_direction": "A730/B763-->A8", "raw_techno": "Automatic counter", "osm_name": null, "osm_type": "motorway", "osm_lanes": 3.0, "osm_oneway": "True", "osm_distance": 6.4738829934275106, "osm_maxspeed": 80.467, "osmid": 288485067.0 }, "geometry": { "type": "Point", "coordinates": [ -4.257225544, 55.843738989 ] } },
{ "type": "Feature", "properties": { "AADT": 67316, "TR_AADT": 8226, "2W_AADT": 210, "raw_name": "M74", "raw_oneway": true, "raw_direction": "A8-->Seaward Street", "raw_techno": "Automatic counter", "osm_name": null, "osm_type": null, "osm_lanes": null, "osm_oneway": null, "osm_distance": null, "osm_maxspeed": null, "osmid": null }, "geometry": { "type": "Point", "coordinates": [ -4.269571395, 55.851106213 ] } },
{ "type": "Feature", "properties": { "AADT": 5764, "TR_AADT": 704, "2W_AADT": 18, "raw_name": "M74", "raw_oneway": true, "raw_direction": "M74-->A763", "raw_techno": "Estimated using previous year's AADF on this link", "osm_name": null, "osm_type": "motorway_link", "osm_lanes": null, "osm_oneway": "True", "osm_distance": 0.05792670539690245, "osm_maxspeed": 112.6538, "osmid": 457754875.0 }, "geometry": { "type": "Point", "coordinates": [ -4.157378823, 55.835725897 ] } },
{ "type": "Feature", "properties": { "AADT": 6297, "TR_AADT": 770, "2W_AADT": 20, "raw_name": "M74", "raw_oneway": true, "raw_direction": "M74-->A763", "raw_techno": "Estimated using previous year's AADF on this link", "osm_name": null, "osm_type": "motorway_link", "osm_lanes": null, "osm_oneway": "True", "osm_distance": 0.065387905821147424, "osm_maxspeed": 112.6538, "osmid": 157589675.0 }, "geometry": { "type": "Point", "coordinates": [ -4.15731757, 55.835196722 ] } },
{ "type": "Feature", "properties": { "AADT": 4714, "TR_AADT": 576, "2W_AADT": 15, "raw_name": "M74", "raw_oneway": true, "raw_direction": "M74-->A74", "raw_techno": "Automatic counter", "osm_name": null, "osm_type": "motorway_link", "osm_lanes": 2.0, "osm_oneway": "True", "osm_distance": 0.25810945312479644, "osm_maxspeed": 48.2802, "osmid": 498384275.0 }, "geometry": { "type": "Point", "coordinates": [ -4.168646961, 55.834745802 ] } },
{ "type": "Feature", "properties": { "AADT": 4998, "TR_AADT": 611, "2W_AADT": 16, "raw_name": "M74", "raw_oneway": true, "raw_direction": "M74-->A74", "raw_techno": "Automatic counter", "osm_name": null, "osm_type": "motorway_link", "osm_lanes": 1.0, "osm_oneway": "True", "osm_distance": 0.89627382964232971, "osm_maxspeed": 96.5604, "osmid": 3469261.0 }, "geometry": { "type": "Point", "coordinates": [ -4.16967912, 55.835500503 ] } },
{ "type": "Feature", "properties": { "AADT": 9289, "TR_AADT": 1135, "2W_AADT": 29, "raw_name": "M74", "raw_oneway": true, "raw_direction": "A74-->M74", "raw_techno": "Automatic counter", "osm_name": null, "osm_type": "motorway_link", "osm_lanes": 1.0, "osm_oneway": "True", "osm_distance": 0.3481164508443621, "osm_maxspeed": 96.5604, "osmid": 119402319.0 }, "geometry": { "type": "Point", "coordinates": [ -4.173805826, 55.835616356 ] } },
{ "type": "Feature", "properties": { "AADT": 8880, "TR_AADT": 1085, "2W_AADT": 28, "raw_name": "M74", "raw_oneway": true, "raw_direction": "A74-->M74", "raw_techno": "Estimated using previous year's AADF on this link", "osm_name": null, "osm_type": "motorway_link", "osm_lanes": 1.0, "osm_oneway": "True", "osm_distance": 0.75404349132108084, "osm_maxspeed": 48.2802, "osmid": 200339496.0 }, "geometry": { "type": "Point", "coordinates": [ -4.174232336, 55.836390712 ] } },
{ "type": "Feature", "properties": { "AADT": 6860, "TR_AADT": 838, "2W_AADT": 21, "raw_name": "M74", "raw_oneway": true, "raw_direction": "M74-->A730/B763", "raw_techno": "Automatic counter", "osm_name": null, "osm_type": "motorway_link", "osm_lanes": 1.0, "osm_oneway": "True", "osm_distance": 0.45920532859099328, "osm_maxspeed": 80.467, "osmid": 114425520.0 }, "geometry": { "type": "Point", "coordinates": [ -4.238067559, 55.837249679 ] } },
{ "type": "Feature", "properties": { "AADT": 7481, "TR_AADT": 914, "2W_AADT": 23, "raw_name": "M74", "raw_oneway": true, "raw_direction": "M74-->A730/B763", "raw_techno": "Automatic counter", "osm_name": null, "osm_type": "motorway_link", "osm_lanes": null, "osm_oneway": "True", "osm_distance": 0.27946761910655221, "osm_maxspeed": 48.2802, "osmid": 114425531.0 }, "geometry": { "type": "Point", "coordinates": [ -4.239266656, 55.836994176 ] } },
{ "type": "Feature", "properties": { "AADT": 12501, "TR_AADT": 1528, "2W_AADT": 39, "raw_name": "M74", "raw_oneway": true, "raw_direction": "A730/B763-->M74", "raw_techno": "Automatic counter", "osm_name": null, "osm_type": "motorway_link", "osm_lanes": null, "osm_oneway": "True", "osm_distance": 0.83326501426176502, "osm_maxspeed": null, "osmid": 275577732.0 }, "geometry": { "type": "Point", "coordinates": [ -4.243456248, 55.838194033 ] } },
{ "type": "Feature", "properties": { "AADT": 13967, "TR_AADT": 1707, "2W_AADT": 44, "raw_name": "M74", "raw_oneway": true, "raw_direction": "A730/B763-->M74", "raw_techno": "Automatic counter", "osm_name": null, "osm_type": "motorway_link", "osm_lanes": 1.0, "osm_oneway": "True", "osm_distance": 1.4040301389937515, "osm_maxspeed": 48.2802, "osmid": 114425504.0 }, "geometry": { "type": "Point", "coordinates": [ -4.243068322, 55.838668457 ] } },
{ "type": "Feature", "properties": { "AADT": 12599, "TR_AADT": 1540, "2W_AADT": 39, "raw_name": "M74", "raw_oneway": true, "raw_direction": "M74-->A8", "raw_techno": "Estimated using previous year's AADF on this link", "osm_name": null, "osm_type": "motorway_link", "osm_lanes": 2.0, "osm_oneway": "True", "osm_distance": 0.43415090575500526, "osm_maxspeed": 48.2802, "osmid": 225408371.0 }, "geometry": { "type": "Point", "coordinates": [ -4.268232366, 55.85060964 ] } },
{ "type": "Feature", "properties": { "AADT": 12364, "TR_AADT": 1511, "2W_AADT": 39, "raw_name": "M74", "raw_oneway": true, "raw_direction": "M74-->A8", "raw_techno": "Automatic counter", "osm_name": null, "osm_type": "motorway_link", "osm_lanes": 2.0, "osm_oneway": "True", "osm_distance": 1.7342328941179319, "osm_maxspeed": 80.467, "osmid": 580990873.0 }, "geometry": { "type": "Point", "coordinates": [ -4.265798178, 55.850510707 ] } },
{ "type": "Feature", "properties": { "AADT": 5597, "TR_AADT": 102, "2W_AADT": 10, "raw_name": "M77", "raw_oneway": true, "raw_direction": "M77-->B768", "raw_techno": "Automatic counter", "osm_name": null, "osm_type": "motorway_link", "osm_lanes": 1.0, "osm_oneway": "True", "osm_distance": 0.43514585459439542, "osm_maxspeed": 80.467, "osmid": 417913511.0 }, "geometry": { "type": "Point", "coordinates": [ -4.308622415, 55.840663812 ] } },
{ "type": "Feature", "properties": { "AADT": 91028, "TR_AADT": 4486, "2W_AADT": 273, "raw_name": "M77", "raw_oneway": true, "raw_direction": "B768-->M74/M77/M8", "raw_techno": "Automatic counter", "osm_name": null, "osm_type": "motorway", "osm_lanes": 2.0, "osm_oneway": "True", "osm_distance": 7.018270506744277, "osm_maxspeed": 80.467, "osmid": 8104390.0 }, "geometry": { "type": "Point", "coordinates": [ -4.299593292, 55.845182975 ] } },
{ "type": "Feature", "properties": { "AADT": 34466, "TR_AADT": 3492, "2W_AADT": 107, "raw_name": "M77", "raw_oneway": true, "raw_direction": "M74/M77/M8-->M8", "raw_techno": "Automatic counter", "osm_name": null, "osm_type": "motorway", "osm_lanes": 2.0, "osm_oneway": "True", "osm_distance": 2.8674154571131156, "osm_maxspeed": 80.467, "osmid": 891257695.0 }, "geometry": { "type": "Point", "coordinates": [ -4.297697892, 55.848795455 ] } },
{ "type": "Feature", "properties": { "AADT": 110296, "TR_AADT": 11176, "2W_AADT": 343, "raw_name": "M8", "raw_oneway": true, "raw_direction": "M74/M77/M8-->Seaward Street", "raw_techno": "Estimated using previous year's AADF on this link", "osm_name": null, "osm_type": "motorway", "osm_lanes": 2.0, "osm_oneway": "True", "osm_distance": 3.5751895874494979, "osm_maxspeed": 80.467, "osmid": 163763689.0 }, "geometry": { "type": "Point", "coordinates": [ -4.286587281, 55.849757477 ] } },
{ "type": "Feature", "properties": { "AADT": 120262, "TR_AADT": 12185, "2W_AADT": 375, "raw_name": "M8", "raw_oneway": true, "raw_direction": "M74/M77/M8-->A8", "raw_techno": "Automatic counter", "osm_name": null, "osm_type": "motorway", "osm_lanes": 3.0, "osm_oneway": "True", "osm_distance": 5.0723514268386918, "osm_maxspeed": 80.467, "osmid": 22731426.0 }, "geometry": { "type": "Point", "coordinates": [ -4.279653771, 55.849760361 ] } },
{ "type": "Feature", "properties": { "AADT": 6469, "TR_AADT": 655, "2W_AADT": 20, "raw_name": "M77", "raw_oneway": true, "raw_direction": "B768-->M77", "raw_techno": "Automatic counter", "osm_name": null, "osm_type": "motorway_link", "osm_lanes": null, "osm_oneway": "True", "osm_distance": 0.85622111047411431, "osm_maxspeed": 80.467, "osmid": 17208768.0 }, "geometry": { "type": "Point", "coordinates": [ -4.30647117, 55.840479489 ] } },
{ "type": "Feature", "properties": { "AADT": 5173, "TR_AADT": 524, "2W_AADT": 16, "raw_name": "M8", "raw_oneway": true, "raw_direction": "Seaward Street-->A8", "raw_techno": "Automatic counter", "osm_name": null, "osm_type": "motorway_link", "osm_lanes": 2.0, "osm_oneway": "True", "osm_distance": 2.2603010568381734, "osm_maxspeed": 48.2802, "osmid": 221084960.0 }, "geometry": { "type": "Point", "coordinates": [ -4.27256957, 55.852381003 ] } },
{ "type": "Feature", "properties": { "AADT": 5659, "TR_AADT": 573, "2W_AADT": 18, "raw_name": "M8", "raw_oneway": true, "raw_direction": "Seaward Street-->A8", "raw_techno": "Automatic counter", "osm_name": null, "osm_type": "motorway", "osm_lanes": 4.0, "osm_oneway": "True", "osm_distance": 1.297922426969522, "osm_maxspeed": 80.467, "osmid": 27109757.0 }, "geometry": { "type": "Point", "coordinates": [ -4.27182326, 55.851091602 ] } },
{ "type": "Feature", "properties": { "AADT": 18257, "TR_AADT": 1850, "2W_AADT": 57, "raw_name": "M8", "raw_oneway": true, "raw_direction": "M74-->Seaward Street", "raw_techno": "Automatic counter", "osm_name": null, "osm_type": "motorway_link", "osm_lanes": 2.0, "osm_oneway": "True", "osm_distance": 0.22945445032121492, "osm_maxspeed": 48.2802, "osmid": 93322672.0 }, "geometry": { "type": "Point", "coordinates": [ -4.279976974, 55.850095896 ] } },
{ "type": "Feature", "properties": { "AADT": 16963, "TR_AADT": 1719, "2W_AADT": 53, "raw_name": "M8", "raw_oneway": true, "raw_direction": "M74-->Seaward Street", "raw_techno": "Automatic counter", "osm_name": null, "osm_type": "motorway_link", "osm_lanes": 1.0, "osm_oneway": "True", "osm_distance": 1.2277599209427792, "osm_maxspeed": 80.467, "osmid": 580990882.0 }, "geometry": { "type": "Point", "coordinates": [ -4.279608368, 55.849257901 ] } },
{ "type": "Feature", "properties": { "AADT": 53873, "TR_AADT": 5459, "2W_AADT": 168, "raw_name": "M77", "raw_oneway": true, "raw_direction": "M77-->M8", "raw_techno": "Automatic counter", "osm_name": null, "osm_type": "motorway", "osm_lanes": 2.0, "osm_oneway": "True", "osm_distance": 2.8674154571131156, "osm_maxspeed": 80.467, "osmid": 891257695.0 }, "geometry": { "type": "Point", "coordinates": [ -4.297697892, 55.848795455 ] } },
{ "type": "Feature", "properties": { "AADT": 76658, "TR_AADT": 7767, "2W_AADT": 239, "raw_name": "M8", "raw_oneway": true, "raw_direction": "M8-->M74", "raw_techno": "Automatic counter", "osm_name": null, "osm_type": "motorway", "osm_lanes": 3.0, "osm_oneway": "True", "osm_distance": 10.611675273223169, "osm_maxspeed": 80.467, "osmid": 119028145.0 }, "geometry": { "type": "Point", "coordinates": [ -4.301682048, 55.849439964 ] } },
{ "type": "Feature", "properties": { "AADT": 8090, "TR_AADT": 102, "2W_AADT": 28, "raw_name": "A89", "raw_oneway": true, "raw_direction": "A8-->A728", "raw_techno": "Estimated using previous year's AADF on this link", "osm_name": "Gallowgate", "osm_type": "primary", "osm_lanes": null, "osm_oneway": null, "osm_distance": 5.4223149927441945, "osm_maxspeed": 48.2802, "osmid": 1211950202.0 }, "geometry": { "type": "Point", "coordinates": [ -4.230159001, 55.855880476 ] } },
{ "type": "Feature", "properties": { "AADT": 7911, "TR_AADT": 117, "2W_AADT": 17, "raw_name": "A89", "raw_oneway": true, "raw_direction": "B763 Millerston Street-->B765 Killin St", "raw_techno": "Estimated using previous year's AADF on this link", "osm_name": "Shettleston Road", "osm_type": "primary", "osm_lanes": 3.0, "osm_oneway": null, "osm_distance": 0.55913239687785099, "osm_maxspeed": 48.2802, "osmid": 242773841.0 }, "geometry": { "type": "Point", "coordinates": [ -4.190076418, 55.853455104 ] } },
{ "type": "Feature", "properties": { "AADT": 12165, "TR_AADT": 428, "2W_AADT": 23, "raw_name": "A74", "raw_oneway": true, "raw_direction": "Fullarton Road roundabout-->B763 Dunn Street", "raw_techno": "Estimated using previous year's AADF on this link", "osm_name": null, "osm_type": "service", "osm_lanes": null, "osm_oneway": null, "osm_distance": 20.442793186330658, "osm_maxspeed": null, "osmid": 1214609480.0 }, "geometry": { "type": "Point", "coordinates": [ -4.197692049, 55.846848385 ] } },
{ "type": "Feature", "properties": { "AADT": 7217, "TR_AADT": 204, "2W_AADT": 47, "raw_name": "A74", "raw_oneway": true, "raw_direction": "B763 Dunn Street-->A749", "raw_techno": "Estimated using previous year's AADF on this link", "osm_name": "London Road", "osm_type": "primary", "osm_lanes": null, "osm_oneway": null, "osm_distance": 6.9962198259748876, "osm_maxspeed": 48.2802, "osmid": 158371794.0 }, "geometry": { "type": "Point", "coordinates": [ -4.221783318, 55.849111757 ] } },
{ "type": "Feature", "properties": { "AADT": 7674, "TR_AADT": 259, "2W_AADT": 23, "raw_name": "A728", "raw_oneway": true, "raw_direction": "A749-->A74", "raw_techno": "Estimated using previous year's AADF on this link", "osm_name": "Clyde Gateway", "osm_type": "primary", "osm_lanes": 2.0, "osm_oneway": "True", "osm_distance": 2.4022875704193569, "osm_maxspeed": 48.2802, "osmid": 263438813.0 }, "geometry": { "type": "Point", "coordinates": [ -4.214682639, 55.844206887 ] } },
{ "type": "Feature", "properties": { "AADT": 9190, "TR_AADT": 250, "2W_AADT": 17, "raw_name": "A728", "raw_oneway": true, "raw_direction": "B763 Dunn Street-->A749", "raw_techno": "Estimated using previous year's AADF on this link", "osm_name": "Clyde Gateway", "osm_type": "primary", "osm_lanes": 2.0, "osm_oneway": "True", "osm_distance": 7.1820753423302506, "osm_maxspeed": 48.2802, "osmid": 174663538.0 }, "geometry": { "type": "Point", "coordinates": [ -4.209503464, 55.85005196 ] } },
{ "type": "Feature", "properties": { "AADT": 7897, "TR_AADT": 205, "2W_AADT": 49, "raw_name": "A8", "raw_oneway": true, "raw_direction": "M8-->Morrison Street", "raw_techno": "Estimated using previous year's AADF on this link", "osm_name": "Dalintober Street", "osm_type": "primary", "osm_lanes": 3.0, "osm_oneway": "True", "osm_distance": 1.7125045909603103, "osm_maxspeed": 48.2802, "osmid": 11340931.0 }, "geometry": { "type": "Point", "coordinates": [ -4.268780235, 55.852882359 ] } },
{ "type": "Feature", "properties": { "AADT": 20273, "TR_AADT": 1192, "2W_AADT": 60, "raw_name": "M8", "raw_oneway": true, "raw_direction": "A8 (West Street)-->M8", "raw_techno": "Estimated using previous year's AADF on this link", "osm_name": null, "osm_type": "motorway_link", "osm_lanes": 2.0, "osm_oneway": "True", "osm_distance": 1.0187677122209384, "osm_maxspeed": 80.467, "osmid": 164087240.0 }, "geometry": { "type": "Point", "coordinates": [ -4.266037988, 55.852159987 ] } },
{ "type": "Feature", "properties": { "AADT": 11665, "TR_AADT": 275, "2W_AADT": 72, "raw_name": "A8", "raw_oneway": true, "raw_direction": "Tradeston Street-->Camoustie Street", "raw_techno": "Estimated using previous year's AADF on this link", "osm_name": "Paisley Road", "osm_type": "primary", "osm_lanes": null, "osm_oneway": "True", "osm_distance": 0.28769763219383837, "osm_maxspeed": 48.2802, "osmid": 4741295.0 }, "geometry": { "type": "Point", "coordinates": [ -4.264933938, 55.854328333 ] } },
{ "type": "Feature", "properties": { "AADT": 9746, "TR_AADT": 202, "2W_AADT": 18, "raw_name": "A8", "raw_oneway": true, "raw_direction": "Eglinton Street-->Tradeston Street", "raw_techno": "Estimated using previous year's AADF on this link", "osm_name": "Wallace Street", "osm_type": "primary", "osm_lanes": null, "osm_oneway": "True", "osm_distance": 1.5620181358883203, "osm_maxspeed": 48.2802, "osmid": 972410217.0 }, "geometry": { "type": "Point", "coordinates": [ -4.260124741, 55.851855365 ] } },
{ "type": "Feature", "properties": { "AADT": 11378, "TR_AADT": 117, "2W_AADT": 33, "raw_name": "A8", "raw_oneway": true, "raw_direction": "Eglinton Street-->Tradeston Street", "raw_techno": "Estimated using previous year's AADF on this link", "osm_name": "Cook Street", "osm_type": "primary", "osm_lanes": 4.0, "osm_oneway": "True", "osm_distance": 0.081920410808490274, "osm_maxspeed": 48.2802, "osmid": 412175191.0 }, "geometry": { "type": "Point", "coordinates": [ -4.262059942, 55.85106484 ] } },
{ "type": "Feature", "properties": { "AADT": 9346, "TR_AADT": 202, "2W_AADT": 35, "raw_name": "A8", "raw_oneway": true, "raw_direction": "Tradeston Street-->West Street", "raw_techno": "Estimated using previous year's AADF on this link", "osm_name": "Wallace Street", "osm_type": "primary", "osm_lanes": 2.0, "osm_oneway": "True", "osm_distance": 1.1247632800164407, "osm_maxspeed": 48.2802, "osmid": 5204138.0 }, "geometry": { "type": "Point", "coordinates": [ -4.264741804, 55.852399561 ] } },
{ "type": "Feature", "properties": { "AADT": 5509, "TR_AADT": 88, "2W_AADT": 61, "raw_name": "A77", "raw_oneway": true, "raw_direction": "Kingston Street-->Broomielaw", "raw_techno": "Estimated using previous year's AADF on this link", "osm_name": "Commerce Street", "osm_type": "primary", "osm_lanes": null, "osm_oneway": "True", "osm_distance": 2.7628823207030542, "osm_maxspeed": 48.2802, "osmid": 47171927.0 }, "geometry": { "type": "Point", "coordinates": [ -4.259823503, 55.854647017 ] } },
{ "type": "Feature", "properties": { "AADT": 5364, "TR_AADT": 75, "2W_AADT": 45, "raw_name": "A77", "raw_oneway": true, "raw_direction": "Nelson Street-->Kingston Street", "raw_techno": "Estimated using previous year's AADF on this link", "osm_name": "Commerce Street", "osm_type": "primary", "osm_lanes": 3.0, "osm_oneway": "True", "osm_distance": 2.4219634965745942, "osm_maxspeed": 48.2802, "osmid": 11339909.0 }, "geometry": { "type": "Point", "coordinates": [ -4.260292135, 55.853362185 ] } },
{ "type": "Feature", "properties": { "AADT": 8733, "TR_AADT": 94, "2W_AADT": 93, "raw_name": "A77", "raw_oneway": true, "raw_direction": "Oxford Street-->Broomielaw/Clyde Street", "raw_techno": "Manual count", "osm_name": "Glasgow Bridge", "osm_type": "primary", "osm_lanes": 4.0, "osm_oneway": "True", "osm_distance": 2.0275317244067561, "osm_maxspeed": 48.2802, "osmid": 4521175.0 }, "geometry": { "type": "Point", "coordinates": [ -4.258029982, 55.855129329 ] } },
{ "type": "Feature", "properties": { "AADT": 4533, "TR_AADT": 38, "2W_AADT": 53, "raw_name": "A77", "raw_oneway": true, "raw_direction": "Norfolk Street-->Oxford Street", "raw_techno": "Estimated using previous year's AADF on this link", "osm_name": "Bridge Street", "osm_type": "primary", "osm_lanes": null, "osm_oneway": "True", "osm_distance": 0.041656363456886704, "osm_maxspeed": 48.2802, "osmid": 45049551.0 }, "geometry": { "type": "Point", "coordinates": [ -4.258719661, 55.853247272 ] } },
{ "type": "Feature", "properties": { "AADT": 10888, "TR_AADT": 233, "2W_AADT": 97, "raw_name": "A77", "raw_oneway": true, "raw_direction": "Wallace Street/Coburg Street-->Norfolk Street", "raw_techno": "Estimated using previous year's AADF on this link", "osm_name": "Eglinton Street", "osm_type": "primary", "osm_lanes": 4.0, "osm_oneway": null, "osm_distance": 0.62314532079568363, "osm_maxspeed": 48.2802, "osmid": 164087239.0 }, "geometry": { "type": "Point", "coordinates": [ -4.259078873, 55.852279015 ] } },
{ "type": "Feature", "properties": { "AADT": 17345, "TR_AADT": 320, "2W_AADT": 115, "raw_name": "A77", "raw_oneway": true, "raw_direction": "Cook Street/Bedford Street-->Wallace Street/Coburg Street", "raw_techno": "Estimated using previous year's AADF on this link", "osm_name": "Eglinton Street", "osm_type": "primary", "osm_lanes": null, "osm_oneway": null, "osm_distance": 1.4909083283271778, "osm_maxspeed": 48.2802, "osmid": 331674956.0 }, "geometry": { "type": "Point", "coordinates": [ -4.259426278, 55.851382874 ] } },
{ "type": "Feature", "properties": { "AADT": 8040, "TR_AADT": 103, "2W_AADT": 20, "raw_name": "A8", "raw_oneway": true, "raw_direction": "Nelson Street-->Kingston Street", "raw_techno": "Estimated using previous year's AADF on this link", "osm_name": "Tradeston Street", "osm_type": "primary", "osm_lanes": 2.0, "osm_oneway": "True", "osm_distance": 1.1695219983358407, "osm_maxspeed": 48.2802, "osmid": 730045305.0 }, "geometry": { "type": "Point", "coordinates": [ -4.263325385, 55.853594006 ] } },
{ "type": "Feature", "properties": { "AADT": 3758, "TR_AADT": 125, "2W_AADT": 19, "raw_name": "A8", "raw_oneway": true, "raw_direction": "Wallace Street-->Nelson Street", "raw_techno": "Estimated using previous year's AADF on this link", "osm_name": "Tradeston Street", "osm_type": "primary", "osm_lanes": null, "osm_oneway": "True", "osm_distance": 0.040243878265940135, "osm_maxspeed": 48.2802, "osmid": 45049552.0 }, "geometry": { "type": "Point", "coordinates": [ -4.263585296, 55.852843262 ] } },
{ "type": "Feature", "properties": { "AADT": 8053, "TR_AADT": 234, "2W_AADT": 22, "raw_name": "A8", "raw_oneway": true, "raw_direction": "Cook Street-->Wallace Street", "raw_techno": "Estimated using previous year's AADF on this link", "osm_name": "West Street", "osm_type": "primary", "osm_lanes": 3.0, "osm_oneway": "True", "osm_distance": 2.6221681392602445, "osm_maxspeed": 48.2802, "osmid": 5204140.0 }, "geometry": { "type": "Point", "coordinates": [ -4.26535959, 55.851759059 ] } },
{ "type": "Feature", "properties": { "AADT": 2471, "TR_AADT": 41, "2W_AADT": 11, "raw_name": "A8", "raw_oneway": true, "raw_direction": "Cook Street-->Wallace Street", "raw_techno": "Estimated using previous year's AADF on this link", "osm_name": "Tradeston Street", "osm_type": "primary", "osm_lanes": 3.0, "osm_oneway": "True", "osm_distance": 3.3322237703350104, "osm_maxspeed": 48.2802, "osmid": 368520678.0 }, "geometry": { "type": "Point", "coordinates": [ -4.264056917, 55.851612283 ] } },
{ "type": "Feature", "properties": { "AADT": 11885, "TR_AADT": 248, "2W_AADT": 33, "raw_name": "A8", "raw_oneway": true, "raw_direction": "Tradeston Street-->West Street", "raw_techno": "Estimated using previous year's AADF on this link", "osm_name": "Cook Street", "osm_type": "primary", "osm_lanes": 4.0, "osm_oneway": "True", "osm_distance": 0.22845831892313487, "osm_maxspeed": 48.2802, "osmid": 164090947.0 }, "geometry": { "type": "Point", "coordinates": [ -4.264858329, 55.851381829 ] } },
{ "type": "Feature", "properties": { "AADT": 4538, "TR_AADT": 65, "2W_AADT": 9, "raw_name": "A8", "raw_oneway": true, "raw_direction": "Commerce Street-->Tradeston Street", "raw_techno": "Estimated using previous year's AADF on this link", "osm_name": "Kingston Street", "osm_type": "primary", "osm_lanes": null, "osm_oneway": "True", "osm_distance": 1.8346895252924245, "osm_maxspeed": 48.2802, "osmid": 11339912.0 }, "geometry": { "type": "Point", "coordinates": [ -4.262013913, 55.854121431 ] } },
{ "type": "Feature", "properties": { "AADT": 3980, "TR_AADT": 58, "2W_AADT": 12, "raw_name": "A8", "raw_oneway": true, "raw_direction": "Bridge Street-->Commerce Street", "raw_techno": "Estimated using previous year's AADF on this link", "osm_name": "Kingston Street", "osm_type": "primary", "osm_lanes": null, "osm_oneway": "True", "osm_distance": 1.5288040477342184, "osm_maxspeed": 48.2802, "osmid": 5204135.0 }, "geometry": { "type": "Point", "coordinates": [ -4.259392482, 55.853828088 ] } },
{ "type": "Feature", "properties": { "AADT": 5425, "TR_AADT": 120, "2W_AADT": 15, "raw_name": "A8", "raw_oneway": true, "raw_direction": "Norfolk Street-->Bridge Street/Oxford Street", "raw_techno": "Estimated using previous year's AADF on this link", "osm_name": "South Portland Street", "osm_type": "primary", "osm_lanes": 3.0, "osm_oneway": "True", "osm_distance": 0.21802031090008805, "osm_maxspeed": 48.2802, "osmid": 8104174.0 }, "geometry": { "type": "Point", "coordinates": [ -4.2565603, 55.85320602 ] } },
{ "type": "Feature", "properties": { "AADT": 5063, "TR_AADT": 140, "2W_AADT": 17, "raw_name": "A8", "raw_oneway": true, "raw_direction": "Paterson Street-->Camoustie Street", "raw_techno": "Estimated using previous year's AADF on this link", "osm_name": "Morrison Street", "osm_type": "primary", "osm_lanes": 2.0, "osm_oneway": "True", "osm_distance": 1.4991205656432252, "osm_maxspeed": 48.2802, "osmid": 164087238.0 }, "geometry": { "type": "Point", "coordinates": [ -4.267954214, 55.853787355 ] } },
{ "type": "Feature", "properties": { "AADT": 11728, "TR_AADT": 291, "2W_AADT": 48, "raw_name": "A8", "raw_oneway": true, "raw_direction": "Tradeston Street-->Paterson Street", "raw_techno": "Estimated using previous year's AADF on this link", "osm_name": "Morrison Street", "osm_type": "primary", "osm_lanes": null, "osm_oneway": "True", "osm_distance": 0.74841652730546393, "osm_maxspeed": 48.2802, "osmid": 4642283.0 }, "geometry": { "type": "Point", "coordinates": [ -4.265058822, 55.853454247 ] } },
{ "type": "Feature", "properties": { "AADT": 5819, "TR_AADT": 163, "2W_AADT": 37, "raw_name": "A8", "raw_oneway": true, "raw_direction": "Commerce Street-->Tradeston Street", "raw_techno": "Estimated using previous year's AADF on this link", "osm_name": "Nelson Street", "osm_type": "primary", "osm_lanes": null, "osm_oneway": "True", "osm_distance": 1.2154012710924504, "osm_maxspeed": 48.2802, "osmid": 33175469.0 }, "geometry": { "type": "Point", "coordinates": [ -4.261230468, 55.853012401 ] } },
{ "type": "Feature", "properties": { "AADT": 10691, "TR_AADT": 303, "2W_AADT": 114, "raw_name": "A8", "raw_oneway": true, "raw_direction": "Bridge Street-->Commerce Street", "raw_techno": "Estimated using previous year's AADF on this link", "osm_name": "Nelson Street", "osm_type": "primary", "osm_lanes": null, "osm_oneway": "True", "osm_distance": 2.0994427892396703, "osm_maxspeed": 48.2802, "osmid": 4642284.0 }, "geometry": { "type": "Point", "coordinates": [ -4.259621915, 55.852826264 ] } },
{ "type": "Feature", "properties": { "AADT": 6929, "TR_AADT": 160, "2W_AADT": 21, "raw_name": "A8", "raw_oneway": true, "raw_direction": "South Portland Street-->Bridge Street/Eglinton Street", "raw_techno": "Estimated using previous year's AADF on this link", "osm_name": "Norfolk Street", "osm_type": "primary", "osm_lanes": 3.0, "osm_oneway": "True", "osm_distance": 1.2233322880262536, "osm_maxspeed": 48.2802, "osmid": 47172045.0 }, "geometry": { "type": "Point", "coordinates": [ -4.257287352, 55.852518619 ] } },
{ "type": "Feature", "properties": { "AADT": 10845, "TR_AADT": 568, "2W_AADT": 19, "raw_name": "A728", "raw_oneway": true, "raw_direction": "A730-->A749", "raw_techno": "Estimated using previous year's AADF on this link", "osm_name": "Shawfield Drive", "osm_type": "primary", "osm_lanes": 4.0, "osm_oneway": null, "osm_distance": 3.6819965701042303, "osm_maxspeed": 48.2802, "osmid": 1240136780.0 }, "geometry": { "type": "Point", "coordinates": [ -4.22892245, 55.839869345 ] } },
{ "type": "Feature", "properties": { "AADT": 11032, "TR_AADT": 184, "2W_AADT": 48, "raw_name": "A8", "raw_oneway": true, "raw_direction": "A761-->M8", "raw_techno": "Manual count", "osm_name": "Paisley Road West", "osm_type": "primary", "osm_lanes": null, "osm_oneway": null, "osm_distance": 0.39988021050807554, "osm_maxspeed": 48.2802, "osmid": 203932824.0 }, "geometry": { "type": "Point", "coordinates": [ -4.285940527, 55.85261855 ] } },
{ "type": "Feature", "properties": { "AADT": 16009, "TR_AADT": 341, "2W_AADT": 59, "raw_name": "A8", "raw_oneway": true, "raw_direction": "M8-->A8 Morrison St", "raw_techno": "Estimated using previous year's AADF on this link", "osm_name": "Paisley Road", "osm_type": "primary", "osm_lanes": null, "osm_oneway": "True", "osm_distance": 2.131571285252913, "osm_maxspeed": 48.2802, "osmid": 11341160.0 }, "geometry": { "type": "Point", "coordinates": [ -4.271362735, 55.853877246 ] } },
{ "type": "Feature", "properties": { "AADT": 25401, "TR_AADT": 652, "2W_AADT": 118, "raw_name": "A728", "raw_oneway": true, "raw_direction": "B768 Prospecthill Road-->A728 Polmadie Road", "raw_techno": "Estimated using previous year's AADF on this link", "osm_name": "Aikenhead Road", "osm_type": "primary", "osm_lanes": null, "osm_oneway": null, "osm_distance": 6.2193853216145678, "osm_maxspeed": 48.2802, "osmid": 188742458.0 }, "geometry": { "type": "Point", "coordinates": [ -4.248066841, 55.829805407 ] } },
{ "type": "Feature", "properties": { "AADT": 11105, "TR_AADT": 139, "2W_AADT": 59, "raw_name": "A728", "raw_oneway": true, "raw_direction": "A728 Polmadie Road-->A730 Caledonia Road", "raw_techno": "Estimated using previous year's AADF on this link", "osm_name": "Aikenhead Road", "osm_type": "primary", "osm_lanes": 3.0, "osm_oneway": null, "osm_distance": 1.0889995786918529, "osm_maxspeed": 48.2802, "osmid": 11634672.0 }, "geometry": { "type": "Point", "coordinates": [ -4.253687239, 55.840011165 ] } },
{ "type": "Feature", "properties": { "AADT": 19721, "TR_AADT": 649, "2W_AADT": 31, "raw_name": "A730", "raw_oneway": true, "raw_direction": "LA Boundary-->A728 Polmadie Road", "raw_techno": "Estimated using previous year's AADF on this link", "osm_name": "New Rutherglen Road", "osm_type": "primary", "osm_lanes": null, "osm_oneway": "False", "osm_distance": 0.79816601981794277, "osm_maxspeed": 48.2802, "osmid": 972900201.0 }, "geometry": { "type": "Point", "coordinates": [ -4.236243191, 55.838019839 ] } },
{ "type": "Feature", "properties": { "AADT": 7878, "TR_AADT": 153, "2W_AADT": 31, "raw_name": "A730", "raw_oneway": true, "raw_direction": "A728 Polmadie Road-->A728 Cathcart Road", "raw_techno": "Estimated using previous year's AADF on this link", "osm_name": "Caledonia Road", "osm_type": "primary", "osm_lanes": null, "osm_oneway": null, "osm_distance": 0.55168457257848436, "osm_maxspeed": 48.2802, "osmid": 204867857.0 }, "geometry": { "type": "Point", "coordinates": [ -4.246375152, 55.844494881 ] } },
{ "type": "Feature", "properties": { "AADT": 19599, "TR_AADT": 1124, "2W_AADT": 56, "raw_name": "M8", "raw_oneway": true, "raw_direction": "A8 (West Street)-->M8", "raw_techno": "Automatic counter", "osm_name": null, "osm_type": "motorway_link", "osm_lanes": 2.0, "osm_oneway": "True", "osm_distance": 2.3674802913587771, "osm_maxspeed": 80.467, "osmid": 4803257.0 }, "geometry": { "type": "Point", "coordinates": [ -4.270885732, 55.853643391 ] } },
{ "type": "Feature", "properties": { "AADT": 79692, "TR_AADT": 3928, "2W_AADT": 239, "raw_name": "M77", "raw_oneway": true, "raw_direction": "M77-->B768", "raw_techno": "Automatic counter", "osm_name": null, "osm_type": "motorway", "osm_lanes": 2.0, "osm_oneway": "True", "osm_distance": 0.53531837024356543, "osm_maxspeed": 80.467, "osmid": 8104392.0 }, "geometry": { "type": "Point", "coordinates": [ -4.306169619, 55.841051363 ] } },
{ "type": "Feature", "properties": { "AADT": 9440, "TR_AADT": 204, "2W_AADT": 67, "raw_name": "B765", "raw_oneway": true, "raw_direction": null, "raw_techno": "Manual count", "osm_name": "Stepps Road", "osm_type": "secondary", "osm_lanes": 2.0, "osm_oneway": "True", "osm_distance": 9.2715655800469676, "osm_maxspeed": 48.2802, "osmid": 52131662.0 }, "geometry": { "type": "Point", "coordinates": [ -4.155287917, 55.865752999 ] } },
{ "type": "Feature", "properties": { "AADT": 3780, "TR_AADT": 10, "2W_AADT": 4, "raw_name": "U", "raw_oneway": true, "raw_direction": null, "raw_techno": "Manual count", "osm_name": "Glen Moriston Road", "osm_type": "tertiary", "osm_lanes": null, "osm_oneway": null, "osm_distance": 2.646435501447256, "osm_maxspeed": null, "osmid": 24205428.0 }, "geometry": { "type": "Point", "coordinates": [ -4.339301007, 55.81080213 ] } },
{ "type": "Feature", "properties": { "AADT": 5926, "TR_AADT": 74, "2W_AADT": 13, "raw_name": "U", "raw_oneway": true, "raw_direction": null, "raw_techno": "Estimated using previous year's AADF on this link", "osm_name": "Kinfauns Drive", "osm_type": "tertiary", "osm_lanes": 2.0, "osm_oneway": null, "osm_distance": 4.2677866313102184, "osm_maxspeed": 48.2802, "osmid": 349673.0 }, "geometry": { "type": "Point", "coordinates": [ -4.369541957, 55.916997014 ] } },
{ "type": "Feature", "properties": { "AADT": 4123, "TR_AADT": 46, "2W_AADT": 9, "raw_name": "U", "raw_oneway": true, "raw_direction": null, "raw_techno": "Manual count", "osm_name": "Invershiel Road", "osm_type": "tertiary", "osm_lanes": null, "osm_oneway": null, "osm_distance": 3.7870541239408015, "osm_maxspeed": null, "osmid": 28169953.0 }, "geometry": { "type": "Point", "coordinates": [ -4.290611912, 55.905638867 ] } },
{ "type": "Feature", "properties": { "AADT": 3787, "TR_AADT": 102, "2W_AADT": 4, "raw_name": "U", "raw_oneway": true, "raw_direction": null, "raw_techno": "Manual count", "osm_name": "Liddesdale Road", "osm_type": "residential", "osm_lanes": null, "osm_oneway": null, "osm_distance": 3.1786798305158461, "osm_maxspeed": null, "osmid": 28721072.0 }, "geometry": { "type": "Point", "coordinates": [ -4.255564205, 55.897208817 ] } },
{ "type": "Feature", "properties": { "AADT": 7214, "TR_AADT": 131, "2W_AADT": 10, "raw_name": "U", "raw_oneway": true, "raw_direction": null, "raw_techno": "Estimated using previous year's AADF on this link", "osm_name": "Carntyne Road", "osm_type": "tertiary", "osm_lanes": null, "osm_oneway": null, "osm_distance": 2.0288637268340977, "osm_maxspeed": null, "osmid": 242773833.0 }, "geometry": { "type": "Point", "coordinates": [ -4.187102953, 55.860248492 ] } },
{ "type": "Feature", "properties": { "AADT": 1286, "TR_AADT": 24, "2W_AADT": 9, "raw_name": "U", "raw_oneway": true, "raw_direction": null, "raw_techno": "Estimated using previous year's AADF on this link", "osm_name": "Pitt Street", "osm_type": "unclassified", "osm_lanes": 2.0, "osm_oneway": "True", "osm_distance": 2.4900965687549665, "osm_maxspeed": 32.1868, "osmid": 4644888.0 }, "geometry": { "type": "Point", "coordinates": [ -4.265302661, 55.863956122 ] } },
{ "type": "Feature", "properties": { "AADT": 7277, "TR_AADT": 105, "2W_AADT": 14, "raw_name": "U", "raw_oneway": true, "raw_direction": null, "raw_techno": "Manual count", "osm_name": "Castlemilk Drive", "osm_type": "tertiary", "osm_lanes": null, "osm_oneway": null, "osm_distance": 2.062370365663527, "osm_maxspeed": null, "osmid": 206178455.0 }, "geometry": { "type": "Point", "coordinates": [ -4.232404037, 55.805869575 ] } },
{ "type": "Feature", "properties": { "AADT": 5215, "TR_AADT": 46, "2W_AADT": 21, "raw_name": "U", "raw_oneway": true, "raw_direction": null, "raw_techno": "Manual count", "osm_name": "St Andrew's Drive", "osm_type": "tertiary", "osm_lanes": 2.0, "osm_oneway": null, "osm_distance": 0.50608169397643787, "osm_maxspeed": null, "osmid": 204735312.0 }, "geometry": { "type": "Point", "coordinates": [ -4.289551192, 55.841478726 ] } },
{ "type": "Feature", "properties": { "AADT": 250, "TR_AADT": 0, "2W_AADT": 0, "raw_name": "U", "raw_oneway": true, "raw_direction": null, "raw_techno": "Manual count", "osm_name": "Crown Street", "osm_type": "residential", "osm_lanes": null, "osm_oneway": null, "osm_distance": 0.26859425260841069, "osm_maxspeed": 32.1868, "osmid": 132741011.0 }, "geometry": { "type": "Point", "coordinates": [ -4.250082626, 55.849496034 ] } },
{ "type": "Feature", "properties": { "AADT": 5380, "TR_AADT": 43, "2W_AADT": 17, "raw_name": "U", "raw_oneway": true, "raw_direction": null, "raw_techno": "Estimated using previous year's AADF on this link", "osm_name": "Southbrae Drive", "osm_type": "tertiary", "osm_lanes": 2.0, "osm_oneway": null, "osm_distance": 0.1691460052701351, "osm_maxspeed": 48.2802, "osmid": 45419761.0 }, "geometry": { "type": "Point", "coordinates": [ -4.333001057, 55.883110699 ] } },
{ "type": "Feature", "properties": { "AADT": 7132, "TR_AADT": 271, "2W_AADT": 19, "raw_name": "U", "raw_oneway": true, "raw_direction": null, "raw_techno": "Manual count", "osm_name": "Keppochhill Road", "osm_type": "tertiary", "osm_lanes": 2.0, "osm_oneway": null, "osm_distance": 0.63367855165387754, "osm_maxspeed": 48.2802, "osmid": 37802142.0 }, "geometry": { "type": "Point", "coordinates": [ -4.251120956, 55.877113424 ] } },
{ "type": "Feature", "properties": { "AADT": 443, "TR_AADT": 4, "2W_AADT": 1, "raw_name": "U", "raw_oneway": true, "raw_direction": null, "raw_techno": "Manual count", "osm_name": "Corkerhill Place", "osm_type": "residential", "osm_lanes": null, "osm_oneway": null, "osm_distance": 3.5271481248472503, "osm_maxspeed": null, "osmid": 22883527.0 }, "geometry": { "type": "Point", "coordinates": [ -4.330078462, 55.835405802 ] } },
{ "type": "Feature", "properties": { "AADT": 1602, "TR_AADT": 41, "2W_AADT": 9, "raw_name": "U", "raw_oneway": true, "raw_direction": null, "raw_techno": "Manual count", "osm_name": "Woodville Street", "osm_type": "unclassified", "osm_lanes": 2.0, "osm_oneway": null, "osm_distance": 0.71085527532163928, "osm_maxspeed": 48.2802, "osmid": 4717450.0 }, "geometry": { "type": "Point", "coordinates": [ -4.305605082, 55.854983724 ] } },
{ "type": "Feature", "properties": { "AADT": 379, "TR_AADT": 0, "2W_AADT": 0, "raw_name": "U", "raw_oneway": true, "raw_direction": null, "raw_techno": "Manual count", "osm_name": null, "osm_type": null, "osm_lanes": null, "osm_oneway": null, "osm_distance": null, "osm_maxspeed": null, "osmid": null }, "geometry": { "type": "Point", "coordinates": [ -4.288938042, 55.81365562 ] } },
{ "type": "Feature", "properties": { "AADT": 3050, "TR_AADT": 16, "2W_AADT": 15, "raw_name": "U", "raw_oneway": true, "raw_direction": null, "raw_techno": "Manual count", "osm_name": "Garrioch Road", "osm_type": "residential", "osm_lanes": null, "osm_oneway": null, "osm_distance": 13.031391795936527, "osm_maxspeed": null, "osmid": 177461767.0 }, "geometry": { "type": "Point", "coordinates": [ -4.287728964, 55.883852886 ] } },
{ "type": "Feature", "properties": { "AADT": 11831, "TR_AADT": 267, "2W_AADT": 50, "raw_name": "B808", "raw_oneway": true, "raw_direction": null, "raw_techno": "Estimated using previous year's AADF on this link", "osm_name": "Hawthorn Street", "osm_type": "secondary", "osm_lanes": 2.0, "osm_oneway": null, "osm_distance": 0.9925224010856496, "osm_maxspeed": 48.2802, "osmid": 6182161.0 }, "geometry": { "type": "Point", "coordinates": [ -4.254787063, 55.886572969 ] } }
]
}
