{
"type": "FeatureCollection",
"name": "Oslo_AADT_2019",
"crs": { "type": "name", "properties": { "name": "urn:ogc:def:crs:OGC:1.3:CRS84" } },
"features": [
{ "type": "Feature", "properties": { "AADT": 29, "raw_name": "Skivn Oslo gr sykkel", "osm_name": "Skiveien", "osm_type": "secondary", "osm_lanes": null, "osm_oneway": null, "osm_distance": 9.8843283834438633, "osmid": 159225903.0 }, "geometry": { "type": "Point", "coordinates": [ 10.809649, 59.819203 ] } },
{ "type": "Feature", "properties": { "AADT": 624, "raw_name": "Ingjerstrandvn- Oslo grense", "osm_name": "Ingierstrandveien", "osm_type": "secondary", "osm_lanes": null, "osm_oneway": null, "osm_distance": 0.27631417929353186, "osmid": 179027632.0 }, "geometry": { "type": "Point", "coordinates": [ 10.76888, 59.825975 ] } },
{ "type": "Feature", "properties": { "AADT": 16297, "raw_name": "Mastemyr", "osm_name": null, "osm_type": "trunk", "osm_lanes": 2.0, "osm_oneway": "True", "osm_distance": 10.076175918125781, "osmid": 330697832.0 }, "geometry": { "type": "Point", "coordinates": [ 10.777599, 59.828037 ] } },
{ "type": "Feature", "properties": { "AADT": 4680, "raw_name": "Skivn. Oslo gr.", "osm_name": "Skiveien", "osm_type": "secondary", "osm_lanes": null, "osm_oneway": null, "osm_distance": 0.024030344867425214, "osmid": 159225903.0 }, "geometry": { "type": "Point", "coordinates": [ 10.809566, 59.819236 ] } },
{ "type": "Feature", "properties": { "AADT": 51471, "raw_name": "Klemetsrud", "osm_name": null, "osm_type": "motorway", "osm_lanes": 2.0, "osm_oneway": "True", "osm_distance": 10.219059676310133, "osmid": 673222900.0 }, "geometry": { "type": "Point", "coordinates": [ 10.843871, 59.82707 ] } },
{ "type": "Feature", "properties": { "AADT": 44641, "raw_name": "Klemetsrudkrysset Hovedkjørefelt", "osm_name": "Europaveien", "osm_type": "trunk", "osm_lanes": 3.0, "osm_oneway": "True", "osm_distance": 11.501071972164015, "osmid": 242364779.0 }, "geometry": { "type": "Point", "coordinates": [ 10.839833, 59.839091 ] } },
{ "type": "Feature", "properties": { "AADT": 7425, "raw_name": "Pårampe Klemetsrudkrysset Nordgående", "osm_name": null, "osm_type": "trunk_link", "osm_lanes": 1.0, "osm_oneway": "True", "osm_distance": 0.11626729559116018, "osmid": 23280233.0 }, "geometry": { "type": "Point", "coordinates": [ 10.840628, 59.839249 ] } },
{ "type": "Feature", "properties": { "AADT": 6428, "raw_name": "Avrampe Klemtsrudkrysset Sørgående", "osm_name": null, "osm_type": "trunk_link", "osm_lanes": 1.0, "osm_oneway": "True", "osm_distance": 0.58123550056355666, "osmid": 23280183.0 }, "geometry": { "type": "Point", "coordinates": [ 10.839176, 59.84003 ] } },
{ "type": "Feature", "properties": { "AADT": 5153, "raw_name": "Ljabrudiagonalen", "osm_name": "Ljabrudiagonalen", "osm_type": "primary", "osm_lanes": 3.0, "osm_oneway": "False", "osm_distance": 0.30199050130499799, "osmid": 151099066.0 }, "geometry": { "type": "Point", "coordinates": [ 10.786571, 59.840297 ] } },
{ "type": "Feature", "properties": { "AADT": 66139, "raw_name": "Skullerud Hovedkjørefelt", "osm_name": "Enebakkveien", "osm_type": "trunk", "osm_lanes": 2.0, "osm_oneway": "True", "osm_distance": 7.7106011523559728, "osmid": 672999078.0 }, "geometry": { "type": "Point", "coordinates": [ 10.830739, 59.862806 ] } },
{ "type": "Feature", "properties": { "AADT": 2208, "raw_name": "Skullerud pårampe Sydgående", "osm_name": null, "osm_type": "trunk_link", "osm_lanes": null, "osm_oneway": "True", "osm_distance": 1.66970950733926, "osmid": 242364804.0 }, "geometry": { "type": "Point", "coordinates": [ 10.830539, 59.862809 ] } },
{ "type": "Feature", "properties": { "AADT": 2901, "raw_name": "Skullerud Avrampe Nordgående", "osm_name": "Enebakkveien", "osm_type": "trunk", "osm_lanes": 2.0, "osm_oneway": "True", "osm_distance": 8.9363653959460585, "osmid": 132658000.0 }, "geometry": { "type": "Point", "coordinates": [ 10.830928, 59.862816 ] } },
{ "type": "Feature", "properties": { "AADT": 154, "raw_name": "Skullerud sykkel", "osm_name": null, "osm_type": null, "osm_lanes": null, "osm_oneway": null, "osm_distance": null, "osmid": null }, "geometry": { "type": "Point", "coordinates": [ 10.829667, 59.869146 ] } },
{ "type": "Feature", "properties": { "AADT": 15937, "raw_name": "Mosseveien ved Fiskevollen hovedkjørefelt", "osm_name": "Mosseveien", "osm_type": "trunk", "osm_lanes": 3.0, "osm_oneway": "True", "osm_distance": 4.0176063457927604, "osmid": 330697850.0 }, "geometry": { "type": "Point", "coordinates": [ 10.776985, 59.841661 ] } },
{ "type": "Feature", "properties": { "AADT": 2639, "raw_name": "Kongshavn rampe sydgående", "osm_name": "Mosseveien", "osm_type": "trunk_link", "osm_lanes": 2.0, "osm_oneway": "True", "osm_distance": 1.2012224588510971, "osmid": 255703544.0 }, "geometry": { "type": "Point", "coordinates": [ 10.756877, 59.895639 ] } },
{ "type": "Feature", "properties": { "AADT": 20227, "raw_name": "Kongshavn 1,2", "osm_name": "Mosseveien", "osm_type": "trunk", "osm_lanes": 1.0, "osm_oneway": "True", "osm_distance": 4.571550383257855, "osmid": 255703513.0 }, "geometry": { "type": "Point", "coordinates": [ 10.756999, 59.895687 ] } },
{ "type": "Feature", "properties": { "AADT": 1570, "raw_name": "Kongshavn rampe nordgående", "osm_name": "Mosseveien", "osm_type": "trunk_link", "osm_lanes": 2.0, "osm_oneway": "True", "osm_distance": 0.16180498935551815, "osmid": 255703543.0 }, "geometry": { "type": "Point", "coordinates": [ 10.757176, 59.895707 ] } },
{ "type": "Feature", "properties": { "AADT": 8508, "raw_name": "General Ruges vei v/ Bøler", "osm_name": "General Ruges vei", "osm_type": "secondary", "osm_lanes": 2.0, "osm_oneway": null, "osm_distance": 0.15538455817546296, "osmid": 1298281022.0 }, "geometry": { "type": "Point", "coordinates": [ 10.845196, 59.883898 ] } },
{ "type": "Feature", "properties": { "AADT": 1250, "raw_name": "Pårampe fra Sandstuveien", "osm_name": "Europaveien", "osm_type": "trunk", "osm_lanes": 2.0, "osm_oneway": "True", "osm_distance": 5.6962798381216952, "osmid": 672937161.0 }, "geometry": { "type": "Point", "coordinates": [ 10.807295, 59.887795 ] } },
{ "type": "Feature", "properties": { "AADT": 34790, "raw_name": "E6 Sandstuveien Sydgående", "osm_name": "Europaveien", "osm_type": "trunk", "osm_lanes": 3.0, "osm_oneway": "True", "osm_distance": 3.2886435856732521, "osmid": 672937158.0 }, "geometry": { "type": "Point", "coordinates": [ 10.807435, 59.887855 ] } },
{ "type": "Feature", "properties": { "AADT": 3290, "raw_name": "Avrampe til Sandstuveien", "osm_name": null, "osm_type": "trunk_link", "osm_lanes": 1.0, "osm_oneway": "True", "osm_distance": 0.62887481156906155, "osmid": 242364794.0 }, "geometry": { "type": "Point", "coordinates": [ 10.806105, 59.888159 ] } },
{ "type": "Feature", "properties": { "AADT": 10272, "raw_name": "Østensjøveien v/Østensjø skole", "osm_name": "Østensjøveien", "osm_type": "secondary", "osm_lanes": 2.0, "osm_oneway": null, "osm_distance": 0.084954828950466521, "osmid": 83131098.0 }, "geometry": { "type": "Point", "coordinates": [ 10.829181, 59.899302 ] } },
{ "type": "Feature", "properties": { "AADT": 73520, "raw_name": "E6 Manglerud", "osm_name": "Adolf Hedins vei", "osm_type": "trunk", "osm_lanes": 3.0, "osm_oneway": "True", "osm_distance": 4.5389504183291072, "osmid": 141272107.0 }, "geometry": { "type": "Point", "coordinates": [ 10.818018, 59.901192 ] } },
{ "type": "Feature", "properties": { "AADT": 213, "raw_name": "Bryn sykkel", "osm_name": null, "osm_type": null, "osm_lanes": null, "osm_oneway": null, "osm_distance": null, "osmid": null }, "geometry": { "type": "Point", "coordinates": [ 10.81944, 59.90205 ] } },
{ "type": "Feature", "properties": { "AADT": 1488, "raw_name": "E6 Lodalen rampe Sentrum Lodalen", "osm_name": null, "osm_type": "trunk", "osm_lanes": 3.0, "osm_oneway": "True", "osm_distance": 6.8681276035627219, "osmid": 263809611.0 }, "geometry": { "type": "Point", "coordinates": [ 10.782982, 59.902902 ] } },
{ "type": "Feature", "properties": { "AADT": 51279, "raw_name": "E6 Lodalen Helsfyr mot Sentrum", "osm_name": null, "osm_type": "service", "osm_lanes": 1.0, "osm_oneway": null, "osm_distance": 1.5066125994888004, "osmid": 709553862.0 }, "geometry": { "type": "Point", "coordinates": [ 10.782776, 59.902979 ] } },
{ "type": "Feature", "properties": { "AADT": 4671, "raw_name": "E6 Lodalen rampe Helsfyr Lodalen", "osm_name": null, "osm_type": "trunk_link", "osm_lanes": 1.0, "osm_oneway": "True", "osm_distance": 0.1101488220396982, "osmid": 91631207.0 }, "geometry": { "type": "Point", "coordinates": [ 10.782418, 59.903089 ] } },
{ "type": "Feature", "properties": { "AADT": 37807, "raw_name": "Bjørvikatunellen østgående", "osm_name": "Operatunnelen / Bjørvikatunnelen", "osm_type": "trunk", "osm_lanes": 3.0, "osm_oneway": "True", "osm_distance": 0.16113038017783726, "osmid": 204039523.0 }, "geometry": { "type": "Point", "coordinates": [ 10.75313, 59.90551 ] } },
{ "type": "Feature", "properties": { "AADT": 36513, "raw_name": "Bjørvikatunellen vestgående", "osm_name": "Operatunnelen / Bjørvikatunnelen", "osm_type": "trunk", "osm_lanes": 3.0, "osm_oneway": "True", "osm_distance": 0.20912469606138251, "osmid": 204039520.0 }, "geometry": { "type": "Point", "coordinates": [ 10.753222, 59.90562 ] } },
{ "type": "Feature", "properties": { "AADT": 12116, "raw_name": "Kong Håkon 5.s gt. nordgående", "osm_name": "Kong Håkon 5.s gate", "osm_type": "trunk", "osm_lanes": 3.0, "osm_oneway": "True", "osm_distance": 0.15765220225357329, "osmid": 329366809.0 }, "geometry": { "type": "Point", "coordinates": [ 10.761556, 59.905907 ] } },
{ "type": "Feature", "properties": { "AADT": 11898, "raw_name": "Kong Håkon 5.s gt. sydgående", "osm_name": "Kong Håkon 5.s gate", "osm_type": "trunk", "osm_lanes": 3.0, "osm_oneway": "True", "osm_distance": 0.0147206973044308, "osmid": 286291236.0 }, "geometry": { "type": "Point", "coordinates": [ 10.761306, 59.905927 ] } },
{ "type": "Feature", "properties": { "AADT": 5630, "raw_name": "Dr. Eufemias Gt. Østgående Datter", "osm_name": "Dronning Eufemias gate", "osm_type": "trunk", "osm_lanes": 3.0, "osm_oneway": "True", "osm_distance": 0.48110393214705066, "osmid": 329366798.0 }, "geometry": { "type": "Point", "coordinates": [ 10.754458, 59.908574 ] } },
{ "type": "Feature", "properties": { "AADT": 468, "raw_name": "Dr. Eufemias Gt. Sykkel Østgående", "osm_name": "Dronning Eufemias gate", "osm_type": "trunk", "osm_lanes": 3.0, "osm_oneway": "True", "osm_distance": 0.41656557489853274, "osmid": 329366798.0 }, "geometry": { "type": "Point", "coordinates": [ 10.754072, 59.908668 ] } },
{ "type": "Feature", "properties": { "AADT": 555, "raw_name": "Dr. Eufemias gt. Sykkel Vestgående", "osm_name": "Dronning Eufemias gate", "osm_type": "trunk", "osm_lanes": 3.0, "osm_oneway": "True", "osm_distance": 0.38081704337841404, "osmid": 366747828.0 }, "geometry": { "type": "Point", "coordinates": [ 10.754715, 59.90871 ] } },
{ "type": "Feature", "properties": { "AADT": 7185, "raw_name": "Dr. Eufemias Gt. Vestgående Datter", "osm_name": "Dronning Eufemias gate", "osm_type": "trunk", "osm_lanes": 3.0, "osm_oneway": "True", "osm_distance": 0.41559765426183209, "osmid": 366747828.0 }, "geometry": { "type": "Point", "coordinates": [ 10.754618, 59.908734 ] } },
{ "type": "Feature", "properties": { "AADT": 16177, "raw_name": "Østre tangent", "osm_name": "Østre tangent", "osm_type": "trunk", "osm_lanes": 2.0, "osm_oneway": null, "osm_distance": 0.25242881014469681, "osmid": 255790896.0 }, "geometry": { "type": "Point", "coordinates": [ 10.760802, 59.910064 ] } },
{ "type": "Feature", "properties": { "AADT": 1892, "raw_name": "Frognerstranda sykkel 03", "osm_name": null, "osm_type": "trunk", "osm_lanes": 3.0, "osm_oneway": "True", "osm_distance": 11.8669868482532, "osmid": 467248341.0 }, "geometry": { "type": "Point", "coordinates": [ 10.704059, 59.911172 ] } },
{ "type": "Feature", "properties": { "AADT": 7602, "raw_name": "Helsfyr rampe mot Alnabru", "osm_name": "Strømsveien", "osm_type": "trunk", "osm_lanes": 3.0, "osm_oneway": "True", "osm_distance": 2.0680420481697022, "osmid": 60303138.0 }, "geometry": { "type": "Point", "coordinates": [ 10.796609, 59.911676 ] } },
{ "type": "Feature", "properties": { "AADT": 51038, "raw_name": "Helsfyr 1,2,3,4", "osm_name": "Strømsveien", "osm_type": "trunk", "osm_lanes": 4.0, "osm_oneway": "True", "osm_distance": 5.6631752908649879, "osmid": 258824037.0 }, "geometry": { "type": "Point", "coordinates": [ 10.796522, 59.911741 ] } },
{ "type": "Feature", "properties": { "AADT": 8428, "raw_name": "Helsfyr rampe mot sentrum", "osm_name": "Strømsveien", "osm_type": "trunk", "osm_lanes": 4.0, "osm_oneway": "True", "osm_distance": 5.1037241788853152, "osmid": 258824037.0 }, "geometry": { "type": "Point", "coordinates": [ 10.796445, 59.911857 ] } },
{ "type": "Feature", "properties": { "AADT": 66740, "raw_name": "E6 Teisen", "osm_name": "Adolf Hedins vei", "osm_type": "trunk", "osm_lanes": 3.0, "osm_oneway": "True", "osm_distance": 5.3165475774090813, "osmid": 666235574.0 }, "geometry": { "type": "Point", "coordinates": [ 10.814306, 59.915057 ] } },
{ "type": "Feature", "properties": { "AADT": 1711, "raw_name": "E6 Teisen pårampe fra Bryn", "osm_name": "Adolf Hedins vei", "osm_type": "trunk", "osm_lanes": 2.0, "osm_oneway": "True", "osm_distance": 6.0341115862025161, "osmid": 71218142.0 }, "geometry": { "type": "Point", "coordinates": [ 10.814465, 59.915089 ] } },
{ "type": "Feature", "properties": { "AADT": 1508, "raw_name": "Munkedamsveien sykkel", "osm_name": "Operatunnelen", "osm_type": "trunk_link", "osm_lanes": null, "osm_oneway": "True", "osm_distance": 0.11764076890167346, "osmid": 5786369.0 }, "geometry": { "type": "Point", "coordinates": [ 10.725558, 59.911193 ] } },
{ "type": "Feature", "properties": { "AADT": 12779, "raw_name": "Munkedamsveien", "osm_name": "Munkedamsveien", "osm_type": "trunk", "osm_lanes": 3.0, "osm_oneway": null, "osm_distance": 0.24391462012908327, "osmid": 466609373.0 }, "geometry": { "type": "Point", "coordinates": [ 10.725752, 59.911418 ] } },
{ "type": "Feature", "properties": { "AADT": 75490, "raw_name": "E18-FROGNERSTR V/SK", "osm_name": null, "osm_type": "trunk", "osm_lanes": 3.0, "osm_oneway": "True", "osm_distance": 6.5976766729055569, "osmid": 305101154.0 }, "geometry": { "type": "Point", "coordinates": [ 10.698443, 59.914826 ] } },
{ "type": "Feature", "properties": { "AADT": 13106, "raw_name": "Vaterlandstunnelen", "osm_name": null, "osm_type": null, "osm_lanes": null, "osm_oneway": null, "osm_distance": null, "osmid": null }, "geometry": { "type": "Point", "coordinates": [ 10.7493, 59.916004 ] } },
{ "type": "Feature", "properties": { "AADT": 6333, "raw_name": "Finnmarksgata", "osm_name": "Finnmarkgata", "osm_type": "primary", "osm_lanes": 4.0, "osm_oneway": null, "osm_distance": 0.75685190377492928, "osmid": 135234952.0 }, "geometry": { "type": "Point", "coordinates": [ 10.776115, 59.916631 ] } },
{ "type": "Feature", "properties": { "AADT": 12564, "raw_name": "Tvetenveien v/Haugerud", "osm_name": "Tvetenveien", "osm_type": "secondary", "osm_lanes": 2.0, "osm_oneway": null, "osm_distance": 0.66767812823785144, "osmid": 4867742.0 }, "geometry": { "type": "Point", "coordinates": [ 10.8557, 59.922562 ] } },
{ "type": "Feature", "properties": { "AADT": 44879, "raw_name": "Rv. 150 Ulvensplitten", "osm_name": "Ulvensplitten", "osm_type": "trunk_link", "osm_lanes": 1.0, "osm_oneway": "True", "osm_distance": 0.54972944745688312, "osmid": 28307517.0 }, "geometry": { "type": "Point", "coordinates": [ 10.807645, 59.922586 ] } },
{ "type": "Feature", "properties": { "AADT": 17171, "raw_name": "E6 Ulvensplitten rampe Teisen Alnabru", "osm_name": "Ulvensplitten", "osm_type": "trunk_link", "osm_lanes": 1.0, "osm_oneway": "True", "osm_distance": 0.88121212210832012, "osmid": 317265000.0 }, "geometry": { "type": "Point", "coordinates": [ 10.809038, 59.922708 ] } },
{ "type": "Feature", "properties": { "AADT": 26723, "raw_name": "E6 Alnabru nordgående Ulven Furuset", "osm_name": "Ulvensplitten", "osm_type": "motorway", "osm_lanes": 2.0, "osm_oneway": "True", "osm_distance": 0.26780264519345798, "osmid": 194704708.0 }, "geometry": { "type": "Point", "coordinates": [ 10.828958, 59.922795 ] } },
{ "type": "Feature", "properties": { "AADT": 12463, "raw_name": "E6 Ulvensplitten Rampe Økern Alnabru", "osm_name": "Ulvensplitten", "osm_type": "trunk_link", "osm_lanes": 1.0, "osm_oneway": "True", "osm_distance": 0.27834622077981008, "osmid": 28307520.0 }, "geometry": { "type": "Point", "coordinates": [ 10.809022, 59.922799 ] } },
{ "type": "Feature", "properties": { "AADT": 15836, "raw_name": "E6 Ulvensplitten Rampe Alnabru Teisen", "osm_name": "Ulvensplitten", "osm_type": "trunk_link", "osm_lanes": 1.0, "osm_oneway": "True", "osm_distance": 0.40838297185864347, "osmid": 224742780.0 }, "geometry": { "type": "Point", "coordinates": [ 10.809402, 59.922925 ] } },
{ "type": "Feature", "properties": { "AADT": 23714, "raw_name": "E6 Alnabru nordgående Helsfyr Furuset", "osm_name": null, "osm_type": "motorway", "osm_lanes": 3.0, "osm_oneway": "True", "osm_distance": 4.0601717107026642, "osmid": 4394238.0 }, "geometry": { "type": "Point", "coordinates": [ 10.82835, 59.922954 ] } },
{ "type": "Feature", "properties": { "AADT": 11241, "raw_name": "E6 Ulvensplitten Rampe Alnabru Økern", "osm_name": "Ulvensplitten", "osm_type": "trunk_link", "osm_lanes": 1.0, "osm_oneway": "True", "osm_distance": 0.83762309318143147, "osmid": 4649866.0 }, "geometry": { "type": "Point", "coordinates": [ 10.809383, 59.923027 ] } },
{ "type": "Feature", "properties": { "AADT": 252, "raw_name": "Breivoll sykkel", "osm_name": "Breivollveien", "osm_type": "tertiary", "osm_lanes": 2.0, "osm_oneway": null, "osm_distance": 3.8304889752775142, "osmid": 141233043.0 }, "geometry": { "type": "Point", "coordinates": [ 10.831387, 59.923064 ] } },
{ "type": "Feature", "properties": { "AADT": 23448, "raw_name": "E6 Alnabru sydgående Furuset Helsfyr", "osm_name": null, "osm_type": "motorway", "osm_lanes": 3.0, "osm_oneway": "True", "osm_distance": 3.6149241456089833, "osmid": 4394238.0 }, "geometry": { "type": "Point", "coordinates": [ 10.830461, 59.923406 ] } },
{ "type": "Feature", "properties": { "AADT": 24452, "raw_name": "E6 Alnabru Sydgående Furuset Ulven", "osm_name": "Ulvensplitten", "osm_type": "motorway", "osm_lanes": 2.0, "osm_oneway": "True", "osm_distance": 0.27074257253383338, "osmid": 4394240.0 }, "geometry": { "type": "Point", "coordinates": [ 10.830182, 59.923599 ] } },
{ "type": "Feature", "properties": { "AADT": 5579, "raw_name": "Rv 4 Bjerke Sydgående Pårampe", "osm_name": null, "osm_type": "trunk_link", "osm_lanes": 1.0, "osm_oneway": "True", "osm_distance": 0.13538647530590253, "osmid": 4982389.0 }, "geometry": { "type": "Point", "coordinates": [ 10.808771, 59.942788 ] } },
{ "type": "Feature", "properties": { "AADT": 1520, "raw_name": "Rv 4 Bjerke Sydgående Avrampe", "osm_name": "Trondheimsveien", "osm_type": "trunk_link", "osm_lanes": 2.0, "osm_oneway": "True", "osm_distance": 0.96776454138035117, "osmid": 48859701.0 }, "geometry": { "type": "Point", "coordinates": [ 10.81009, 59.94293 ] } },
{ "type": "Feature", "properties": { "AADT": 13008, "raw_name": "Nedre Kalbakkvei", "osm_name": "Nedre Kalbakkvei", "osm_type": "secondary", "osm_lanes": null, "osm_oneway": null, "osm_distance": 0.017477330503087706, "osmid": 410103304.0 }, "geometry": { "type": "Point", "coordinates": [ 10.862771, 59.945301 ] } },
{ "type": "Feature", "properties": { "AADT": 26511, "raw_name": "Rv. 4 Rødtvet", "osm_name": "Trondheimsveien", "osm_type": "trunk", "osm_lanes": 2.0, "osm_oneway": "True", "osm_distance": 3.2476058297583266, "osmid": 228251018.0 }, "geometry": { "type": "Point", "coordinates": [ 10.852639, 59.947857 ] } },
{ "type": "Feature", "properties": { "AADT": 129, "raw_name": "Grorud sykkel", "osm_name": "Maria Dehlis vei", "osm_type": "unclassified", "osm_lanes": null, "osm_oneway": null, "osm_distance": 4.1230233405652479, "osmid": 348774303.0 }, "geometry": { "type": "Point", "coordinates": [ 10.895981, 59.950494 ] } },
{ "type": "Feature", "properties": { "AADT": 5724, "raw_name": "Grorud Rampe mot Haugenstua", "osm_name": "Østre Aker vei", "osm_type": "trunk", "osm_lanes": 3.0, "osm_oneway": "True", "osm_distance": 7.5545454740285525, "osmid": 98820628.0 }, "geometry": { "type": "Point", "coordinates": [ 10.885944, 59.950568 ] } },
{ "type": "Feature", "properties": { "AADT": 22685, "raw_name": "Grorud Stasjon 1,2,3,4", "osm_name": "Østre Aker vei", "osm_type": "trunk", "osm_lanes": 3.0, "osm_oneway": "True", "osm_distance": 4.1772112374522949, "osmid": 98820628.0 }, "geometry": { "type": "Point", "coordinates": [ 10.88577, 59.950602 ] } },
{ "type": "Feature", "properties": { "AADT": 1824, "raw_name": "Grorud rampe mot Økern", "osm_name": null, "osm_type": "trunk_link", "osm_lanes": 1.0, "osm_oneway": "True", "osm_distance": 0.78899958403605286, "osmid": 82634590.0 }, "geometry": { "type": "Point", "coordinates": [ 10.885272, 59.950656 ] } },
{ "type": "Feature", "properties": { "AADT": 10843, "raw_name": "Slemdalsveien", "osm_name": "Slemdalsveien", "osm_type": "secondary", "osm_lanes": 2.0, "osm_oneway": null, "osm_distance": 0.047068846574914822, "osmid": 4262961.0 }, "geometry": { "type": "Point", "coordinates": [ 10.699009, 59.94942 ] } },
{ "type": "Feature", "properties": { "AADT": 23046, "raw_name": "Tåsentunellen Østgående Løp", "osm_name": "Tåsentunnelen", "osm_type": "trunk", "osm_lanes": 2.0, "osm_oneway": "True", "osm_distance": 0.20773064462889632, "osmid": 4341399.0 }, "geometry": { "type": "Point", "coordinates": [ 10.740503, 59.951082 ] } },
{ "type": "Feature", "properties": { "AADT": 22894, "raw_name": "Tåsentunellen Vestgående Løp", "osm_name": "Tåsentunnelen", "osm_type": "trunk", "osm_lanes": 2.0, "osm_oneway": "True", "osm_distance": 0.02535021026120881, "osmid": 311648213.0 }, "geometry": { "type": "Point", "coordinates": [ 10.74056, 59.951217 ] } },
{ "type": "Feature", "properties": { "AADT": 60984, "raw_name": "ST.RINGV V/NYDALSBR", "osm_name": "Rolf Wickstrøms vei", "osm_type": "trunk", "osm_lanes": 2.0, "osm_oneway": "True", "osm_distance": 2.0363569190494584, "osmid": 70287956.0 }, "geometry": { "type": "Point", "coordinates": [ 10.767581, 59.953374 ] } },
{ "type": "Feature", "properties": { "AADT": 25403, "raw_name": "Ammerud", "osm_name": "Trondheimsveien", "osm_type": "trunk", "osm_lanes": 2.0, "osm_oneway": "True", "osm_distance": 2.6231379804818675, "osmid": 196227441.0 }, "geometry": { "type": "Point", "coordinates": [ 10.879109, 59.959309 ] } },
{ "type": "Feature", "properties": { "AADT": 200, "raw_name": "Snarøyveien sykkelsøyle", "osm_name": null, "osm_type": "service", "osm_lanes": null, "osm_oneway": "True", "osm_distance": 13.053059386592221, "osmid": 1104735176.0 }, "geometry": { "type": "Point", "coordinates": [ 10.626046, 59.900393 ] } },
{ "type": "Feature", "properties": { "AADT": 18507, "raw_name": "Snarøyveien", "osm_name": "Snarøyveien", "osm_type": "primary", "osm_lanes": 2.0, "osm_oneway": "True", "osm_distance": 9.3888371807735318, "osmid": 467782354.0 }, "geometry": { "type": "Point", "coordinates": [ 10.625454, 59.900519 ] } },
{ "type": "Feature", "properties": { "AADT": 11200, "raw_name": "Maridalsveien", "osm_name": "Maridalsveien", "osm_type": "secondary", "osm_lanes": 2.0, "osm_oneway": null, "osm_distance": 0.1871900642346325, "osmid": 129061334.0 }, "geometry": { "type": "Point", "coordinates": [ 10.750323, 59.925009 ] } },
{ "type": "Feature", "properties": { "AADT": 15375, "raw_name": "Rv 163 Økerntunnelen", "osm_name": "Økerntunnelen", "osm_type": "trunk", "osm_lanes": 2.0, "osm_oneway": "True", "osm_distance": 1.1340287383322438, "osmid": 163832969.0 }, "geometry": { "type": "Point", "coordinates": [ 10.803454, 59.929281 ] } },
{ "type": "Feature", "properties": { "AADT": 10633, "raw_name": "Økerntunellen mot Grorud Datter", "osm_name": "Økerntunnelen", "osm_type": "trunk", "osm_lanes": 2.0, "osm_oneway": "True", "osm_distance": 0.8669763942028067, "osmid": 163832969.0 }, "geometry": { "type": "Point", "coordinates": [ 10.803578, 59.929288 ] } },
{ "type": "Feature", "properties": { "AADT": 6830, "raw_name": "Økerntunellen mot Sentrum Datter", "osm_name": "Økerntunnelen", "osm_type": "trunk", "osm_lanes": 1.0, "osm_oneway": "True", "osm_distance": 0.19918052851729656, "osmid": 163832980.0 }, "geometry": { "type": "Point", "coordinates": [ 10.803623, 59.929388 ] } },
{ "type": "Feature", "properties": { "AADT": 33566, "raw_name": "Lørentunnelen østgående", "osm_name": "Lørentunnelen", "osm_type": "trunk", "osm_lanes": 3.0, "osm_oneway": "True", "osm_distance": 4.8903900687503477, "osmid": 163831911.0 }, "geometry": { "type": "Point", "coordinates": [ 10.801885, 59.930763 ] } },
{ "type": "Feature", "properties": { "AADT": 6852, "raw_name": "Lørentunell rampe fra Rv163", "osm_name": null, "osm_type": "trunk_link", "osm_lanes": 1.0, "osm_oneway": "True", "osm_distance": 4.8390199528764155, "osmid": 163831906.0 }, "geometry": { "type": "Point", "coordinates": [ 10.802359, 59.930771 ] } },
{ "type": "Feature", "properties": { "AADT": 25031, "raw_name": "Lørentunellen vestgående", "osm_name": "Lørentunnelen", "osm_type": "trunk", "osm_lanes": 2.0, "osm_oneway": "True", "osm_distance": 3.2252018872419184, "osmid": 163831908.0 }, "geometry": { "type": "Point", "coordinates": [ 10.802218, 59.930774 ] } },
{ "type": "Feature", "properties": { "AADT": 24026, "raw_name": "Rv 191 Furuset", "osm_name": "Nedre Kalbakkvei", "osm_type": "trunk", "osm_lanes": 2.0, "osm_oneway": "True", "osm_distance": 4.9075288073629091, "osmid": 4982463.0 }, "geometry": { "type": "Point", "coordinates": [ 10.861644, 59.931428 ] } },
{ "type": "Feature", "properties": { "AADT": 4630, "raw_name": "Rv 163 Brobekk Nordgående Avrampe", "osm_name": null, "osm_type": "trunk_link", "osm_lanes": 2.0, "osm_oneway": "False", "osm_distance": 0.96423841236685415, "osmid": 340000716.0 }, "geometry": { "type": "Point", "coordinates": [ 10.828141, 59.932099 ] } },
{ "type": "Feature", "properties": { "AADT": 3048, "raw_name": "Rv 163 Brobekk Nordgående Pårampe", "osm_name": "Østre Aker vei", "osm_type": "trunk", "osm_lanes": 3.0, "osm_oneway": "True", "osm_distance": 3.0365695725255297, "osmid": 464180687.0 }, "geometry": { "type": "Point", "coordinates": [ 10.82807, 59.932714 ] } },
{ "type": "Feature", "properties": { "AADT": 9032, "raw_name": "Rv 163 Brobekk Nordgående", "osm_name": "Østre Aker vei", "osm_type": "trunk", "osm_lanes": 3.0, "osm_oneway": "True", "osm_distance": 3.4495716738426507, "osmid": 464180688.0 }, "geometry": { "type": "Point", "coordinates": [ 10.828154, 59.932857 ] } },
{ "type": "Feature", "properties": { "AADT": 11717, "raw_name": "Rv 163 Brobekk Sydgående", "osm_name": "Østre Aker vei", "osm_type": "trunk", "osm_lanes": 3.0, "osm_oneway": "True", "osm_distance": 3.3845209608841156, "osmid": 464180688.0 }, "geometry": { "type": "Point", "coordinates": [ 10.828167, 59.932864 ] } },
{ "type": "Feature", "properties": { "AADT": 2567, "raw_name": "Rv 163 Brobekk Sydgående Avrampe", "osm_name": "Østre Aker vei", "osm_type": "trunk", "osm_lanes": 3.0, "osm_oneway": "True", "osm_distance": 3.5927330997976563, "osmid": 464180688.0 }, "geometry": { "type": "Point", "coordinates": [ 10.828039, 59.932918 ] } },
{ "type": "Feature", "properties": { "AADT": 6298, "raw_name": "E6 Furuset nord avrampe", "osm_name": null, "osm_type": "motorway_link", "osm_lanes": 1.0, "osm_oneway": "True", "osm_distance": 2.9544519301645877, "osmid": 4272542.0 }, "geometry": { "type": "Point", "coordinates": [ 10.884341, 59.935651 ] } },
{ "type": "Feature", "properties": { "AADT": 45902, "raw_name": "SMESTAD BRANNSTASJON", "osm_name": "Ullernchausséen", "osm_type": "trunk", "osm_lanes": 2.0, "osm_oneway": "True", "osm_distance": 2.7767997572524026, "osmid": 70315650.0 }, "geometry": { "type": "Point", "coordinates": [ 10.673026, 59.933685 ] } },
{ "type": "Feature", "properties": { "AADT": 4067, "raw_name": "Rv 163 Brobekk Sydgående Pårampe", "osm_name": null, "osm_type": "trunk_link", "osm_lanes": 2.0, "osm_oneway": "False", "osm_distance": 2.890704579314141, "osmid": 184464851.0 }, "geometry": { "type": "Point", "coordinates": [ 10.82696, 59.933058 ] } },
{ "type": "Feature", "properties": { "AADT": 19250, "raw_name": "Nedre Kalbakkvei ved gravlund", "osm_name": "Nedre Kalbakkvei", "osm_type": "trunk", "osm_lanes": 2.0, "osm_oneway": "True", "osm_distance": 7.5716637678050409, "osmid": 532711333.0 }, "geometry": { "type": "Point", "coordinates": [ 10.859619, 59.934121 ] } },
{ "type": "Feature", "properties": { "AADT": 43249, "raw_name": "E6 Furuset nordgående hovedfelt", "osm_name": null, "osm_type": "motorway", "osm_lanes": 4.0, "osm_oneway": "True", "osm_distance": 6.0125507240164353, "osmid": 400810229.0 }, "geometry": { "type": "Point", "coordinates": [ 10.884201, 59.935806 ] } },
{ "type": "Feature", "properties": { "AADT": 4442, "raw_name": "Rv 191 Alfasetveien", "osm_name": "Alfasetveien", "osm_type": "unclassified", "osm_lanes": 2.0, "osm_oneway": null, "osm_distance": 0.247164912504966, "osmid": 26416841.0 }, "geometry": { "type": "Point", "coordinates": [ 10.857548, 59.936066 ] } },
{ "type": "Feature", "properties": { "AADT": 722, "raw_name": "Aker sykehus sykkel", "osm_name": "Fagerliveien", "osm_type": "residential", "osm_lanes": null, "osm_oneway": null, "osm_distance": 14.050822513080661, "osmid": 4982971.0 }, "geometry": { "type": "Point", "coordinates": [ 10.791714, 59.940059 ] } },
{ "type": "Feature", "properties": { "AADT": 44374, "raw_name": "E6 Furuset sydgående hovedfelt", "osm_name": null, "osm_type": "motorway", "osm_lanes": 3.0, "osm_oneway": "True", "osm_distance": 4.9791889115107129, "osmid": 205949881.0 }, "geometry": { "type": "Point", "coordinates": [ 10.88975, 59.937218 ] } },
{ "type": "Feature", "properties": { "AADT": 6138, "raw_name": "E6 Furuset sydgående pårampe", "osm_name": null, "osm_type": "motorway_link", "osm_lanes": 1.0, "osm_oneway": "True", "osm_distance": 0.08194088106068792, "osmid": 347971503.0 }, "geometry": { "type": "Point", "coordinates": [ 10.889292, 59.937635 ] } },
{ "type": "Feature", "properties": { "AADT": 24327, "raw_name": "Karihaugen rampe mot Skårer", "osm_name": "Strømsveien", "osm_type": "motorway", "osm_lanes": 2.0, "osm_oneway": "True", "osm_distance": 0.050346666274135976, "osmid": 435547705.0 }, "geometry": { "type": "Point", "coordinates": [ 10.926731, 59.939205 ] } },
{ "type": "Feature", "properties": { "AADT": 16215, "raw_name": "Nedre Kaldbakkvei V/ Østre Akersvei", "osm_name": "Nedre Kalbakkvei", "osm_type": "trunk", "osm_lanes": null, "osm_oneway": "False", "osm_distance": 0.098637122682159531, "osmid": 52026503.0 }, "geometry": { "type": "Point", "coordinates": [ 10.858267, 59.940581 ] } },
{ "type": "Feature", "properties": { "AADT": 9959, "raw_name": "Rampe til Sinsen", "osm_name": "Storoveien", "osm_type": "trunk", "osm_lanes": 3.0, "osm_oneway": "True", "osm_distance": 5.1213115534404192, "osmid": 70287959.0 }, "geometry": { "type": "Point", "coordinates": [ 10.781196, 59.941341 ] } },
{ "type": "Feature", "properties": { "AADT": 50956, "raw_name": "Hovedkjørefelt Rv150 Grefsen", "osm_name": "Storoveien", "osm_type": "trunk", "osm_lanes": 3.0, "osm_oneway": "True", "osm_distance": 9.9041708017459005, "osmid": 311606467.0 }, "geometry": { "type": "Point", "coordinates": [ 10.78136, 59.941347 ] } },
{ "type": "Feature", "properties": { "AADT": 5530, "raw_name": "Rampe til Storo", "osm_name": "Storoveien", "osm_type": "trunk", "osm_lanes": 3.0, "osm_oneway": "True", "osm_distance": 5.0435637104101163, "osmid": 311606467.0 }, "geometry": { "type": "Point", "coordinates": [ 10.781504, 59.941377 ] } },
{ "type": "Feature", "properties": { "AADT": 5591, "raw_name": "Rv 4 Bjerke Nordgående Avrampe", "osm_name": null, "osm_type": "trunk_link", "osm_lanes": 1.0, "osm_oneway": "True", "osm_distance": 0.11191548380844782, "osmid": 50171944.0 }, "geometry": { "type": "Point", "coordinates": [ 10.808963, 59.94232 ] } },
{ "type": "Feature", "properties": { "AADT": 1602, "raw_name": "Rv 4 Bjerke Nordgående Pårampe", "osm_name": null, "osm_type": "trunk_link", "osm_lanes": 1.0, "osm_oneway": "True", "osm_distance": 0.0023689927030729734, "osmid": 26493611.0 }, "geometry": { "type": "Point", "coordinates": [ 10.810458, 59.942538 ] } },
{ "type": "Feature", "properties": { "AADT": 11755, "raw_name": "Rv 4 Bjerke sydgående", "osm_name": "Trondheimsveien", "osm_type": "trunk", "osm_lanes": 2.0, "osm_oneway": "True", "osm_distance": 2.7350461065469167, "osmid": 102200838.0 }, "geometry": { "type": "Point", "coordinates": [ 10.809335, 59.942606 ] } },
{ "type": "Feature", "properties": { "AADT": 12037, "raw_name": "Rv 4 Bjerke Nordgående ", "osm_name": "Trondheimsveien", "osm_type": "trunk", "osm_lanes": 2.0, "osm_oneway": "True", "osm_distance": 2.7359585260729697, "osmid": 102200838.0 }, "geometry": { "type": "Point", "coordinates": [ 10.809352, 59.942608 ] } },
{ "type": "Feature", "properties": { "AADT": 357, "raw_name": "Smestad sykkel", "osm_name": "Smestadtunnelen", "osm_type": "trunk", "osm_lanes": 2.0, "osm_oneway": "True", "osm_distance": 4.0295938983069508, "osmid": 5015723.0 }, "geometry": { "type": "Point", "coordinates": [ 10.687207, 59.938754 ] } },
{ "type": "Feature", "properties": { "AADT": 947, "raw_name": "Gaustad sykkel", "osm_name": null, "osm_type": "trunk_link", "osm_lanes": null, "osm_oneway": "True", "osm_distance": 6.4881024336963113, "osmid": 4262909.0 }, "geometry": { "type": "Point", "coordinates": [ 10.713207, 59.945788 ] } },
{ "type": "Feature", "properties": { "AADT": 6706, "raw_name": "Gaustad rampe mot Ullevål", "osm_name": null, "osm_type": "trunk_link", "osm_lanes": null, "osm_oneway": "True", "osm_distance": 0.49758535894655159, "osmid": 4262909.0 }, "geometry": { "type": "Point", "coordinates": [ 10.712904, 59.945911 ] } },
{ "type": "Feature", "properties": { "AADT": 45557, "raw_name": "Gaustad 1,2,3,4,5", "osm_name": "Viggo Hansteens vei", "osm_type": "trunk", "osm_lanes": 2.0, "osm_oneway": "True", "osm_distance": 2.8867358420051299, "osmid": 34747849.0 }, "geometry": { "type": "Point", "coordinates": [ 10.713019, 59.946013 ] } },
{ "type": "Feature", "properties": { "AADT": 6676, "raw_name": "Gaustad rampe fra Ullevål", "osm_name": null, "osm_type": "trunk_link", "osm_lanes": 1.0, "osm_oneway": "True", "osm_distance": 0.63524209373311902, "osmid": 4262910.0 }, "geometry": { "type": "Point", "coordinates": [ 10.713135, 59.946207 ] } },
{ "type": "Feature", "properties": { "AADT": 8568, "raw_name": "Holmenkollveien", "osm_name": "Holmenkollveien", "osm_type": "secondary", "osm_lanes": 2.0, "osm_oneway": null, "osm_distance": 1.313220855345467, "osmid": 372863132.0 }, "geometry": { "type": "Point", "coordinates": [ 10.676231, 59.948892 ] } },
{ "type": "Feature", "properties": { "AADT": 25044, "raw_name": "Karihaugen rampe mot Furuset", "osm_name": "Strømsveien", "osm_type": "motorway", "osm_lanes": 3.0, "osm_oneway": "True", "osm_distance": 0.082110671133971483, "osmid": 363245223.0 }, "geometry": { "type": "Point", "coordinates": [ 10.925961, 59.939972 ] } },
{ "type": "Feature", "properties": { "AADT": 48076, "raw_name": "E6 v/Karihaugen", "osm_name": null, "osm_type": "motorway", "osm_lanes": 3.0, "osm_oneway": "True", "osm_distance": 4.9004081471089567, "osmid": 4319414.0 }, "geometry": { "type": "Point", "coordinates": [ 10.933963, 59.940023 ] } },
{ "type": "Feature", "properties": { "AADT": 89302, "raw_name": "STARTOUR", "osm_name": "Drammensveien", "osm_type": "trunk", "osm_lanes": 3.0, "osm_oneway": "True", "osm_distance": 0.0098178152024237172, "osmid": 1119614361.0 }, "geometry": { "type": "Point", "coordinates": [ 10.605545, 59.904733 ] } },
{ "type": "Feature", "properties": { "AADT": 23318, "raw_name": "Fornebuveien", "osm_name": "Snarøyveien", "osm_type": "primary", "osm_lanes": 2.0, "osm_oneway": "True", "osm_distance": 11.143676642961434, "osmid": 313965526.0 }, "geometry": { "type": "Point", "coordinates": [ 10.629208, 59.90513 ] } },
{ "type": "Feature", "properties": { "AADT": 88066, "raw_name": "LYSAKER VEST", "osm_name": "Drammensveien", "osm_type": "trunk", "osm_lanes": 3.0, "osm_oneway": "True", "osm_distance": 5.2810240516024365, "osmid": 1071762873.0 }, "geometry": { "type": "Point", "coordinates": [ 10.618658, 59.907548 ] } },
{ "type": "Feature", "properties": { "AADT": 6138, "raw_name": "Gamle Drammensvei", "osm_name": "Gamle Drammensvei", "osm_type": "secondary", "osm_lanes": 2.0, "osm_oneway": null, "osm_distance": 0.13005011811869427, "osmid": 315957525.0 }, "geometry": { "type": "Point", "coordinates": [ 10.617132, 59.90925 ] } },
{ "type": "Feature", "properties": { "AADT": 8590, "raw_name": "Stabekk seniorsenter", "osm_name": "Gamle Ringeriksvei", "osm_type": "secondary", "osm_lanes": null, "osm_oneway": null, "osm_distance": 0.14391626318219822, "osmid": 26739520.0 }, "geometry": { "type": "Point", "coordinates": [ 10.599737, 59.910851 ] } },
{ "type": "Feature", "properties": { "AADT": 277, "raw_name": "Lysakerlokket kollektivfelt", "osm_name": "Drammensveien", "osm_type": "trunk", "osm_lanes": 2.0, "osm_oneway": "True", "osm_distance": 2.8706851611023336, "osmid": 478475139.0 }, "geometry": { "type": "Point", "coordinates": [ 10.633036, 59.911744 ] } },
{ "type": "Feature", "properties": { "AADT": 5215, "raw_name": "Lysakerlokket rampe", "osm_name": "Drammensveien", "osm_type": "trunk", "osm_lanes": 3.0, "osm_oneway": "True", "osm_distance": 7.4345688766368392, "osmid": 314477023.0 }, "geometry": { "type": "Point", "coordinates": [ 10.633233, 59.9118 ] } },
{ "type": "Feature", "properties": { "AADT": 60543, "raw_name": "Lysakerlokket", "osm_name": "Lysakerlokket", "osm_type": "trunk", "osm_lanes": 4.0, "osm_oneway": "True", "osm_distance": 4.8761832722495244, "osmid": 150926408.0 }, "geometry": { "type": "Point", "coordinates": [ 10.633088, 59.911891 ] } },
{ "type": "Feature", "properties": { "AADT": 5845, "raw_name": "LYSAKERLOKKET RAMPE", "osm_name": "Drammensveien", "osm_type": "trunk", "osm_lanes": 4.0, "osm_oneway": "True", "osm_distance": 3.2822448488272702, "osmid": 150926406.0 }, "geometry": { "type": "Point", "coordinates": [ 10.632959, 59.911971 ] } },
{ "type": "Feature", "properties": { "AADT": 2363, "raw_name": "Strandveien", "osm_name": "Strandveien", "osm_type": "secondary", "osm_lanes": null, "osm_oneway": null, "osm_distance": 0.33029784489766245, "osmid": 150973215.0 }, "geometry": { "type": "Point", "coordinates": [ 10.641011, 59.912938 ] } },
{ "type": "Feature", "properties": { "AADT": 1010, "raw_name": "Lysaker sykkel", "osm_name": "Frantzebråtveien", "osm_type": "tertiary", "osm_lanes": 2.0, "osm_oneway": null, "osm_distance": 15.112017538547837, "osmid": 1314433479.0 }, "geometry": { "type": "Point", "coordinates": [ 10.641612, 59.913211 ] } },
{ "type": "Feature", "properties": { "AADT": 7380, "raw_name": "Lysaker (Lilleaker)", "osm_name": "Strandveien", "osm_type": "secondary", "osm_lanes": null, "osm_oneway": null, "osm_distance": 0.64348271489903586, "osmid": 150973241.0 }, "geometry": { "type": "Point", "coordinates": [ 10.639871, 59.913752 ] } },
{ "type": "Feature", "properties": { "AADT": 15027, "raw_name": "Granfosstunnelen mot Lysaker", "osm_name": "Granfosstunnelen", "osm_type": "trunk", "osm_lanes": 2.0, "osm_oneway": "True", "osm_distance": 0.87057196577571583, "osmid": 466609385.0 }, "geometry": { "type": "Point", "coordinates": [ 10.62897, 59.913867 ] } },
{ "type": "Feature", "properties": { "AADT": 14537, "raw_name": "Granfosstunnelen mot Oslo", "osm_name": "Granfosstunnelen", "osm_type": "trunk", "osm_lanes": 2.0, "osm_oneway": "True", "osm_distance": 0.06509272989171333, "osmid": 13795996.0 }, "geometry": { "type": "Point", "coordinates": [ 10.629457, 59.913962 ] } },
{ "type": "Feature", "properties": { "AADT": 2929, "raw_name": "STORENGVEIEN FARTST", "osm_name": "Storengveien", "osm_type": "secondary", "osm_lanes": null, "osm_oneway": null, "osm_distance": 0.24907040986142071, "osmid": 5034247.0 }, "geometry": { "type": "Point", "coordinates": [ 10.619766, 59.918345 ] } },
{ "type": "Feature", "properties": { "AADT": 81233, "raw_name": "MARITIM-510B", "osm_name": null, "osm_type": "trunk", "osm_lanes": 4.0, "osm_oneway": "True", "osm_distance": 3.571287986804073, "osmid": 110458341.0 }, "geometry": { "type": "Point", "coordinates": [ 10.666507, 59.918562 ] } },
{ "type": "Feature", "properties": { "AADT": 1953, "raw_name": "Granfoss rampe øst 2", "osm_name": null, "osm_type": "trunk_link", "osm_lanes": 1.0, "osm_oneway": "True", "osm_distance": 2.1641755774390417, "osmid": 151306726.0 }, "geometry": { "type": "Point", "coordinates": [ 10.634152, 59.919282 ] } },
{ "type": "Feature", "properties": { "AADT": 1842, "raw_name": "Granfoss rampe øst 1", "osm_name": null, "osm_type": "trunk_link", "osm_lanes": 2.0, "osm_oneway": "True", "osm_distance": 1.2692436194414429, "osmid": 151306603.0 }, "geometry": { "type": "Point", "coordinates": [ 10.633984, 59.919288 ] } },
{ "type": "Feature", "properties": { "AADT": 1943, "raw_name": "Granfoss rampe vest 2", "osm_name": null, "osm_type": "trunk_link", "osm_lanes": 1.0, "osm_oneway": "True", "osm_distance": 0.91767433577967872, "osmid": 966402712.0 }, "geometry": { "type": "Point", "coordinates": [ 10.631222, 59.91967 ] } },
{ "type": "Feature", "properties": { "AADT": 1729, "raw_name": "Granfoss rampe vest 1", "osm_name": null, "osm_type": "trunk_link", "osm_lanes": 1.0, "osm_oneway": "True", "osm_distance": 0.2898087299293261, "osmid": 498925555.0 }, "geometry": { "type": "Point", "coordinates": [ 10.631368, 59.919676 ] } },
{ "type": "Feature", "properties": { "AADT": 8997, "raw_name": "Bærum Ringstadbekk", "osm_name": "Bærumsveien", "osm_type": "primary", "osm_lanes": null, "osm_oneway": null, "osm_distance": 0.41684944162967513, "osmid": 110152633.0 }, "geometry": { "type": "Point", "coordinates": [ 10.596108, 59.920042 ] } },
{ "type": "Feature", "properties": { "AADT": 22695, "raw_name": "Vækerøveien v/Ullernchaussen ", "osm_name": "Vækerøveien", "osm_type": "primary", "osm_lanes": 2.0, "osm_oneway": "True", "osm_distance": 3.6971301530613832, "osmid": 1340821884.0 }, "geometry": { "type": "Point", "coordinates": [ 10.641031, 59.925897 ] } },
{ "type": "Feature", "properties": { "AADT": 10698, "raw_name": "Oslo grense", "osm_name": "Bærumsveien", "osm_type": "primary", "osm_lanes": null, "osm_oneway": null, "osm_distance": 0.088652623015037998, "osmid": 1059461053.0 }, "geometry": { "type": "Point", "coordinates": [ 10.622418, 59.926885 ] } },
{ "type": "Feature", "properties": { "AADT": 1686, "raw_name": "Avrampe mot Ullern", "osm_name": "Ullernchausséen", "osm_type": "trunk", "osm_lanes": 3.0, "osm_oneway": "True", "osm_distance": 5.4747376245258117, "osmid": 70315645.0 }, "geometry": { "type": "Point", "coordinates": [ 10.656931, 59.928132 ] } },
{ "type": "Feature", "properties": { "AADT": 40088, "raw_name": "RV 150 ULLERN", "osm_name": "Ullernchausséen", "osm_type": "trunk", "osm_lanes": 3.0, "osm_oneway": "True", "osm_distance": 2.6161643367634668, "osmid": 312668034.0 }, "geometry": { "type": "Point", "coordinates": [ 10.656882, 59.928224 ] } },
{ "type": "Feature", "properties": { "AADT": 207, "raw_name": "Pårampe fra Montebello", "osm_name": "Ullernchausséen", "osm_type": "trunk", "osm_lanes": 2.0, "osm_oneway": "True", "osm_distance": 2.6972899609700032, "osmid": 473440894.0 }, "geometry": { "type": "Point", "coordinates": [ 10.656781, 59.928274 ] } },
{ "type": "Feature", "properties": { "AADT": 3907, "raw_name": "Vollsveien", "osm_name": "Vollsveien", "osm_type": "secondary", "osm_lanes": 2.0, "osm_oneway": null, "osm_distance": 0.58367128904164423, "osmid": 150531052.0 }, "geometry": { "type": "Point", "coordinates": [ 10.626438, 59.940893 ] } },
{ "type": "Feature", "properties": { "AADT": 74, "raw_name": "Lysakerelva sykkel", "osm_name": "Griniveien", "osm_type": "primary", "osm_lanes": null, "osm_oneway": null, "osm_distance": 3.8144092479177125, "osmid": 1104723177.0 }, "geometry": { "type": "Point", "coordinates": [ 10.633014, 59.95259 ] } },
{ "type": "Feature", "properties": { "AADT": 10941, "raw_name": "Lysakerelva", "osm_name": "Lysakerelva bru", "osm_type": "primary", "osm_lanes": null, "osm_oneway": null, "osm_distance": 0.036012761803190373, "osmid": 251397006.0 }, "geometry": { "type": "Point", "coordinates": [ 10.6338, 59.952675 ] } }
]
}
