{
"type": "FeatureCollection",
"name": "Oslo_AADT_2019",
"crs": { "type": "name", "properties": { "name": "urn:ogc:def:crs:OGC:1.3:CRS84" } },
"features": [
{ "type": "Feature", "properties": { "AADT": 4056, "raw_name": "Kobbervikdalen", "osm_name": "Holmestrandsveien", "osm_type": "primary", "osm_lanes": null, "osm_oneway": "False", "osm_distance": 0.6088999208243363, "osm_maxspeed": 60.0, "osmid": 356855535.0 }, "geometry": { "type": "Point", "coordinates": [ 10.234433, 59.715053 ] } },
{ "type": "Feature", "properties": { "AADT": 11673, "raw_name": "Elgskauåstunnelen", "osm_name": "Elgskauåstunnelen", "osm_type": "trunk", "osm_lanes": null, "osm_oneway": null, "osm_distance": 0.132649837992974, "osm_maxspeed": 80.0, "osmid": 5361821.0 }, "geometry": { "type": "Point", "coordinates": [ 10.446323, 59.722724 ] } },
{ "type": "Feature", "properties": { "AADT": 12028, "raw_name": "Bjørnstad nord", "osm_name": "Slemmestadveien", "osm_type": "primary", "osm_lanes": null, "osm_oneway": null, "osm_distance": 0.025117556492863985, "osm_maxspeed": 70.0, "osmid": 447933114.0 }, "geometry": { "type": "Point", "coordinates": [ 10.435636, 59.746323 ] } },
{ "type": "Feature", "properties": { "AADT": 35444, "raw_name": "E6 NYE MOSS NORD", "osm_name": null, "osm_type": "motorway", "osm_lanes": 2.0, "osm_oneway": "True", "osm_distance": 11.129857043088062, "osm_maxspeed": 110.0, "osmid": 381641512.0 }, "geometry": { "type": "Point", "coordinates": [ 10.719651, 59.506168 ] } },
{ "type": "Feature", "properties": { "AADT": 4530, "raw_name": "Elvestad sør", "osm_name": "Elvestadveien", "osm_type": "primary", "osm_lanes": null, "osm_oneway": null, "osm_distance": 0.00068172158803991856, "osm_maxspeed": 80.0, "osmid": 890560025.0 }, "geometry": { "type": "Point", "coordinates": [ 10.888474, 59.591853 ] } },
{ "type": "Feature", "properties": { "AADT": 14945, "raw_name": "Jaren", "osm_name": "Holt bru", "osm_type": "motorway", "osm_lanes": 2.0, "osm_oneway": "True", "osm_distance": 4.7658389099141001, "osm_maxspeed": 100.0, "osmid": 262453694.0 }, "geometry": { "type": "Point", "coordinates": [ 10.996937, 59.622343 ] } },
{ "type": "Feature", "properties": { "AADT": 7969, "raw_name": "Sonsveien", "osm_name": "Sonsveien", "osm_type": "primary", "osm_lanes": null, "osm_oneway": null, "osm_distance": 0.24340385966594286, "osm_maxspeed": 60.0, "osmid": 772759782.0 }, "geometry": { "type": "Point", "coordinates": [ 10.714644, 59.518618 ] } },
{ "type": "Feature", "properties": { "AADT": 18106, "raw_name": "Follotunnelen sørgående", "osm_name": null, "osm_type": "motorway", "osm_lanes": 2.0, "osm_oneway": "True", "osm_distance": 0.38510439625846205, "osm_maxspeed": 110.0, "osmid": 119098823.0 }, "geometry": { "type": "Point", "coordinates": [ 10.727727, 59.535969 ] } },
{ "type": "Feature", "properties": { "AADT": 18353, "raw_name": "Follotunnelen nordgående", "osm_name": null, "osm_type": "motorway", "osm_lanes": 2.0, "osm_oneway": "True", "osm_distance": 0.16136297021521806, "osm_maxspeed": 110.0, "osmid": 10411967.0 }, "geometry": { "type": "Point", "coordinates": [ 10.728025, 59.535994 ] } },
{ "type": "Feature", "properties": { "AADT": 5167, "raw_name": "Hølen", "osm_name": "Brandstad bru", "osm_type": "secondary", "osm_lanes": null, "osm_oneway": null, "osm_distance": 0.22493152692811488, "osm_maxspeed": 80.0, "osmid": 191466488.0 }, "geometry": { "type": "Point", "coordinates": [ 10.749901, 59.538583 ] } },
{ "type": "Feature", "properties": { "AADT": 6986, "raw_name": "Vestby kirke", "osm_name": "Kirkeveien", "osm_type": "secondary", "osm_lanes": null, "osm_oneway": null, "osm_distance": 0.012495068995070071, "osm_maxspeed": 50.0, "osmid": 20190255.0 }, "geometry": { "type": "Point", "coordinates": [ 10.734114, 59.602311 ] } },
{ "type": "Feature", "properties": { "AADT": 10880, "raw_name": "Fv 6 Vestby storsenter", "osm_name": "Kirkeveien", "osm_type": "secondary", "osm_lanes": 2.0, "osm_oneway": "True", "osm_distance": 3.0666011817947818, "osm_maxspeed": 50.0, "osmid": 303217426.0 }, "geometry": { "type": "Point", "coordinates": [ 10.742795, 59.602619 ] } },
{ "type": "Feature", "properties": { "AADT": 109, "raw_name": "Holoveien", "osm_name": "Holoveien", "osm_type": "secondary", "osm_lanes": null, "osm_oneway": null, "osm_distance": 0.070940464687311217, "osm_maxspeed": 80.0, "osmid": 890041304.0 }, "geometry": { "type": "Point", "coordinates": [ 10.866737, 59.547629 ] } },
{ "type": "Feature", "properties": { "AADT": 205, "raw_name": "Åsgård kulturskole", "osm_name": "Rådhusplassen", "osm_type": "tertiary", "osm_lanes": null, "osm_oneway": null, "osm_distance": 7.3356210476832278, "osm_maxspeed": 30.0, "osmid": 22995409.0 }, "geometry": { "type": "Point", "coordinates": [ 10.788644, 59.664183 ] } },
{ "type": "Feature", "properties": { "AADT": 487, "raw_name": "Ås kvartal", "osm_name": "Rådhusplassen", "osm_type": "tertiary", "osm_lanes": null, "osm_oneway": null, "osm_distance": 5.5025101084654802, "osm_maxspeed": 30.0, "osmid": 22995409.0 }, "geometry": { "type": "Point", "coordinates": [ 10.788545, 59.664214 ] } },
{ "type": "Feature", "properties": { "AADT": 10414, "raw_name": "Ås sentrum", "osm_name": "Drøbakveien", "osm_type": "primary", "osm_lanes": null, "osm_oneway": "True", "osm_distance": 0.046719708753369178, "osm_maxspeed": 40.0, "osmid": 203751938.0 }, "geometry": { "type": "Point", "coordinates": [ 10.800474, 59.665831 ] } },
{ "type": "Feature", "properties": { "AADT": 8734, "raw_name": "Holstadveien (Ås)", "osm_name": "Holstadveien", "osm_type": "primary", "osm_lanes": 2.0, "osm_oneway": null, "osm_distance": 0.23706482169336673, "osm_maxspeed": 60.0, "osmid": 250557041.0 }, "geometry": { "type": "Point", "coordinates": [ 10.813044, 59.683791 ] } },
{ "type": "Feature", "properties": { "AADT": 13076, "raw_name": "HOLSTAD KLIMA", "osm_name": "Askimveien", "osm_type": "trunk", "osm_lanes": null, "osm_oneway": null, "osm_distance": 0.0039203794143659798, "osm_maxspeed": 80.0, "osmid": 872221321.0 }, "geometry": { "type": "Point", "coordinates": [ 10.830197, 59.685042 ] } },
{ "type": "Feature", "properties": { "AADT": 41510, "raw_name": "Vestby syd ny", "osm_name": null, "osm_type": "motorway", "osm_lanes": 3.0, "osm_oneway": "True", "osm_distance": 11.191188790442999, "osm_maxspeed": 110.0, "osmid": 871944888.0 }, "geometry": { "type": "Point", "coordinates": [ 10.735925, 59.606039 ] } },
{ "type": "Feature", "properties": { "AADT": 7293, "raw_name": "Vestby (Verpet)", "osm_name": "Vestbyveien", "osm_type": "secondary", "osm_lanes": null, "osm_oneway": null, "osm_distance": 0.093570589660385159, "osm_maxspeed": 60.0, "osmid": 303337129.0 }, "geometry": { "type": "Point", "coordinates": [ 10.737166, 59.624665 ] } },
{ "type": "Feature", "properties": { "AADT": 6023, "raw_name": "Korsegården vest", "osm_name": "Drøbakveien", "osm_type": "primary", "osm_lanes": null, "osm_oneway": null, "osm_distance": 0.0036573331135312079, "osm_maxspeed": 70.0, "osmid": 154342282.0 }, "geometry": { "type": "Point", "coordinates": [ 10.736734, 59.660925 ] } },
{ "type": "Feature", "properties": { "AADT": 11290, "raw_name": "Ås (Vollebekk)", "osm_name": "Drøbakveien", "osm_type": "primary", "osm_lanes": 2.0, "osm_oneway": null, "osm_distance": 0.029310312165280843, "osm_maxspeed": 50.0, "osmid": 83131105.0 }, "geometry": { "type": "Point", "coordinates": [ 10.758513, 59.664585 ] } },
{ "type": "Feature", "properties": { "AADT": 203, "raw_name": "Ås NLH Vollebekk sykkel", "osm_name": "Drøbakveien", "osm_type": "primary", "osm_lanes": 2.0, "osm_oneway": null, "osm_distance": 9.4177232492776835, "osm_maxspeed": 50.0, "osmid": 83131105.0 }, "geometry": { "type": "Point", "coordinates": [ 10.758792, 59.664729 ] } },
{ "type": "Feature", "properties": { "AADT": 41111, "raw_name": "Årungen", "osm_name": null, "osm_type": "motorway", "osm_lanes": 2.0, "osm_oneway": "True", "osm_distance": 9.4098485164900083, "osm_maxspeed": 100.0, "osmid": 58201250.0 }, "geometry": { "type": "Point", "coordinates": [ 10.737092, 59.686111 ] } },
{ "type": "Feature", "properties": { "AADT": 20286, "raw_name": "Smihagen enveg med", "osm_name": null, "osm_type": "motorway", "osm_lanes": 2.0, "osm_oneway": "True", "osm_distance": 1.7541789849423723, "osm_maxspeed": 90.0, "osmid": 132701641.0 }, "geometry": { "type": "Point", "coordinates": [ 10.737759, 59.703303 ] } },
{ "type": "Feature", "properties": { "AADT": 19708, "raw_name": "Smihagen enveg mot", "osm_name": "Smiehagen tunnel", "osm_type": "motorway", "osm_lanes": 2.0, "osm_oneway": "True", "osm_distance": 0.80918190817212543, "osm_maxspeed": 90.0, "osmid": 4333010.0 }, "geometry": { "type": "Point", "coordinates": [ 10.737141, 59.703322 ] } },
{ "type": "Feature", "properties": { "AADT": 13914, "raw_name": "Frogntunnelen", "osm_name": "Frogntunnelen", "osm_type": "trunk", "osm_lanes": 2.0, "osm_oneway": null, "osm_distance": 0.032578953628887963, "osm_maxspeed": 80.0, "osmid": 5384013.0 }, "geometry": { "type": "Point", "coordinates": [ 10.686021, 59.708242 ] } },
{ "type": "Feature", "properties": { "AADT": 3503, "raw_name": "Skyssjordet", "osm_name": "Kongeveien", "osm_type": "secondary", "osm_lanes": null, "osm_oneway": null, "osm_distance": 0.020362115380529584, "osm_maxspeed": 60.0, "osmid": 24600431.0 }, "geometry": { "type": "Point", "coordinates": [ 10.77213, 59.709796 ] } },
{ "type": "Feature", "properties": { "AADT": 6379, "raw_name": "Holstad nordre", "osm_name": "Åsveien", "osm_type": "primary", "osm_lanes": 2.0, "osm_oneway": null, "osm_distance": 0.21891451464904002, "osm_maxspeed": 70.0, "osmid": 872221324.0 }, "geometry": { "type": "Point", "coordinates": [ 10.829138, 59.694729 ] } },
{ "type": "Feature", "properties": { "AADT": 2177, "raw_name": "Løkenveien", "osm_name": "Løkenveien", "osm_type": "secondary", "osm_lanes": null, "osm_oneway": null, "osm_distance": 0.11870497929160916, "osm_maxspeed": 80.0, "osmid": 178653776.0 }, "geometry": { "type": "Point", "coordinates": [ 10.874993, 59.704905 ] } },
{ "type": "Feature", "properties": { "AADT": 7194, "raw_name": "Bamsebu", "osm_name": "Nordbyveien", "osm_type": "secondary", "osm_lanes": 4.0, "osm_oneway": null, "osm_distance": 0.064033021761797815, "osm_maxspeed": 40.0, "osmid": 467492230.0 }, "geometry": { "type": "Point", "coordinates": [ 10.803412, 59.7196 ] } },
{ "type": "Feature", "properties": { "AADT": 16777, "raw_name": "Nygårdskrysset xf", "osm_name": "Søndre Tverrvei", "osm_type": "primary", "osm_lanes": null, "osm_oneway": null, "osm_distance": 0.050162033415886528, "osm_maxspeed": 80.0, "osmid": 4933706.0 }, "geometry": { "type": "Point", "coordinates": [ 10.790287, 59.723704 ] } },
{ "type": "Feature", "properties": { "AADT": 24895, "raw_name": "EV 18 v/rasteplass Ski", "osm_name": null, "osm_type": "trunk", "osm_lanes": null, "osm_oneway": "True", "osm_distance": 2.8853545798071929, "osm_maxspeed": 80.0, "osmid": 874522631.0 }, "geometry": { "type": "Point", "coordinates": [ 10.78419, 59.731456 ] } },
{ "type": "Feature", "properties": { "AADT": 107, "raw_name": "Roås sykkel", "osm_name": "Langhusveien", "osm_type": "primary", "osm_lanes": 2.0, "osm_oneway": null, "osm_distance": 11.004884278785664, "osm_maxspeed": 70.0, "osmid": 249997810.0 }, "geometry": { "type": "Point", "coordinates": [ 10.843136, 59.73527 ] } },
{ "type": "Feature", "properties": { "AADT": 10389, "raw_name": "Roås", "osm_name": "Langhusveien", "osm_type": "primary", "osm_lanes": null, "osm_oneway": "True", "osm_distance": 2.2476135422244519, "osm_maxspeed": 70.0, "osmid": 595197820.0 }, "geometry": { "type": "Point", "coordinates": [ 10.842389, 59.73631 ] } },
{ "type": "Feature", "properties": { "AADT": 12281, "raw_name": "Ramper E18 Vinterbro", "osm_name": null, "osm_type": "motorway_link", "osm_lanes": 2.0, "osm_oneway": "True", "osm_distance": 0.12727818022763512, "osm_maxspeed": 80.0, "osmid": 303411680.0 }, "geometry": { "type": "Point", "coordinates": [ 10.782093, 59.743302 ] } },
{ "type": "Feature", "properties": { "AADT": 33421, "raw_name": "Nordbytunellen", "osm_name": null, "osm_type": "motorway", "osm_lanes": 2.0, "osm_oneway": "True", "osm_distance": 9.9916490284726098, "osm_maxspeed": 80.0, "osmid": 28222254.0 }, "geometry": { "type": "Point", "coordinates": [ 10.782071, 59.743848 ] } },
{ "type": "Feature", "properties": { "AADT": 12105, "raw_name": "Vinterbro", "osm_name": null, "osm_type": "motorway_link", "osm_lanes": 1.0, "osm_oneway": "True", "osm_distance": 1.4871745835172907, "osm_maxspeed": 80.0, "osmid": 4336307.0 }, "geometry": { "type": "Point", "coordinates": [ 10.781752, 59.743917 ] } },
{ "type": "Feature", "properties": { "AADT": 43180, "raw_name": "Nøstvettunnelen", "osm_name": "Nøstvettunnelen", "osm_type": "motorway", "osm_lanes": 2.0, "osm_oneway": "True", "osm_distance": 8.273590632426572, "osm_maxspeed": 90.0, "osmid": 40486887.0 }, "geometry": { "type": "Point", "coordinates": [ 10.808882, 59.758719 ] } },
{ "type": "Feature", "properties": { "AADT": 3729, "raw_name": "Spydeberg sør", "osm_name": "Heliveien", "osm_type": "primary", "osm_lanes": null, "osm_oneway": null, "osm_distance": 0.019331457900933765, "osm_maxspeed": 60.0, "osmid": 612181524.0 }, "geometry": { "type": "Point", "coordinates": [ 11.074217, 59.608624 ] } },
{ "type": "Feature", "properties": { "AADT": 4514, "raw_name": "Tronstad", "osm_name": "Osloveien", "osm_type": "primary", "osm_lanes": null, "osm_oneway": null, "osm_distance": 0.013751497014862302, "osm_maxspeed": 80.0, "osmid": 579720352.0 }, "geometry": { "type": "Point", "coordinates": [ 11.051479, 59.616762 ] } },
{ "type": "Feature", "properties": { "AADT": 12814, "raw_name": "Smålenene bru", "osm_name": null, "osm_type": "motorway", "osm_lanes": 2.0, "osm_oneway": "True", "osm_distance": 4.4046136822398072, "osm_maxspeed": 100.0, "osmid": 74233936.0 }, "geometry": { "type": "Point", "coordinates": [ 11.096421, 59.592218 ] } },
{ "type": "Feature", "properties": { "AADT": 10665, "raw_name": "Moenkrysset øst", "osm_name": null, "osm_type": "motorway", "osm_lanes": 2.0, "osm_oneway": "True", "osm_distance": 2.9300167840809643, "osm_maxspeed": 100.0, "osmid": 262416670.0 }, "geometry": { "type": "Point", "coordinates": [ 11.17821, 59.569628 ] } },
{ "type": "Feature", "properties": { "AADT": 4386, "raw_name": "Sekkelsten vest", "osm_name": "Askimveien", "osm_type": "primary", "osm_lanes": null, "osm_oneway": "True", "osm_distance": 0.80998370475380976, "osm_maxspeed": 70.0, "osmid": 1355899520.0 }, "geometry": { "type": "Point", "coordinates": [ 11.195233, 59.576588 ] } },
{ "type": "Feature", "properties": { "AADT": 13563, "raw_name": "Askim", "osm_name": "Osloveien", "osm_type": "primary", "osm_lanes": null, "osm_oneway": "True", "osm_distance": 1.8558386563690892, "osm_maxspeed": 50.0, "osmid": 735346949.0 }, "geometry": { "type": "Point", "coordinates": [ 11.167775, 59.58033 ] } },
{ "type": "Feature", "properties": { "AADT": 2206, "raw_name": "Berger nord", "osm_name": "Trøgstadveien", "osm_type": "primary", "osm_lanes": null, "osm_oneway": null, "osm_distance": 0.19261912773036466, "osm_maxspeed": 50.0, "osmid": 891477620.0 }, "geometry": { "type": "Point", "coordinates": [ 11.186459, 59.600163 ] } },
{ "type": "Feature", "properties": { "AADT": 3000, "raw_name": "Fjellsrud", "osm_name": "Hølandsveien", "osm_type": "tertiary", "osm_lanes": null, "osm_oneway": null, "osm_distance": 0.24005257496340421, "osm_maxspeed": null, "osmid": 827586524.0 }, "geometry": { "type": "Point", "coordinates": [ 11.244934, 59.877968 ] } },
{ "type": "Feature", "properties": { "AADT": 6851, "raw_name": "Nordby", "osm_name": "Fetveien", "osm_type": "trunk", "osm_lanes": null, "osm_oneway": "True", "osm_distance": 4.008392874096856, "osm_maxspeed": 70.0, "osmid": 883688470.0 }, "geometry": { "type": "Point", "coordinates": [ 11.183508, 59.919185 ] } },
{ "type": "Feature", "properties": { "AADT": 14926, "raw_name": "Kringen", "osm_name": "Fetveien", "osm_type": "trunk", "osm_lanes": 1.0, "osm_oneway": "True", "osm_distance": 1.3608295103351, "osm_maxspeed": 60.0, "osmid": 883688441.0 }, "geometry": { "type": "Point", "coordinates": [ 11.177822, 59.922497 ] } },
{ "type": "Feature", "properties": { "AADT": 5125, "raw_name": "Spydeberg øst", "osm_name": "Osloveien", "osm_type": "primary", "osm_lanes": null, "osm_oneway": null, "osm_distance": 0.25024145728485081, "osm_maxspeed": 60.0, "osmid": 464452545.0 }, "geometry": { "type": "Point", "coordinates": [ 11.09733, 59.608196 ] } },
{ "type": "Feature", "properties": { "AADT": 4135, "raw_name": "Spydeberg Sentrum", "osm_name": "Stasjonsgata", "osm_type": "primary", "osm_lanes": null, "osm_oneway": null, "osm_distance": 3.0419515042010783, "osm_maxspeed": 40.0, "osmid": 369915357.0 }, "geometry": { "type": "Point", "coordinates": [ 11.079731, 59.619206 ] } },
{ "type": "Feature", "properties": { "AADT": 1193, "raw_name": "Hovin skole", "osm_name": "Lyserenveien", "osm_type": "primary", "osm_lanes": null, "osm_oneway": null, "osm_distance": 0.086263674807097207, "osm_maxspeed": 40.0, "osmid": 612213051.0 }, "geometry": { "type": "Point", "coordinates": [ 11.081687, 59.626164 ] } },
{ "type": "Feature", "properties": { "AADT": 3698, "raw_name": "Kirkebygda ", "osm_name": "Lillestrømveien", "osm_type": "primary", "osm_lanes": null, "osm_oneway": null, "osm_distance": 0.60948109194801559, "osm_maxspeed": 80.0, "osmid": 431702385.0 }, "geometry": { "type": "Point", "coordinates": [ 11.142551, 59.752957 ] } },
{ "type": "Feature", "properties": { "AADT": 28, "raw_name": "Fjerdingby sykkel", "osm_name": "Nedre Rælingsveg", "osm_type": "primary", "osm_lanes": 2.0, "osm_oneway": null, "osm_distance": 6.4448773715949814, "osm_maxspeed": 60.0, "osmid": 114655755.0 }, "geometry": { "type": "Point", "coordinates": [ 11.080193, 59.916614 ] } },
{ "type": "Feature", "properties": { "AADT": 10547, "raw_name": "Fjerdingby", "osm_name": "Nedre Rælingsveg", "osm_type": "primary", "osm_lanes": 2.0, "osm_oneway": null, "osm_distance": 0.037954330853360668, "osm_maxspeed": 60.0, "osmid": 114655755.0 }, "geometry": { "type": "Point", "coordinates": [ 11.080284, 59.916662 ] } },
{ "type": "Feature", "properties": { "AADT": 18762, "raw_name": "Fetsund (Tidl. Statoil/Circle K)", "osm_name": "Fetveien", "osm_type": "trunk", "osm_lanes": 2.0, "osm_oneway": null, "osm_distance": 0.014026229385249996, "osm_maxspeed": 60.0, "osmid": 885037419.0 }, "geometry": { "type": "Point", "coordinates": [ 11.150203, 59.927855 ] } },
{ "type": "Feature", "properties": { "AADT": 1430, "raw_name": "Knapstad", "osm_name": "Spydebergveien", "osm_type": "primary", "osm_lanes": null, "osm_oneway": null, "osm_distance": 0.080400223111384353, "osm_maxspeed": 60.0, "osmid": 369915368.0 }, "geometry": { "type": "Point", "coordinates": [ 11.032271, 59.620472 ] } },
{ "type": "Feature", "properties": { "AADT": 4912, "raw_name": "Tomter2", "osm_name": "Hobølveien", "osm_type": "primary", "osm_lanes": null, "osm_oneway": null, "osm_distance": 0.029023881275720132, "osm_maxspeed": 40.0, "osmid": 81114215.0 }, "geometry": { "type": "Point", "coordinates": [ 11.00112, 59.658442 ] } },
{ "type": "Feature", "properties": { "AADT": 4299, "raw_name": "Råken (Enebakk)", "osm_name": "Osloveien", "osm_type": "primary", "osm_lanes": null, "osm_oneway": "True", "osm_distance": 1.3010323587049974, "osm_maxspeed": 60.0, "osmid": 433047199.0 }, "geometry": { "type": "Point", "coordinates": [ 11.008669, 59.739359 ] } },
{ "type": "Feature", "properties": { "AADT": 3929, "raw_name": "Rv159 Fjellstad Avrampe", "osm_name": "Strømsveien", "osm_type": "motorway", "osm_lanes": 3.0, "osm_oneway": "True", "osm_distance": 3.0869673734507943, "osm_maxspeed": 80.0, "osmid": 1341764268.0 }, "geometry": { "type": "Point", "coordinates": [ 11.009255, 59.938597 ] } },
{ "type": "Feature", "properties": { "AADT": 27883, "raw_name": "Rv159 Fjellstad", "osm_name": "Strømsveien", "osm_type": "motorway", "osm_lanes": 3.0, "osm_oneway": "True", "osm_distance": 2.9639143259932066, "osm_maxspeed": 80.0, "osmid": 1341764268.0 }, "geometry": { "type": "Point", "coordinates": [ 11.009116, 59.938649 ] } },
{ "type": "Feature", "properties": { "AADT": 3632, "raw_name": "Rv159 Fjellstad Pårampe", "osm_name": "Strømsveien", "osm_type": "motorway", "osm_lanes": 2.0, "osm_oneway": "True", "osm_distance": 2.4039298109002529, "osm_maxspeed": 80.0, "osmid": 435515029.0 }, "geometry": { "type": "Point", "coordinates": [ 11.008888, 59.938701 ] } },
{ "type": "Feature", "properties": { "AADT": 30729, "raw_name": "Rælingstunnelen", "osm_name": "Rælingstunnelen", "osm_type": "motorway", "osm_lanes": 2.0, "osm_oneway": "True", "osm_distance": 12.860852649197327, "osm_maxspeed": 80.0, "osmid": 23282171.0 }, "geometry": { "type": "Point", "coordinates": [ 11.032254, 59.944817 ] } },
{ "type": "Feature", "properties": { "AADT": 1702, "raw_name": "RV159 VAREMESSA AVRAMPE", "osm_name": null, "osm_type": "trunk", "osm_lanes": 3.0, "osm_oneway": null, "osm_distance": 3.1283655768900793, "osm_maxspeed": 70.0, "osmid": 886705656.0 }, "geometry": { "type": "Point", "coordinates": [ 11.057249, 59.948183 ] } },
{ "type": "Feature", "properties": { "AADT": 18513, "raw_name": "RV159 VAREMESSA", "osm_name": null, "osm_type": "trunk", "osm_lanes": 3.0, "osm_oneway": null, "osm_distance": 0.53765691933191306, "osm_maxspeed": 70.0, "osmid": 886705656.0 }, "geometry": { "type": "Point", "coordinates": [ 11.057354, 59.948201 ] } },
{ "type": "Feature", "properties": { "AADT": 1784, "raw_name": "RV159 VAREMESSA PÅRAMPE", "osm_name": null, "osm_type": "trunk_link", "osm_lanes": null, "osm_oneway": "True", "osm_distance": 0.05045319035829339, "osm_maxspeed": 80.0, "osmid": 26224143.0 }, "geometry": { "type": "Point", "coordinates": [ 11.056632, 59.948464 ] } },
{ "type": "Feature", "properties": { "AADT": 14406, "raw_name": "Dammensvika", "osm_name": "Nedre Rælingsveg", "osm_type": "primary", "osm_lanes": null, "osm_oneway": null, "osm_distance": 0.88598091469354634, "osm_maxspeed": 60.0, "osmid": 433018635.0 }, "geometry": { "type": "Point", "coordinates": [ 11.045183, 59.948662 ] } },
{ "type": "Feature", "properties": { "AADT": 205, "raw_name": "Nitelva sykkel", "osm_name": "Strømsveien", "osm_type": "secondary", "osm_lanes": 2.0, "osm_oneway": null, "osm_distance": 5.0045156528366714, "osm_maxspeed": 50.0, "osmid": 4858559.0 }, "geometry": { "type": "Point", "coordinates": [ 11.026184, 59.956911 ] } },
{ "type": "Feature", "properties": { "AADT": 10121, "raw_name": "Nitelva bru", "osm_name": "Strømsveien", "osm_type": "secondary", "osm_lanes": 2.0, "osm_oneway": null, "osm_distance": 0.033821674214606641, "osm_maxspeed": 50.0, "osmid": 4858559.0 }, "geometry": { "type": "Point", "coordinates": [ 11.026116, 59.956982 ] } },
{ "type": "Feature", "properties": { "AADT": 20544, "raw_name": "Hovinbakken", "osm_name": "Fetveien", "osm_type": "trunk", "osm_lanes": 2.0, "osm_oneway": "True", "osm_distance": 6.9144821643692334, "osm_maxspeed": 80.0, "osmid": 113622578.0 }, "geometry": { "type": "Point", "coordinates": [ 11.134397, 59.937262 ] } },
{ "type": "Feature", "properties": { "AADT": 148, "raw_name": "Isakbekken sykkel", "osm_name": null, "osm_type": null, "osm_lanes": null, "osm_oneway": null, "osm_distance": null, "osm_maxspeed": null, "osmid": null }, "geometry": { "type": "Point", "coordinates": [ 11.079459, 59.952241 ] } },
{ "type": "Feature", "properties": { "AADT": 23983, "raw_name": "Isakbekken", "osm_name": "Fetveien", "osm_type": "trunk", "osm_lanes": 2.0, "osm_oneway": "True", "osm_distance": 3.0010662594484452, "osm_maxspeed": 80.0, "osmid": 113576140.0 }, "geometry": { "type": "Point", "coordinates": [ 11.079593, 59.952482 ] } },
{ "type": "Feature", "properties": { "AADT": 11584, "raw_name": "Kjeller", "osm_name": "Fetveien", "osm_type": "trunk", "osm_lanes": 2.0, "osm_oneway": null, "osm_distance": 0.73437638377899273, "osm_maxspeed": 50.0, "osmid": 404595894.0 }, "geometry": { "type": "Point", "coordinates": [ 11.048513, 59.970495 ] } },
{ "type": "Feature", "properties": { "AADT": 303, "raw_name": "Kjeller sykkel", "osm_name": null, "osm_type": null, "osm_lanes": null, "osm_oneway": null, "osm_distance": null, "osm_maxspeed": null, "osmid": null }, "geometry": { "type": "Point", "coordinates": [ 11.047663, 59.970757 ] } },
{ "type": "Feature", "properties": { "AADT": 14324, "raw_name": "Nordbyveien", "osm_name": "Nordbyveien", "osm_type": "primary", "osm_lanes": null, "osm_oneway": null, "osm_distance": 0.097202560810454489, "osm_maxspeed": 50.0, "osmid": 108645064.0 }, "geometry": { "type": "Point", "coordinates": [ 11.003592, 59.974641 ] } },
{ "type": "Feature", "properties": { "AADT": 100, "raw_name": "Nordbyveien sykkel", "osm_name": "Nordbyveien", "osm_type": "primary", "osm_lanes": null, "osm_oneway": null, "osm_distance": 18.211652176557198, "osm_maxspeed": 50.0, "osmid": 108645064.0 }, "geometry": { "type": "Point", "coordinates": [ 11.00335, 59.974686 ] } },
{ "type": "Feature", "properties": { "AADT": 12199, "raw_name": "Skedsmo (Stranden)", "osm_name": "Fetveien", "osm_type": "trunk", "osm_lanes": 2.0, "osm_oneway": null, "osm_distance": 0.21984331564060547, "osm_maxspeed": 60.0, "osmid": 115770465.0 }, "geometry": { "type": "Point", "coordinates": [ 11.019732, 59.977871 ] } },
{ "type": "Feature", "properties": { "AADT": 178, "raw_name": "Kjellerholen bru sykkel", "osm_name": "Trondheimsveien", "osm_type": "trunk", "osm_lanes": 3.0, "osm_oneway": null, "osm_distance": 5.0885802747919433, "osm_maxspeed": 60.0, "osmid": 113630883.0 }, "geometry": { "type": "Point", "coordinates": [ 11.004897, 59.979107 ] } },
{ "type": "Feature", "properties": { "AADT": 19691, "raw_name": "Kjellerholen bru", "osm_name": "Trondheimsveien", "osm_type": "trunk", "osm_lanes": 3.0, "osm_oneway": null, "osm_distance": 0.073973846274539776, "osm_maxspeed": 60.0, "osmid": 113630883.0 }, "geometry": { "type": "Point", "coordinates": [ 11.004819, 59.979172 ] } },
{ "type": "Feature", "properties": { "AADT": 11657, "raw_name": "Brøtertoppen", "osm_name": "Skedsmo kirkevei", "osm_type": "trunk", "osm_lanes": 2.0, "osm_oneway": null, "osm_distance": 0.62381081156517115, "osm_maxspeed": 60.0, "osmid": 1017859536.0 }, "geometry": { "type": "Point", "coordinates": [ 11.055543, 59.9792 ] } },
{ "type": "Feature", "properties": { "AADT": 33, "raw_name": "Brøtertoppen sykkel", "osm_name": "Skedsmo kirkevei", "osm_type": "trunk", "osm_lanes": 2.0, "osm_oneway": null, "osm_distance": 12.902087654430671, "osm_maxspeed": 60.0, "osmid": 1017859536.0 }, "geometry": { "type": "Point", "coordinates": [ 11.055333, 59.97933 ] } },
{ "type": "Feature", "properties": { "AADT": 17, "raw_name": "Brånåsdalen sykkel", "osm_name": "Trondheimsveien", "osm_type": "secondary", "osm_lanes": 2.0, "osm_oneway": null, "osm_distance": 12.26059087787225, "osm_maxspeed": 60.0, "osmid": 148833085.0 }, "geometry": { "type": "Point", "coordinates": [ 11.028849, 59.989163 ] } },
{ "type": "Feature", "properties": { "AADT": 8740, "raw_name": "Brånåsdalen", "osm_name": "Trondheimsveien", "osm_type": "secondary", "osm_lanes": 2.0, "osm_oneway": null, "osm_distance": 0.49021570615095211, "osm_maxspeed": 60.0, "osmid": 148833085.0 }, "geometry": { "type": "Point", "coordinates": [ 11.028694, 59.989199 ] } },
{ "type": "Feature", "properties": { "AADT": 69894, "raw_name": "Hvam nord", "osm_name": null, "osm_type": "motorway", "osm_lanes": 2.0, "osm_oneway": "True", "osm_distance": 7.302618311405018, "osm_maxspeed": 100.0, "osmid": 886121685.0 }, "geometry": { "type": "Point", "coordinates": [ 11.028942, 59.989594 ] } },
{ "type": "Feature", "properties": { "AADT": 6087, "raw_name": "Nesoddv v/Knardalv", "osm_name": "Nesoddveien", "osm_type": "primary", "osm_lanes": 2.0, "osm_oneway": null, "osm_distance": 0.15094013150612287, "osm_maxspeed": 70.0, "osmid": 163948676.0 }, "geometry": { "type": "Point", "coordinates": [ 10.695756, 59.724038 ] } },
{ "type": "Feature", "properties": { "AADT": 8945, "raw_name": "Nessetveien", "osm_name": "Nessetveien", "osm_type": "primary", "osm_lanes": null, "osm_oneway": null, "osm_distance": 0.44629637726649929, "osm_maxspeed": 60.0, "osmid": 252962359.0 }, "geometry": { "type": "Point", "coordinates": [ 10.729355, 59.724113 ] } },
{ "type": "Feature", "properties": { "AADT": 14028, "raw_name": "Svartskog", "osm_name": null, "osm_type": "trunk", "osm_lanes": null, "osm_oneway": "True", "osm_distance": 4.7571064939691148, "osm_maxspeed": 80.0, "osmid": 252793897.0 }, "geometry": { "type": "Point", "coordinates": [ 10.770275, 59.775641 ] } },
{ "type": "Feature", "properties": { "AADT": 2403, "raw_name": "Fosshellinga", "osm_name": "Osloveien", "osm_type": "primary", "osm_lanes": null, "osm_oneway": null, "osm_distance": 0.036937088405657251, "osm_maxspeed": 80.0, "osmid": 845998697.0 }, "geometry": { "type": "Point", "coordinates": [ 10.973329, 59.622493 ] } },
{ "type": "Feature", "properties": { "AADT": 709, "raw_name": "Gustvet", "osm_name": "Osloveien", "osm_type": "primary", "osm_lanes": null, "osm_oneway": null, "osm_distance": 0.042626415588273722, "osm_maxspeed": 80.0, "osmid": 167469584.0 }, "geometry": { "type": "Point", "coordinates": [ 10.941412, 59.629824 ] } },
{ "type": "Feature", "properties": { "AADT": 2408, "raw_name": "Elvestad nord", "osm_name": "Hobølveien", "osm_type": "primary", "osm_lanes": null, "osm_oneway": null, "osm_distance": 0.35697774579805924, "osm_maxspeed": 60.0, "osmid": 262437417.0 }, "geometry": { "type": "Point", "coordinates": [ 10.9566, 59.630072 ] } },
{ "type": "Feature", "properties": { "AADT": 13560, "raw_name": "Elvestad vest", "osm_name": null, "osm_type": "motorway", "osm_lanes": 2.0, "osm_oneway": "True", "osm_distance": 3.726332867314087, "osm_maxspeed": 100.0, "osmid": 262437395.0 }, "geometry": { "type": "Point", "coordinates": [ 10.938646, 59.640141 ] } },
{ "type": "Feature", "properties": { "AADT": 4756, "raw_name": "Sværsvann", "osm_name": "Enebakkveien", "osm_type": "primary", "osm_lanes": null, "osm_oneway": null, "osm_distance": 0.37385518915745714, "osm_maxspeed": 60.0, "osmid": 161687907.0 }, "geometry": { "type": "Point", "coordinates": [ 10.890785, 59.81748 ] } },
{ "type": "Feature", "properties": { "AADT": 7692, "raw_name": "Stenfelt", "osm_name": "Langhusveien", "osm_type": "primary", "osm_lanes": null, "osm_oneway": "True", "osm_distance": 3.8198472488077275, "osm_maxspeed": 50.0, "osmid": 131817725.0 }, "geometry": { "type": "Point", "coordinates": [ 10.81679, 59.759858 ] } },
{ "type": "Feature", "properties": { "AADT": 2539, "raw_name": "Dalsbekken rampe", "osm_name": null, "osm_type": "primary", "osm_lanes": null, "osm_oneway": null, "osm_distance": 2.3533133866772236, "osm_maxspeed": 80.0, "osmid": 58515653.0 }, "geometry": { "type": "Point", "coordinates": [ 10.80901, 59.760162 ] } },
{ "type": "Feature", "properties": { "AADT": 3630, "raw_name": "Dalsbekken bru", "osm_name": null, "osm_type": "primary", "osm_lanes": null, "osm_oneway": null, "osm_distance": 0.0292571557969535, "osm_maxspeed": 80.0, "osmid": 400674496.0 }, "geometry": { "type": "Point", "coordinates": [ 10.809792, 59.760238 ] } },
{ "type": "Feature", "properties": { "AADT": 1959, "raw_name": "ASS TJUVDALEN PÅRAMPE", "osm_name": null, "osm_type": "motorway_link", "osm_lanes": 1.0, "osm_oneway": "True", "osm_distance": 4.6031828243333681, "osm_maxspeed": 80.0, "osmid": 10411973.0 }, "geometry": { "type": "Point", "coordinates": [ 10.835302, 59.773212 ] } },
{ "type": "Feature", "properties": { "AADT": 44946, "raw_name": "Nøstvet Asurdalen", "osm_name": "Europaveien", "osm_type": "motorway", "osm_lanes": 2.0, "osm_oneway": "True", "osm_distance": 11.333691537465022, "osm_maxspeed": 90.0, "osmid": 303411632.0 }, "geometry": { "type": "Point", "coordinates": [ 10.836164, 59.774016 ] } },
{ "type": "Feature", "properties": { "AADT": 2288, "raw_name": "ASS TJUVDALEN AVRAMPE", "osm_name": null, "osm_type": "motorway_link", "osm_lanes": 1.0, "osm_oneway": "True", "osm_distance": 0.038771498968779128, "osm_maxspeed": 80.0, "osmid": 27820417.0 }, "geometry": { "type": "Point", "coordinates": [ 10.835788, 59.774148 ] } },
{ "type": "Feature", "properties": { "AADT": 13319, "raw_name": "SKI ASSURTJERN", "osm_name": "Assurdiagonalen", "osm_type": "secondary", "osm_lanes": null, "osm_oneway": "True", "osm_distance": 2.6433439144527187, "osm_maxspeed": 50.0, "osmid": 303411608.0 }, "geometry": { "type": "Point", "coordinates": [ 10.841191, 59.782992 ] } },
{ "type": "Feature", "properties": { "AADT": 63, "raw_name": "Granholtet sykkel", "osm_name": "Kongeveien", "osm_type": "secondary", "osm_lanes": 2.0, "osm_oneway": null, "osm_distance": 18.41657609291018, "osm_maxspeed": 60.0, "osmid": 27197695.0 }, "geometry": { "type": "Point", "coordinates": [ 10.818491, 59.792369 ] } },
{ "type": "Feature", "properties": { "AADT": 3365, "raw_name": "Ski Flataaser avrampe", "osm_name": "Europaveien", "osm_type": "motorway", "osm_lanes": 2.0, "osm_oneway": "True", "osm_distance": 10.098527395701042, "osm_maxspeed": 90.0, "osmid": 303411624.0 }, "geometry": { "type": "Point", "coordinates": [ 10.841593, 59.793314 ] } },
{ "type": "Feature", "properties": { "AADT": 47071, "raw_name": "Ski Flataaser", "osm_name": "Europaveien", "osm_type": "motorway", "osm_lanes": 3.0, "osm_oneway": "True", "osm_distance": 11.906647989645924, "osm_maxspeed": 90.0, "osmid": 303411613.0 }, "geometry": { "type": "Point", "coordinates": [ 10.841326, 59.793318 ] } },
{ "type": "Feature", "properties": { "AADT": 1642, "raw_name": "Ski Flataaser pårampe", "osm_name": "Europaveien", "osm_type": "motorway", "osm_lanes": 3.0, "osm_oneway": "True", "osm_distance": 8.6895101515876814, "osm_maxspeed": 90.0, "osmid": 400674503.0 }, "geometry": { "type": "Point", "coordinates": [ 10.841106, 59.793392 ] } },
{ "type": "Feature", "properties": { "AADT": 11034, "raw_name": "Taraldrudveien", "osm_name": "Taraldrudveien", "osm_type": "secondary", "osm_lanes": 1.0, "osm_oneway": "True", "osm_distance": 0.57288582691419754, "osm_maxspeed": 70.0, "osmid": 26685417.0 }, "geometry": { "type": "Point", "coordinates": [ 10.8396, 59.797311 ] } },
{ "type": "Feature", "properties": { "AADT": 51467, "raw_name": "Taraldrud", "osm_name": "Europaveien", "osm_type": "motorway", "osm_lanes": 2.0, "osm_oneway": "True", "osm_distance": 12.745419718632673, "osm_maxspeed": 90.0, "osmid": 303411629.0 }, "geometry": { "type": "Point", "coordinates": [ 10.843085, 59.798917 ] } },
{ "type": "Feature", "properties": { "AADT": 78, "raw_name": "Mastemyrveien sykkel", "osm_name": null, "osm_type": "primary", "osm_lanes": null, "osm_oneway": null, "osm_distance": 5.8669003076614983, "osm_maxspeed": 60.0, "osmid": 174337064.0 }, "geometry": { "type": "Point", "coordinates": [ 10.789413, 59.816189 ] } },
{ "type": "Feature", "properties": { "AADT": 7525, "raw_name": "Mastemyrveien N1", "osm_name": null, "osm_type": "primary", "osm_lanes": null, "osm_oneway": null, "osm_distance": 0.0057784197447812834, "osm_maxspeed": 60.0, "osmid": 174337064.0 }, "geometry": { "type": "Point", "coordinates": [ 10.789545, 59.81622 ] } },
{ "type": "Feature", "properties": { "AADT": 29, "raw_name": "Skivn Oslo gr sykkel", "osm_name": "Skiveien", "osm_type": "secondary", "osm_lanes": null, "osm_oneway": null, "osm_distance": 9.8843283834438633, "osm_maxspeed": 50.0, "osmid": 159225903.0 }, "geometry": { "type": "Point", "coordinates": [ 10.809649, 59.819203 ] } },
{ "type": "Feature", "properties": { "AADT": 5448, "raw_name": "Flateby", "osm_name": "Røerveien", "osm_type": "primary", "osm_lanes": null, "osm_oneway": null, "osm_distance": 0.74001221797719663, "osm_maxspeed": 60.0, "osmid": 871356276.0 }, "geometry": { "type": "Point", "coordinates": [ 10.681817, 59.823271 ] } },
{ "type": "Feature", "properties": { "AADT": 624, "raw_name": "Ingjerstrandvn- Oslo grense", "osm_name": "Ingierstrandveien", "osm_type": "secondary", "osm_lanes": null, "osm_oneway": null, "osm_distance": 0.27631417929353186, "osm_maxspeed": 60.0, "osmid": 179027632.0 }, "geometry": { "type": "Point", "coordinates": [ 10.76888, 59.825975 ] } },
{ "type": "Feature", "properties": { "AADT": 16297, "raw_name": "Mastemyr", "osm_name": null, "osm_type": "trunk", "osm_lanes": 2.0, "osm_oneway": "True", "osm_distance": 10.076175918125781, "osm_maxspeed": 80.0, "osmid": 330697832.0 }, "geometry": { "type": "Point", "coordinates": [ 10.777599, 59.828037 ] } },
{ "type": "Feature", "properties": { "AADT": 4680, "raw_name": "Skivn. Oslo gr.", "osm_name": "Skiveien", "osm_type": "secondary", "osm_lanes": null, "osm_oneway": null, "osm_distance": 0.024030344867425214, "osm_maxspeed": 50.0, "osmid": 159225903.0 }, "geometry": { "type": "Point", "coordinates": [ 10.809566, 59.819236 ] } },
{ "type": "Feature", "properties": { "AADT": 51471, "raw_name": "Klemetsrud", "osm_name": null, "osm_type": "motorway", "osm_lanes": 2.0, "osm_oneway": "True", "osm_distance": 10.219059676310133, "osm_maxspeed": 90.0, "osmid": 673222900.0 }, "geometry": { "type": "Point", "coordinates": [ 10.843871, 59.82707 ] } },
{ "type": "Feature", "properties": { "AADT": 44641, "raw_name": "Klemetsrudkrysset Hovedkjørefelt", "osm_name": "Europaveien", "osm_type": "trunk", "osm_lanes": 3.0, "osm_oneway": "True", "osm_distance": 11.501071972164015, "osm_maxspeed": 80.0, "osmid": 242364779.0 }, "geometry": { "type": "Point", "coordinates": [ 10.839833, 59.839091 ] } },
{ "type": "Feature", "properties": { "AADT": 7425, "raw_name": "Pårampe Klemetsrudkrysset Nordgående", "osm_name": null, "osm_type": "trunk_link", "osm_lanes": 1.0, "osm_oneway": "True", "osm_distance": 0.11626729559116018, "osm_maxspeed": 80.0, "osmid": 23280233.0 }, "geometry": { "type": "Point", "coordinates": [ 10.840628, 59.839249 ] } },
{ "type": "Feature", "properties": { "AADT": 6428, "raw_name": "Avrampe Klemtsrudkrysset Sørgående", "osm_name": null, "osm_type": "trunk_link", "osm_lanes": 1.0, "osm_oneway": "True", "osm_distance": 0.58123550056355666, "osm_maxspeed": 80.0, "osmid": 23280183.0 }, "geometry": { "type": "Point", "coordinates": [ 10.839176, 59.84003 ] } },
{ "type": "Feature", "properties": { "AADT": 5153, "raw_name": "Ljabrudiagonalen", "osm_name": "Ljabrudiagonalen", "osm_type": "primary", "osm_lanes": 3.0, "osm_oneway": "False", "osm_distance": 0.30199050130499799, "osm_maxspeed": 60.0, "osmid": 151099066.0 }, "geometry": { "type": "Point", "coordinates": [ 10.786571, 59.840297 ] } },
{ "type": "Feature", "properties": { "AADT": 66139, "raw_name": "Skullerud Hovedkjørefelt", "osm_name": "Enebakkveien", "osm_type": "trunk", "osm_lanes": 2.0, "osm_oneway": "True", "osm_distance": 7.7106011523559728, "osm_maxspeed": 80.0, "osmid": 672999078.0 }, "geometry": { "type": "Point", "coordinates": [ 10.830739, 59.862806 ] } },
{ "type": "Feature", "properties": { "AADT": 2208, "raw_name": "Skullerud pårampe Sydgående", "osm_name": null, "osm_type": "trunk_link", "osm_lanes": null, "osm_oneway": "True", "osm_distance": 1.66970950733926, "osm_maxspeed": 80.0, "osmid": 242364804.0 }, "geometry": { "type": "Point", "coordinates": [ 10.830539, 59.862809 ] } },
{ "type": "Feature", "properties": { "AADT": 2901, "raw_name": "Skullerud Avrampe Nordgående", "osm_name": "Enebakkveien", "osm_type": "trunk", "osm_lanes": 2.0, "osm_oneway": "True", "osm_distance": 8.9363653959460585, "osm_maxspeed": 80.0, "osmid": 132658000.0 }, "geometry": { "type": "Point", "coordinates": [ 10.830928, 59.862816 ] } },
{ "type": "Feature", "properties": { "AADT": 154, "raw_name": "Skullerud sykkel", "osm_name": null, "osm_type": null, "osm_lanes": null, "osm_oneway": null, "osm_distance": null, "osm_maxspeed": null, "osmid": null }, "geometry": { "type": "Point", "coordinates": [ 10.829667, 59.869146 ] } },
{ "type": "Feature", "properties": { "AADT": 15937, "raw_name": "Mosseveien ved Fiskevollen hovedkjørefelt", "osm_name": "Mosseveien", "osm_type": "trunk", "osm_lanes": 3.0, "osm_oneway": "True", "osm_distance": 4.0176063457927604, "osm_maxspeed": 60.0, "osmid": 330697850.0 }, "geometry": { "type": "Point", "coordinates": [ 10.776985, 59.841661 ] } },
{ "type": "Feature", "properties": { "AADT": 2639, "raw_name": "Kongshavn rampe sydgående", "osm_name": "Mosseveien", "osm_type": "trunk_link", "osm_lanes": 2.0, "osm_oneway": "True", "osm_distance": 1.2012224588510971, "osm_maxspeed": 60.0, "osmid": 255703544.0 }, "geometry": { "type": "Point", "coordinates": [ 10.756877, 59.895639 ] } },
{ "type": "Feature", "properties": { "AADT": 20227, "raw_name": "Kongshavn 1,2", "osm_name": "Mosseveien", "osm_type": "trunk", "osm_lanes": 1.0, "osm_oneway": "True", "osm_distance": 4.571550383257855, "osm_maxspeed": 60.0, "osmid": 255703513.0 }, "geometry": { "type": "Point", "coordinates": [ 10.756999, 59.895687 ] } },
{ "type": "Feature", "properties": { "AADT": 1570, "raw_name": "Kongshavn rampe nordgående", "osm_name": "Mosseveien", "osm_type": "trunk_link", "osm_lanes": 2.0, "osm_oneway": "True", "osm_distance": 0.16180498935551815, "osm_maxspeed": 60.0, "osmid": 255703543.0 }, "geometry": { "type": "Point", "coordinates": [ 10.757176, 59.895707 ] } },
{ "type": "Feature", "properties": { "AADT": 8508, "raw_name": "General Ruges vei v/ Bøler", "osm_name": "General Ruges vei", "osm_type": "secondary", "osm_lanes": 2.0, "osm_oneway": null, "osm_distance": 0.15538455817546296, "osm_maxspeed": 50.0, "osmid": 1298281022.0 }, "geometry": { "type": "Point", "coordinates": [ 10.845196, 59.883898 ] } },
{ "type": "Feature", "properties": { "AADT": 1250, "raw_name": "Pårampe fra Sandstuveien", "osm_name": "Europaveien", "osm_type": "trunk", "osm_lanes": 2.0, "osm_oneway": "True", "osm_distance": 5.6962798381216952, "osm_maxspeed": 80.0, "osmid": 672937161.0 }, "geometry": { "type": "Point", "coordinates": [ 10.807295, 59.887795 ] } },
{ "type": "Feature", "properties": { "AADT": 34790, "raw_name": "E6 Sandstuveien Sydgående", "osm_name": "Europaveien", "osm_type": "trunk", "osm_lanes": 3.0, "osm_oneway": "True", "osm_distance": 3.2886435856732521, "osm_maxspeed": 80.0, "osmid": 672937158.0 }, "geometry": { "type": "Point", "coordinates": [ 10.807435, 59.887855 ] } },
{ "type": "Feature", "properties": { "AADT": 3290, "raw_name": "Avrampe til Sandstuveien", "osm_name": null, "osm_type": "trunk_link", "osm_lanes": 1.0, "osm_oneway": "True", "osm_distance": 0.62887481156906155, "osm_maxspeed": 80.0, "osmid": 242364794.0 }, "geometry": { "type": "Point", "coordinates": [ 10.806105, 59.888159 ] } },
{ "type": "Feature", "properties": { "AADT": 1806, "raw_name": "Skjønhaug vest", "osm_name": "Trøgstadveien", "osm_type": "primary", "osm_lanes": null, "osm_oneway": null, "osm_distance": 0.01142297956477715, "osm_maxspeed": 50.0, "osmid": 253652630.0 }, "geometry": { "type": "Point", "coordinates": [ 11.308937, 59.637655 ] } },
{ "type": "Feature", "properties": { "AADT": 3990, "raw_name": "Skjønhaug sør", "osm_name": "Kirkeveien", "osm_type": "trunk", "osm_lanes": null, "osm_oneway": null, "osm_distance": 0.00308728700533653, "osm_maxspeed": 80.0, "osmid": 619174056.0 }, "geometry": { "type": "Point", "coordinates": [ 11.313422, 59.646483 ] } },
{ "type": "Feature", "properties": { "AADT": 2152, "raw_name": "Krokedal", "osm_name": "Båstadveien", "osm_type": "trunk", "osm_lanes": null, "osm_oneway": null, "osm_distance": 0.018679065391334074, "osm_maxspeed": 60.0, "osmid": 619174062.0 }, "geometry": { "type": "Point", "coordinates": [ 11.292533, 59.758302 ] } },
{ "type": "Feature", "properties": { "AADT": 6296, "raw_name": "Valsporten", "osm_name": "Haldenveien", "osm_type": "primary", "osm_lanes": 2.0, "osm_oneway": null, "osm_distance": 0.37179523462777347, "osm_maxspeed": 80.0, "osmid": 884630902.0 }, "geometry": { "type": "Point", "coordinates": [ 11.262128, 60.005327 ] } },
{ "type": "Feature", "properties": { "AADT": 11544, "raw_name": "Langbakk bru", "osm_name": null, "osm_type": "trunk", "osm_lanes": 2.0, "osm_oneway": "True", "osm_distance": 2.0218796130600789, "osm_maxspeed": 100.0, "osmid": 120237380.0 }, "geometry": { "type": "Point", "coordinates": [ 11.277407, 60.115884 ] } },
{ "type": "Feature", "properties": { "AADT": 6592, "raw_name": "Algarheimsvegen v Algarheim", "osm_name": "Algarheimsvegen", "osm_type": "primary", "osm_lanes": null, "osm_oneway": null, "osm_distance": 0.10929908438102601, "osm_maxspeed": 60.0, "osmid": 645890344.0 }, "geometry": { "type": "Point", "coordinates": [ 11.25513, 60.140819 ] } },
{ "type": "Feature", "properties": { "AADT": 2892, "raw_name": "Kisavegen v Algarheim", "osm_name": "Kisavegen", "osm_type": "secondary", "osm_lanes": null, "osm_oneway": null, "osm_distance": 0.097542096648914209, "osm_maxspeed": 50.0, "osmid": 879146715.0 }, "geometry": { "type": "Point", "coordinates": [ 11.254624, 60.141368 ] } },
{ "type": "Feature", "properties": { "AADT": 10272, "raw_name": "Østensjøveien v/Østensjø skole", "osm_name": "Østensjøveien", "osm_type": "secondary", "osm_lanes": 2.0, "osm_oneway": null, "osm_distance": 0.084954828950466521, "osm_maxspeed": 40.0, "osmid": 83131098.0 }, "geometry": { "type": "Point", "coordinates": [ 10.829181, 59.899302 ] } },
{ "type": "Feature", "properties": { "AADT": 73520, "raw_name": "E6 Manglerud", "osm_name": "Adolf Hedins vei", "osm_type": "trunk", "osm_lanes": 3.0, "osm_oneway": "True", "osm_distance": 4.5389504183291072, "osm_maxspeed": 70.0, "osmid": 141272107.0 }, "geometry": { "type": "Point", "coordinates": [ 10.818018, 59.901192 ] } },
{ "type": "Feature", "properties": { "AADT": 213, "raw_name": "Bryn sykkel", "osm_name": null, "osm_type": null, "osm_lanes": null, "osm_oneway": null, "osm_distance": null, "osm_maxspeed": null, "osmid": null }, "geometry": { "type": "Point", "coordinates": [ 10.81944, 59.90205 ] } },
{ "type": "Feature", "properties": { "AADT": 1488, "raw_name": "E6 Lodalen rampe Sentrum Lodalen", "osm_name": null, "osm_type": "trunk", "osm_lanes": 3.0, "osm_oneway": "True", "osm_distance": 6.8681276035627219, "osm_maxspeed": 70.0, "osmid": 263809611.0 }, "geometry": { "type": "Point", "coordinates": [ 10.782982, 59.902902 ] } },
{ "type": "Feature", "properties": { "AADT": 51279, "raw_name": "E6 Lodalen Helsfyr mot Sentrum", "osm_name": null, "osm_type": "service", "osm_lanes": 1.0, "osm_oneway": null, "osm_distance": 1.5066125994888004, "osm_maxspeed": null, "osmid": 709553862.0 }, "geometry": { "type": "Point", "coordinates": [ 10.782776, 59.902979 ] } },
{ "type": "Feature", "properties": { "AADT": 4671, "raw_name": "E6 Lodalen rampe Helsfyr Lodalen", "osm_name": null, "osm_type": "trunk_link", "osm_lanes": 1.0, "osm_oneway": "True", "osm_distance": 0.1101488220396982, "osm_maxspeed": 60.0, "osmid": 91631207.0 }, "geometry": { "type": "Point", "coordinates": [ 10.782418, 59.903089 ] } },
{ "type": "Feature", "properties": { "AADT": 37807, "raw_name": "Bjørvikatunellen østgående", "osm_name": "Operatunnelen / Bjørvikatunnelen", "osm_type": "trunk", "osm_lanes": 3.0, "osm_oneway": "True", "osm_distance": 0.16113038017783726, "osm_maxspeed": 70.0, "osmid": 204039523.0 }, "geometry": { "type": "Point", "coordinates": [ 10.75313, 59.90551 ] } },
{ "type": "Feature", "properties": { "AADT": 36513, "raw_name": "Bjørvikatunellen vestgående", "osm_name": "Operatunnelen / Bjørvikatunnelen", "osm_type": "trunk", "osm_lanes": 3.0, "osm_oneway": "True", "osm_distance": 0.20912469606138251, "osm_maxspeed": 70.0, "osmid": 204039520.0 }, "geometry": { "type": "Point", "coordinates": [ 10.753222, 59.90562 ] } },
{ "type": "Feature", "properties": { "AADT": 12116, "raw_name": "Kong Håkon 5.s gt. nordgående", "osm_name": "Kong Håkon 5.s gate", "osm_type": "trunk", "osm_lanes": 3.0, "osm_oneway": "True", "osm_distance": 0.15765220225357329, "osm_maxspeed": 50.0, "osmid": 329366809.0 }, "geometry": { "type": "Point", "coordinates": [ 10.761556, 59.905907 ] } },
{ "type": "Feature", "properties": { "AADT": 11898, "raw_name": "Kong Håkon 5.s gt. sydgående", "osm_name": "Kong Håkon 5.s gate", "osm_type": "trunk", "osm_lanes": 3.0, "osm_oneway": "True", "osm_distance": 0.0147206973044308, "osm_maxspeed": 50.0, "osmid": 286291236.0 }, "geometry": { "type": "Point", "coordinates": [ 10.761306, 59.905927 ] } },
{ "type": "Feature", "properties": { "AADT": 5630, "raw_name": "Dr. Eufemias Gt. Østgående Datter", "osm_name": "Dronning Eufemias gate", "osm_type": "trunk", "osm_lanes": 3.0, "osm_oneway": "True", "osm_distance": 0.48110393214705066, "osm_maxspeed": 40.0, "osmid": 329366798.0 }, "geometry": { "type": "Point", "coordinates": [ 10.754458, 59.908574 ] } },
{ "type": "Feature", "properties": { "AADT": 468, "raw_name": "Dr. Eufemias Gt. Sykkel Østgående", "osm_name": "Dronning Eufemias gate", "osm_type": "trunk", "osm_lanes": 3.0, "osm_oneway": "True", "osm_distance": 0.41656557489853274, "osm_maxspeed": 40.0, "osmid": 329366798.0 }, "geometry": { "type": "Point", "coordinates": [ 10.754072, 59.908668 ] } },
{ "type": "Feature", "properties": { "AADT": 555, "raw_name": "Dr. Eufemias gt. Sykkel Vestgående", "osm_name": "Dronning Eufemias gate", "osm_type": "trunk", "osm_lanes": 3.0, "osm_oneway": "True", "osm_distance": 0.38081704337841404, "osm_maxspeed": 40.0, "osmid": 366747828.0 }, "geometry": { "type": "Point", "coordinates": [ 10.754715, 59.90871 ] } },
{ "type": "Feature", "properties": { "AADT": 7185, "raw_name": "Dr. Eufemias Gt. Vestgående Datter", "osm_name": "Dronning Eufemias gate", "osm_type": "trunk", "osm_lanes": 3.0, "osm_oneway": "True", "osm_distance": 0.41559765426183209, "osm_maxspeed": 40.0, "osmid": 366747828.0 }, "geometry": { "type": "Point", "coordinates": [ 10.754618, 59.908734 ] } },
{ "type": "Feature", "properties": { "AADT": 16177, "raw_name": "Østre tangent", "osm_name": "Østre tangent", "osm_type": "trunk", "osm_lanes": 2.0, "osm_oneway": null, "osm_distance": 0.25242881014469681, "osm_maxspeed": 50.0, "osmid": 255790896.0 }, "geometry": { "type": "Point", "coordinates": [ 10.760802, 59.910064 ] } },
{ "type": "Feature", "properties": { "AADT": 1892, "raw_name": "Frognerstranda sykkel 03", "osm_name": null, "osm_type": "trunk", "osm_lanes": 3.0, "osm_oneway": "True", "osm_distance": 11.8669868482532, "osm_maxspeed": 80.0, "osmid": 467248341.0 }, "geometry": { "type": "Point", "coordinates": [ 10.704059, 59.911172 ] } },
{ "type": "Feature", "properties": { "AADT": 7602, "raw_name": "Helsfyr rampe mot Alnabru", "osm_name": "Strømsveien", "osm_type": "trunk", "osm_lanes": 3.0, "osm_oneway": "True", "osm_distance": 2.0680420481697022, "osm_maxspeed": 80.0, "osmid": 60303138.0 }, "geometry": { "type": "Point", "coordinates": [ 10.796609, 59.911676 ] } },
{ "type": "Feature", "properties": { "AADT": 51038, "raw_name": "Helsfyr 1,2,3,4", "osm_name": "Strømsveien", "osm_type": "trunk", "osm_lanes": 4.0, "osm_oneway": "True", "osm_distance": 5.6631752908649879, "osm_maxspeed": 80.0, "osmid": 258824037.0 }, "geometry": { "type": "Point", "coordinates": [ 10.796522, 59.911741 ] } },
{ "type": "Feature", "properties": { "AADT": 8428, "raw_name": "Helsfyr rampe mot sentrum", "osm_name": "Strømsveien", "osm_type": "trunk", "osm_lanes": 4.0, "osm_oneway": "True", "osm_distance": 5.1037241788853152, "osm_maxspeed": 80.0, "osmid": 258824037.0 }, "geometry": { "type": "Point", "coordinates": [ 10.796445, 59.911857 ] } },
{ "type": "Feature", "properties": { "AADT": 66740, "raw_name": "E6 Teisen", "osm_name": "Adolf Hedins vei", "osm_type": "trunk", "osm_lanes": 3.0, "osm_oneway": "True", "osm_distance": 5.3165475774090813, "osm_maxspeed": 70.0, "osmid": 666235574.0 }, "geometry": { "type": "Point", "coordinates": [ 10.814306, 59.915057 ] } },
{ "type": "Feature", "properties": { "AADT": 1711, "raw_name": "E6 Teisen pårampe fra Bryn", "osm_name": "Adolf Hedins vei", "osm_type": "trunk", "osm_lanes": 2.0, "osm_oneway": "True", "osm_distance": 6.0341115862025161, "osm_maxspeed": 70.0, "osmid": 71218142.0 }, "geometry": { "type": "Point", "coordinates": [ 10.814465, 59.915089 ] } },
{ "type": "Feature", "properties": { "AADT": 1508, "raw_name": "Munkedamsveien sykkel", "osm_name": "Operatunnelen", "osm_type": "trunk_link", "osm_lanes": null, "osm_oneway": "True", "osm_distance": 0.11764076890167346, "osm_maxspeed": 50.0, "osmid": 5786369.0 }, "geometry": { "type": "Point", "coordinates": [ 10.725558, 59.911193 ] } },
{ "type": "Feature", "properties": { "AADT": 12779, "raw_name": "Munkedamsveien", "osm_name": "Munkedamsveien", "osm_type": "trunk", "osm_lanes": 3.0, "osm_oneway": null, "osm_distance": 0.24391462012908327, "osm_maxspeed": 50.0, "osmid": 466609373.0 }, "geometry": { "type": "Point", "coordinates": [ 10.725752, 59.911418 ] } },
{ "type": "Feature", "properties": { "AADT": 75490, "raw_name": "E18-FROGNERSTR V/SK", "osm_name": null, "osm_type": "trunk", "osm_lanes": 3.0, "osm_oneway": "True", "osm_distance": 6.5976766729055569, "osm_maxspeed": 80.0, "osmid": 305101154.0 }, "geometry": { "type": "Point", "coordinates": [ 10.698443, 59.914826 ] } },
{ "type": "Feature", "properties": { "AADT": 13106, "raw_name": "Vaterlandstunnelen", "osm_name": null, "osm_type": null, "osm_lanes": null, "osm_oneway": null, "osm_distance": null, "osm_maxspeed": null, "osmid": null }, "geometry": { "type": "Point", "coordinates": [ 10.7493, 59.916004 ] } },
{ "type": "Feature", "properties": { "AADT": 6333, "raw_name": "Finnmarksgata", "osm_name": "Finnmarkgata", "osm_type": "primary", "osm_lanes": 4.0, "osm_oneway": null, "osm_distance": 0.75685190377492928, "osm_maxspeed": 40.0, "osmid": 135234952.0 }, "geometry": { "type": "Point", "coordinates": [ 10.776115, 59.916631 ] } },
{ "type": "Feature", "properties": { "AADT": 12564, "raw_name": "Tvetenveien v/Haugerud", "osm_name": "Tvetenveien", "osm_type": "secondary", "osm_lanes": 2.0, "osm_oneway": null, "osm_distance": 0.66767812823785144, "osm_maxspeed": null, "osmid": 4867742.0 }, "geometry": { "type": "Point", "coordinates": [ 10.8557, 59.922562 ] } },
{ "type": "Feature", "properties": { "AADT": 44879, "raw_name": "Rv. 150 Ulvensplitten", "osm_name": "Ulvensplitten", "osm_type": "trunk_link", "osm_lanes": 1.0, "osm_oneway": "True", "osm_distance": 0.54972944745688312, "osm_maxspeed": 70.0, "osmid": 28307517.0 }, "geometry": { "type": "Point", "coordinates": [ 10.807645, 59.922586 ] } },
{ "type": "Feature", "properties": { "AADT": 17171, "raw_name": "E6 Ulvensplitten rampe Teisen Alnabru", "osm_name": "Ulvensplitten", "osm_type": "trunk_link", "osm_lanes": 1.0, "osm_oneway": "True", "osm_distance": 0.88121212210832012, "osm_maxspeed": 70.0, "osmid": 317265000.0 }, "geometry": { "type": "Point", "coordinates": [ 10.809038, 59.922708 ] } },
{ "type": "Feature", "properties": { "AADT": 8282, "raw_name": "Skårersletta", "osm_name": "Skårersletta", "osm_type": "tertiary", "osm_lanes": null, "osm_oneway": null, "osm_distance": 3.133955277274922, "osm_maxspeed": 30.0, "osmid": 1356195929.0 }, "geometry": { "type": "Point", "coordinates": [ 10.955178, 59.918783 ] } },
{ "type": "Feature", "properties": { "AADT": 7950, "raw_name": "Nordlivn. Lørenskog", "osm_name": "Nordliveien", "osm_type": "secondary", "osm_lanes": 2.0, "osm_oneway": null, "osm_distance": 0.01679114347034227, "osm_maxspeed": 70.0, "osmid": 926316597.0 }, "geometry": { "type": "Point", "coordinates": [ 10.946851, 59.918833 ] } },
{ "type": "Feature", "properties": { "AADT": 16740, "raw_name": "Solheimveien Lørenskog sentrum", "osm_name": "Solheimveien", "osm_type": "secondary", "osm_lanes": 2.0, "osm_oneway": "True", "osm_distance": 2.7122201841654356, "osm_maxspeed": 50.0, "osmid": 22000491.0 }, "geometry": { "type": "Point", "coordinates": [ 10.950167, 59.928587 ] } },
{ "type": "Feature", "properties": { "AADT": 26723, "raw_name": "E6 Alnabru nordgående Ulven Furuset", "osm_name": "Ulvensplitten", "osm_type": "motorway", "osm_lanes": 2.0, "osm_oneway": "True", "osm_distance": 0.26780264519345798, "osm_maxspeed": 80.0, "osmid": 194704708.0 }, "geometry": { "type": "Point", "coordinates": [ 10.828958, 59.922795 ] } },
{ "type": "Feature", "properties": { "AADT": 12463, "raw_name": "E6 Ulvensplitten Rampe Økern Alnabru", "osm_name": "Ulvensplitten", "osm_type": "trunk_link", "osm_lanes": 1.0, "osm_oneway": "True", "osm_distance": 0.27834622077981008, "osm_maxspeed": 70.0, "osmid": 28307520.0 }, "geometry": { "type": "Point", "coordinates": [ 10.809022, 59.922799 ] } },
{ "type": "Feature", "properties": { "AADT": 15836, "raw_name": "E6 Ulvensplitten Rampe Alnabru Teisen", "osm_name": "Ulvensplitten", "osm_type": "trunk_link", "osm_lanes": 1.0, "osm_oneway": "True", "osm_distance": 0.40838297185864347, "osm_maxspeed": 60.0, "osmid": 224742780.0 }, "geometry": { "type": "Point", "coordinates": [ 10.809402, 59.922925 ] } },
{ "type": "Feature", "properties": { "AADT": 23714, "raw_name": "E6 Alnabru nordgående Helsfyr Furuset", "osm_name": null, "osm_type": "motorway", "osm_lanes": 3.0, "osm_oneway": "True", "osm_distance": 4.0601717107026642, "osm_maxspeed": 80.0, "osmid": 4394238.0 }, "geometry": { "type": "Point", "coordinates": [ 10.82835, 59.922954 ] } },
{ "type": "Feature", "properties": { "AADT": 11241, "raw_name": "E6 Ulvensplitten Rampe Alnabru Økern", "osm_name": "Ulvensplitten", "osm_type": "trunk_link", "osm_lanes": 1.0, "osm_oneway": "True", "osm_distance": 0.83762309318143147, "osm_maxspeed": 60.0, "osmid": 4649866.0 }, "geometry": { "type": "Point", "coordinates": [ 10.809383, 59.923027 ] } },
{ "type": "Feature", "properties": { "AADT": 252, "raw_name": "Breivoll sykkel", "osm_name": "Breivollveien", "osm_type": "tertiary", "osm_lanes": 2.0, "osm_oneway": null, "osm_distance": 3.8304889752775142, "osm_maxspeed": 50.0, "osmid": 141233043.0 }, "geometry": { "type": "Point", "coordinates": [ 10.831387, 59.923064 ] } },
{ "type": "Feature", "properties": { "AADT": 23448, "raw_name": "E6 Alnabru sydgående Furuset Helsfyr", "osm_name": null, "osm_type": "motorway", "osm_lanes": 3.0, "osm_oneway": "True", "osm_distance": 3.6149241456089833, "osm_maxspeed": 80.0, "osmid": 4394238.0 }, "geometry": { "type": "Point", "coordinates": [ 10.830461, 59.923406 ] } },
{ "type": "Feature", "properties": { "AADT": 24452, "raw_name": "E6 Alnabru Sydgående Furuset Ulven", "osm_name": "Ulvensplitten", "osm_type": "motorway", "osm_lanes": 2.0, "osm_oneway": "True", "osm_distance": 0.27074257253383338, "osm_maxspeed": 80.0, "osmid": 4394240.0 }, "geometry": { "type": "Point", "coordinates": [ 10.830182, 59.923599 ] } },
{ "type": "Feature", "properties": { "AADT": 4059, "raw_name": "Lystad", "osm_name": "Rovenveien", "osm_type": "primary", "osm_lanes": null, "osm_oneway": null, "osm_distance": 0.18977343191448526, "osm_maxspeed": 80.0, "osmid": 883868906.0 }, "geometry": { "type": "Point", "coordinates": [ 11.203197, 59.954548 ] } },
{ "type": "Feature", "properties": { "AADT": 68048, "raw_name": "Skedsmovollen", "osm_name": null, "osm_type": "motorway", "osm_lanes": 2.0, "osm_oneway": "True", "osm_distance": 7.5138466117312168, "osm_maxspeed": 100.0, "osmid": 38458880.0 }, "geometry": { "type": "Point", "coordinates": [ 11.046334, 60.003356 ] } },
{ "type": "Feature", "properties": { "AADT": 15950, "raw_name": "Skedsmokorset", "osm_name": "Skedsmo kirkevei", "osm_type": "primary", "osm_lanes": 3.0, "osm_oneway": null, "osm_distance": 0.073651750070519273, "osm_maxspeed": 50.0, "osmid": 23161300.0 }, "geometry": { "type": "Point", "coordinates": [ 11.034271, 60.003567 ] } },
{ "type": "Feature", "properties": { "AADT": 1794, "raw_name": "Værhaug", "osm_name": "Solbergveien", "osm_type": "secondary", "osm_lanes": null, "osm_oneway": null, "osm_distance": 0.264412037251543, "osm_maxspeed": 60.0, "osmid": 11715832.0 }, "geometry": { "type": "Point", "coordinates": [ 10.999854, 60.005536 ] } },
{ "type": "Feature", "properties": { "AADT": 8602, "raw_name": "Hval", "osm_name": "Haldenveien", "osm_type": "primary", "osm_lanes": null, "osm_oneway": null, "osm_distance": 0.30211574459998375, "osm_maxspeed": 80.0, "osmid": 182356968.0 }, "geometry": { "type": "Point", "coordinates": [ 11.126807, 60.019579 ] } },
{ "type": "Feature", "properties": { "AADT": 62049, "raw_name": "Leira bru", "osm_name": null, "osm_type": "motorway", "osm_lanes": 2.0, "osm_oneway": "True", "osm_distance": 5.7473763007700081, "osm_maxspeed": 100.0, "osmid": 38458880.0 }, "geometry": { "type": "Point", "coordinates": [ 11.096486, 60.029546 ] } },
{ "type": "Feature", "properties": { "AADT": 59505, "raw_name": "Kløfta sør", "osm_name": null, "osm_type": "motorway", "osm_lanes": 2.0, "osm_oneway": "True", "osm_distance": 10.473032068265162, "osm_maxspeed": 110.0, "osmid": 38459541.0 }, "geometry": { "type": "Point", "coordinates": [ 11.154149, 60.069808 ] } },
{ "type": "Feature", "properties": { "AADT": 793, "raw_name": "Iingjerdalen", "osm_name": "Kongsvingervegen", "osm_type": "secondary", "osm_lanes": null, "osm_oneway": null, "osm_distance": 0.36714457368757963, "osm_maxspeed": 80.0, "osmid": 11706575.0 }, "geometry": { "type": "Point", "coordinates": [ 11.243333, 60.089679 ] } },
{ "type": "Feature", "properties": { "AADT": 1301, "raw_name": "Borgenkrysset avrampe", "osm_name": null, "osm_type": "trunk_link", "osm_lanes": null, "osm_oneway": "True", "osm_distance": 0.67180605096426482, "osm_maxspeed": 100.0, "osmid": 4855645.0 }, "geometry": { "type": "Point", "coordinates": [ 11.212782, 60.091735 ] } },
{ "type": "Feature", "properties": { "AADT": 11288, "raw_name": "Borgenkrysset", "osm_name": null, "osm_type": "trunk", "osm_lanes": 2.0, "osm_oneway": "True", "osm_distance": 2.2367885411666557, "osm_maxspeed": 100.0, "osmid": 22999135.0 }, "geometry": { "type": "Point", "coordinates": [ 11.212733, 60.091815 ] } },
{ "type": "Feature", "properties": { "AADT": 1270, "raw_name": "Borgenkrysset pårampe", "osm_name": null, "osm_type": "trunk_link", "osm_lanes": null, "osm_oneway": "True", "osm_distance": 0.43041955182117497, "osm_maxspeed": 100.0, "osmid": 4855585.0 }, "geometry": { "type": "Point", "coordinates": [ 11.212692, 60.091898 ] } },
{ "type": "Feature", "properties": { "AADT": 4403, "raw_name": "Trøgstad gård", "osm_name": "Trondheimsvegen - Kløfta", "osm_type": "secondary", "osm_lanes": null, "osm_oneway": null, "osm_distance": 0.10103027075947306, "osm_maxspeed": 80.0, "osmid": 200794220.0 }, "geometry": { "type": "Point", "coordinates": [ 11.154202, 60.124356 ] } },
{ "type": "Feature", "properties": { "AADT": 16087, "raw_name": "Langeland", "osm_name": "Trondheimsvegen - Jessheim", "osm_type": "secondary", "osm_lanes": null, "osm_oneway": "True", "osm_distance": 1.4697080000172102, "osm_maxspeed": 60.0, "osmid": 881226815.0 }, "geometry": { "type": "Point", "coordinates": [ 11.16312, 60.132634 ] } },
{ "type": "Feature", "properties": { "AADT": 12571, "raw_name": "Dølihagan/Trondheimsvegen", "osm_name": "Trondheimsvegen - Jessheim", "osm_type": "secondary", "osm_lanes": 2.0, "osm_oneway": null, "osm_distance": 0.0089899700371366097, "osm_maxspeed": 50.0, "osmid": 1149578463.0 }, "geometry": { "type": "Point", "coordinates": [ 11.173287, 60.137746 ] } },
{ "type": "Feature", "properties": { "AADT": 13096, "raw_name": "Skibakk Kløfta", "osm_name": "Kongsvingervegen", "osm_type": "secondary", "osm_lanes": null, "osm_oneway": "True", "osm_distance": 1.2700444442398435, "osm_maxspeed": 50.0, "osmid": 691672383.0 }, "geometry": { "type": "Point", "coordinates": [ 11.147981, 60.079471 ] } },
{ "type": "Feature", "properties": { "AADT": 47, "raw_name": "Trøgstad gård sykkel", "osm_name": "Trondheimsvegen - Kløfta", "osm_type": "secondary", "osm_lanes": null, "osm_oneway": null, "osm_distance": 11.380130264214328, "osm_maxspeed": 80.0, "osmid": 200794220.0 }, "geometry": { "type": "Point", "coordinates": [ 11.154061, 60.124381 ] } },
{ "type": "Feature", "properties": { "AADT": 6207, "raw_name": "SAND ULLENSAKER", "osm_name": "Gardermovegen", "osm_type": "primary", "osm_lanes": null, "osm_oneway": null, "osm_distance": 0.00095668761476516598, "osm_maxspeed": 50.0, "osmid": 380884561.0 }, "geometry": { "type": "Point", "coordinates": [ 11.139523, 60.151207 ] } },
{ "type": "Feature", "properties": { "AADT": 82, "raw_name": "Sand Ullensaker sykkel", "osm_name": "Gardermovegen", "osm_type": "primary", "osm_lanes": null, "osm_oneway": null, "osm_distance": 4.3257755428935081, "osm_maxspeed": 50.0, "osmid": 380884561.0 }, "geometry": { "type": "Point", "coordinates": [ 11.139402, 60.151268 ] } },
{ "type": "Feature", "properties": { "AADT": 11658, "raw_name": "Jessheim sentrum", "osm_name": "Algarheimsvegen", "osm_type": "primary", "osm_lanes": 1.0, "osm_oneway": "True", "osm_distance": 1.3461359741677592, "osm_maxspeed": 50.0, "osmid": 344739885.0 }, "geometry": { "type": "Point", "coordinates": [ 11.178028, 60.141211 ] } },
{ "type": "Feature", "properties": { "AADT": 43311, "raw_name": "Jessheim E6", "osm_name": null, "osm_type": "motorway", "osm_lanes": 2.0, "osm_oneway": "True", "osm_distance": 10.008158038828896, "osm_maxspeed": 110.0, "osmid": 472052981.0 }, "geometry": { "type": "Point", "coordinates": [ 11.154225, 60.141624 ] } },
{ "type": "Feature", "properties": { "AADT": 8676, "raw_name": "Nordby skole", "osm_name": "Trondheimsvegen - Jessheim", "osm_type": "secondary", "osm_lanes": null, "osm_oneway": null, "osm_distance": 0.35947716877168018, "osm_maxspeed": 50.0, "osmid": 437025969.0 }, "geometry": { "type": "Point", "coordinates": [ 11.170528, 60.150181 ] } },
{ "type": "Feature", "properties": { "AADT": 143, "raw_name": "Nordby skole sykkel", "osm_name": "Trondheimsvegen - Jessheim", "osm_type": "secondary", "osm_lanes": null, "osm_oneway": null, "osm_distance": 13.533538048621915, "osm_maxspeed": 50.0, "osmid": 437025969.0 }, "geometry": { "type": "Point", "coordinates": [ 11.170374, 60.15022 ] } },
{ "type": "Feature", "properties": { "AADT": 9095, "raw_name": "Industriveien Jessheim", "osm_name": "Jessheimvegen", "osm_type": "primary", "osm_lanes": null, "osm_oneway": null, "osm_distance": 0.21042020745901963, "osm_maxspeed": 80.0, "osmid": 381964982.0 }, "geometry": { "type": "Point", "coordinates": [ 11.188145, 60.151984 ] } },
{ "type": "Feature", "properties": { "AADT": 216, "raw_name": "Industriveien Jessheim sykkel", "osm_name": "Jessheimvegen", "osm_type": "primary", "osm_lanes": null, "osm_oneway": "True", "osm_distance": 20.778386138497233, "osm_maxspeed": 80.0, "osmid": 381964981.0 }, "geometry": { "type": "Point", "coordinates": [ 11.187894, 60.152147 ] } },
{ "type": "Feature", "properties": { "AADT": 23655, "raw_name": "Jessheim nord flyplasskrysset", "osm_name": null, "osm_type": "motorway", "osm_lanes": 2.0, "osm_oneway": "True", "osm_distance": 8.5432365392372613, "osm_maxspeed": 110.0, "osmid": 183053834.0 }, "geometry": { "type": "Point", "coordinates": [ 11.154181, 60.160321 ] } },
{ "type": "Feature", "properties": { "AADT": 1770, "raw_name": "Jessheim nord fra Gardermoen", "osm_name": null, "osm_type": "motorway_link", "osm_lanes": 1.0, "osm_oneway": "True", "osm_distance": 0.029460735343370556, "osm_maxspeed": 80.0, "osmid": 325249293.0 }, "geometry": { "type": "Point", "coordinates": [ 11.154934, 60.160512 ] } },
{ "type": "Feature", "properties": { "AADT": 17016, "raw_name": "Grønvoll v/bussholdeplass", "osm_name": "Jessheimvegen", "osm_type": "primary", "osm_lanes": null, "osm_oneway": null, "osm_distance": 0.22641185390531146, "osm_maxspeed": 60.0, "osmid": 137045000.0 }, "geometry": { "type": "Point", "coordinates": [ 11.167851, 60.164718 ] } },
{ "type": "Feature", "properties": { "AADT": 13145, "raw_name": "Sykehuskrysset Jessheim", "osm_name": "Jessheimvegen", "osm_type": "primary", "osm_lanes": null, "osm_oneway": "True", "osm_distance": 2.0680113039566845, "osm_maxspeed": 60.0, "osmid": 137045004.0 }, "geometry": { "type": "Point", "coordinates": [ 11.16615, 60.164855 ] } },
{ "type": "Feature", "properties": { "AADT": 763, "raw_name": "Jessheim nord mot Gardermoen", "osm_name": null, "osm_type": "motorway_link", "osm_lanes": 1.0, "osm_oneway": "True", "osm_distance": 0.21305651756818281, "osm_maxspeed": 100.0, "osmid": 1149578435.0 }, "geometry": { "type": "Point", "coordinates": [ 11.153762, 60.160397 ] } },
{ "type": "Feature", "properties": { "AADT": 343, "raw_name": "Gardermoen kontroll avrampe", "osm_name": null, "osm_type": "motorway_link", "osm_lanes": 1.0, "osm_oneway": "True", "osm_distance": 3.7708422222207343, "osm_maxspeed": null, "osmid": 64620066.0 }, "geometry": { "type": "Point", "coordinates": [ 11.116957, 60.167339 ] } },
{ "type": "Feature", "properties": { "AADT": 26843, "raw_name": "Gardermoen kontroll", "osm_name": null, "osm_type": "motorway", "osm_lanes": 2.0, "osm_oneway": "True", "osm_distance": 4.651110729514758, "osm_maxspeed": 100.0, "osmid": 208860962.0 }, "geometry": { "type": "Point", "coordinates": [ 11.115952, 60.167675 ] } },
{ "type": "Feature", "properties": { "AADT": 785, "raw_name": "Gardermoen kontroll pårampe", "osm_name": null, "osm_type": "motorway_link", "osm_lanes": 1.0, "osm_oneway": "True", "osm_distance": 0.41602168023225633, "osm_maxspeed": null, "osmid": 27549025.0 }, "geometry": { "type": "Point", "coordinates": [ 11.11536, 60.16792 ] } },
{ "type": "Feature", "properties": { "AADT": 4826, "raw_name": "Vallhall", "osm_name": "Jessheimvegen", "osm_type": "secondary", "osm_lanes": 2.0, "osm_oneway": null, "osm_distance": 0.07211885431638472, "osm_maxspeed": 80.0, "osmid": 22975936.0 }, "geometry": { "type": "Point", "coordinates": [ 11.14413, 60.168949 ] } },
{ "type": "Feature", "properties": { "AADT": 15134, "raw_name": "Gardermoen sør", "osm_name": null, "osm_type": "trunk", "osm_lanes": null, "osm_oneway": null, "osm_distance": 0.83043046214930516, "osm_maxspeed": 70.0, "osmid": 43532600.0 }, "geometry": { "type": "Point", "coordinates": [ 11.078818, 60.178553 ] } },
{ "type": "Feature", "properties": { "AADT": 3623, "raw_name": "OSL EV16 AVRAMPE", "osm_name": "Lufthavnvegen", "osm_type": "motorway_link", "osm_lanes": 1.0, "osm_oneway": "True", "osm_distance": 0.80817514885681008, "osm_maxspeed": 80.0, "osmid": 22975870.0 }, "geometry": { "type": "Point", "coordinates": [ 11.094435, 60.184281 ] } },
{ "type": "Feature", "properties": { "AADT": 10997, "raw_name": "Kneppe", "osm_name": null, "osm_type": "trunk", "osm_lanes": null, "osm_oneway": null, "osm_distance": 0.3214521027092303, "osm_maxspeed": 70.0, "osmid": 848919314.0 }, "geometry": { "type": "Point", "coordinates": [ 11.067845, 60.208168 ] } },
{ "type": "Feature", "properties": { "AADT": 5579, "raw_name": "Rv 4 Bjerke Sydgående Pårampe", "osm_name": null, "osm_type": "trunk_link", "osm_lanes": 1.0, "osm_oneway": "True", "osm_distance": 0.13538647530590253, "osm_maxspeed": null, "osmid": 4982389.0 }, "geometry": { "type": "Point", "coordinates": [ 10.808771, 59.942788 ] } },
{ "type": "Feature", "properties": { "AADT": 1520, "raw_name": "Rv 4 Bjerke Sydgående Avrampe", "osm_name": "Trondheimsveien", "osm_type": "trunk_link", "osm_lanes": 2.0, "osm_oneway": "True", "osm_distance": 0.96776454138035117, "osm_maxspeed": null, "osmid": 48859701.0 }, "geometry": { "type": "Point", "coordinates": [ 10.81009, 59.94293 ] } },
{ "type": "Feature", "properties": { "AADT": 13008, "raw_name": "Nedre Kalbakkvei", "osm_name": "Nedre Kalbakkvei", "osm_type": "secondary", "osm_lanes": null, "osm_oneway": null, "osm_distance": 0.017477330503087706, "osm_maxspeed": 50.0, "osmid": 410103304.0 }, "geometry": { "type": "Point", "coordinates": [ 10.862771, 59.945301 ] } },
{ "type": "Feature", "properties": { "AADT": 26511, "raw_name": "Rv. 4 Rødtvet", "osm_name": "Trondheimsveien", "osm_type": "trunk", "osm_lanes": 2.0, "osm_oneway": "True", "osm_distance": 3.2476058297583266, "osm_maxspeed": 70.0, "osmid": 228251018.0 }, "geometry": { "type": "Point", "coordinates": [ 10.852639, 59.947857 ] } },
{ "type": "Feature", "properties": { "AADT": 6812, "raw_name": "Ø.Akersvei rampe mot Haugenstua", "osm_name": null, "osm_type": "motorway_link", "osm_lanes": 1.0, "osm_oneway": "True", "osm_distance": 0.014039093463465021, "osm_maxspeed": 80.0, "osmid": 4242588.0 }, "geometry": { "type": "Point", "coordinates": [ 10.946845, 59.948869 ] } },
{ "type": "Feature", "properties": { "AADT": 129, "raw_name": "Grorud sykkel", "osm_name": "Maria Dehlis vei", "osm_type": "unclassified", "osm_lanes": null, "osm_oneway": null, "osm_distance": 4.1230233405652479, "osm_maxspeed": null, "osmid": 348774303.0 }, "geometry": { "type": "Point", "coordinates": [ 10.895981, 59.950494 ] } },
{ "type": "Feature", "properties": { "AADT": 5724, "raw_name": "Grorud Rampe mot Haugenstua", "osm_name": "Østre Aker vei", "osm_type": "trunk", "osm_lanes": 3.0, "osm_oneway": "True", "osm_distance": 7.5545454740285525, "osm_maxspeed": 80.0, "osmid": 98820628.0 }, "geometry": { "type": "Point", "coordinates": [ 10.885944, 59.950568 ] } },
{ "type": "Feature", "properties": { "AADT": 22685, "raw_name": "Grorud Stasjon 1,2,3,4", "osm_name": "Østre Aker vei", "osm_type": "trunk", "osm_lanes": 3.0, "osm_oneway": "True", "osm_distance": 4.1772112374522949, "osm_maxspeed": 80.0, "osmid": 98820628.0 }, "geometry": { "type": "Point", "coordinates": [ 10.88577, 59.950602 ] } },
{ "type": "Feature", "properties": { "AADT": 1824, "raw_name": "Grorud rampe mot Økern", "osm_name": null, "osm_type": "trunk_link", "osm_lanes": 1.0, "osm_oneway": "True", "osm_distance": 0.78899958403605286, "osm_maxspeed": null, "osmid": 82634590.0 }, "geometry": { "type": "Point", "coordinates": [ 10.885272, 59.950656 ] } },
{ "type": "Feature", "properties": { "AADT": 22, "raw_name": "Bråteveien sykkel", "osm_name": "Bråteveien", "osm_type": "secondary", "osm_lanes": null, "osm_oneway": null, "osm_distance": 9.6662168278075118, "osm_maxspeed": 50.0, "osmid": 102191008.0 }, "geometry": { "type": "Point", "coordinates": [ 10.991849, 59.968735 ] } },
{ "type": "Feature", "properties": { "AADT": 5143, "raw_name": "Bråteveien", "osm_name": "Bråteveien", "osm_type": "secondary", "osm_lanes": null, "osm_oneway": null, "osm_distance": 0.058074393564392778, "osm_maxspeed": 50.0, "osmid": 102191008.0 }, "geometry": { "type": "Point", "coordinates": [ 10.991489, 59.968824 ] } },
{ "type": "Feature", "properties": { "AADT": 74661, "raw_name": "Hvam sør", "osm_name": null, "osm_type": "motorway", "osm_lanes": 4.0, "osm_oneway": "True", "osm_distance": 12.018774244084222, "osm_maxspeed": 90.0, "osmid": 32861930.0 }, "geometry": { "type": "Point", "coordinates": [ 10.989173, 59.969809 ] } },
{ "type": "Feature", "properties": { "AADT": 17302, "raw_name": "Hellerudsletta", "osm_name": "Trondheimsveien", "osm_type": "primary", "osm_lanes": null, "osm_oneway": null, "osm_distance": 0.20846763893615053, "osm_maxspeed": 60.0, "osmid": 172688378.0 }, "geometry": { "type": "Point", "coordinates": [ 10.984056, 59.981403 ] } },
{ "type": "Feature", "properties": { "AADT": 19378, "raw_name": "Gjelleråsen", "osm_name": "Trondheimsveien", "osm_type": "trunk", "osm_lanes": null, "osm_oneway": "True", "osm_distance": 3.878002244232277, "osm_maxspeed": 60.0, "osmid": 376812458.0 }, "geometry": { "type": "Point", "coordinates": [ 10.928465, 59.986366 ] } },
{ "type": "Feature", "properties": { "AADT": 18451, "raw_name": "Gjelleråsen", "osm_name": "Trondheimsveien", "osm_type": "primary", "osm_lanes": 2.0, "osm_oneway": "True", "osm_distance": 2.2196541819329552, "osm_maxspeed": 60.0, "osmid": 1161974336.0 }, "geometry": { "type": "Point", "coordinates": [ 10.933352, 59.989457 ] } },
{ "type": "Feature", "properties": { "AADT": 10998, "raw_name": "Gamle Rv. 4 Hagan", "osm_name": "Nittedalsveien", "osm_type": "secondary", "osm_lanes": 3.0, "osm_oneway": null, "osm_distance": 1.3804400656423743, "osm_maxspeed": 60.0, "osmid": 4982076.0 }, "geometry": { "type": "Point", "coordinates": [ 10.925266, 59.992677 ] } },
{ "type": "Feature", "properties": { "AADT": 15227, "raw_name": "Hagantunnelen", "osm_name": "Hagantunnelen", "osm_type": "trunk", "osm_lanes": null, "osm_oneway": null, "osm_distance": 0.020470378592953649, "osm_maxspeed": 70.0, "osmid": 23714620.0 }, "geometry": { "type": "Point", "coordinates": [ 10.912145, 60.00084 ] } },
{ "type": "Feature", "properties": { "AADT": 1880, "raw_name": "Rud", "osm_name": "Nittedalsveien", "osm_type": "secondary", "osm_lanes": null, "osm_oneway": null, "osm_distance": 0.32401290792670118, "osm_maxspeed": 60.0, "osmid": 11715831.0 }, "geometry": { "type": "Point", "coordinates": [ 10.907813, 60.020065 ] } },
{ "type": "Feature", "properties": { "AADT": 16660, "raw_name": "Slattum", "osm_name": null, "osm_type": "trunk", "osm_lanes": null, "osm_oneway": "True", "osm_distance": 1.4449767119970072, "osm_maxspeed": 80.0, "osmid": 376295657.0 }, "geometry": { "type": "Point", "coordinates": [ 10.908223, 60.020181 ] } },
{ "type": "Feature", "properties": { "AADT": 10843, "raw_name": "Slemdalsveien", "osm_name": "Slemdalsveien", "osm_type": "secondary", "osm_lanes": 2.0, "osm_oneway": null, "osm_distance": 0.047068846574914822, "osm_maxspeed": 50.0, "osmid": 4262961.0 }, "geometry": { "type": "Point", "coordinates": [ 10.699009, 59.94942 ] } },
{ "type": "Feature", "properties": { "AADT": 23046, "raw_name": "Tåsentunellen Østgående Løp", "osm_name": "Tåsentunnelen", "osm_type": "trunk", "osm_lanes": 2.0, "osm_oneway": "True", "osm_distance": 0.20773064462889632, "osm_maxspeed": 70.0, "osmid": 4341399.0 }, "geometry": { "type": "Point", "coordinates": [ 10.740503, 59.951082 ] } },
{ "type": "Feature", "properties": { "AADT": 22894, "raw_name": "Tåsentunellen Vestgående Løp", "osm_name": "Tåsentunnelen", "osm_type": "trunk", "osm_lanes": 2.0, "osm_oneway": "True", "osm_distance": 0.02535021026120881, "osm_maxspeed": 70.0, "osmid": 311648213.0 }, "geometry": { "type": "Point", "coordinates": [ 10.74056, 59.951217 ] } },
{ "type": "Feature", "properties": { "AADT": 60984, "raw_name": "ST.RINGV V/NYDALSBR", "osm_name": "Rolf Wickstrøms vei", "osm_type": "trunk", "osm_lanes": 2.0, "osm_oneway": "True", "osm_distance": 2.0363569190494584, "osm_maxspeed": 70.0, "osmid": 70287956.0 }, "geometry": { "type": "Point", "coordinates": [ 10.767581, 59.953374 ] } },
{ "type": "Feature", "properties": { "AADT": 7186, "raw_name": "Stryken", "osm_name": null, "osm_type": "trunk", "osm_lanes": null, "osm_oneway": null, "osm_distance": 0.31733248846577033, "osm_maxspeed": 80.0, "osmid": 299925374.0 }, "geometry": { "type": "Point", "coordinates": [ 10.721254, 60.157062 ] } },
{ "type": "Feature", "properties": { "AADT": 994, "raw_name": "Strekan", "osm_name": "Hadelandsvegen", "osm_type": "secondary", "osm_lanes": null, "osm_oneway": null, "osm_distance": 0.36995040973190946, "osm_maxspeed": 60.0, "osmid": 378138398.0 }, "geometry": { "type": "Point", "coordinates": [ 10.724708, 60.159254 ] } },
{ "type": "Feature", "properties": { "AADT": 25403, "raw_name": "Ammerud", "osm_name": "Trondheimsveien", "osm_type": "trunk", "osm_lanes": 2.0, "osm_oneway": "True", "osm_distance": 2.6231379804818675, "osm_maxspeed": 60.0, "osmid": 196227441.0 }, "geometry": { "type": "Point", "coordinates": [ 10.879109, 59.959309 ] } },
{ "type": "Feature", "properties": { "AADT": 4650, "raw_name": "Stasjonsveien N1", "osm_name": "Stasjonsveien", "osm_type": "secondary", "osm_lanes": null, "osm_oneway": null, "osm_distance": 0.53851434265326026, "osm_maxspeed": 40.0, "osmid": 714931693.0 }, "geometry": { "type": "Point", "coordinates": [ 10.871635, 60.05115 ] } },
{ "type": "Feature", "properties": { "AADT": 9686, "raw_name": "Trebyen (Hakadal)", "osm_name": "Hadelandsveien", "osm_type": "trunk", "osm_lanes": null, "osm_oneway": null, "osm_distance": 0.060723572523621032, "osm_maxspeed": 70.0, "osmid": 197788356.0 }, "geometry": { "type": "Point", "coordinates": [ 10.842627, 60.11332 ] } },
{ "type": "Feature", "properties": { "AADT": 2252, "raw_name": "Leirdalen", "osm_name": "Fjellvegen", "osm_type": "secondary", "osm_lanes": null, "osm_oneway": null, "osm_distance": 0.00290719482893867, "osm_maxspeed": 40.0, "osmid": 163978180.0 }, "geometry": { "type": "Point", "coordinates": [ 10.99955, 60.083135 ] } },
{ "type": "Feature", "properties": { "AADT": 7418, "raw_name": "Gruatunnelen", "osm_name": null, "osm_type": "trunk", "osm_lanes": null, "osm_oneway": null, "osm_distance": 0.28520611526773593, "osm_maxspeed": 80.0, "osmid": 3236595.0 }, "geometry": { "type": "Point", "coordinates": [ 10.676931, 60.251608 ] } },
{ "type": "Feature", "properties": { "AADT": 9727, "raw_name": "Lierkrysset", "osm_name": "Trondheimsvegen - Jessheim", "osm_type": "secondary", "osm_lanes": null, "osm_oneway": null, "osm_distance": 0.72434309264812402, "osm_maxspeed": 80.0, "osmid": 701396482.0 }, "geometry": { "type": "Point", "coordinates": [ 11.1706, 60.180355 ] } },
{ "type": "Feature", "properties": { "AADT": 678, "raw_name": "Mogreinakrysset avrampe", "osm_name": null, "osm_type": "motorway_link", "osm_lanes": 1.0, "osm_oneway": "True", "osm_distance": 3.2236371277381672, "osm_maxspeed": 80.0, "osmid": 23370073.0 }, "geometry": { "type": "Point", "coordinates": [ 11.172862, 60.231851 ] } },
{ "type": "Feature", "properties": { "AADT": 1347, "raw_name": "Mogreinakrysset pårampe", "osm_name": null, "osm_type": "motorway_link", "osm_lanes": 1.0, "osm_oneway": "True", "osm_distance": 3.1696594855243623, "osm_maxspeed": 80.0, "osmid": 136182396.0 }, "geometry": { "type": "Point", "coordinates": [ 11.173913, 60.231953 ] } },
{ "type": "Feature", "properties": { "AADT": 4145, "raw_name": "Mogreinakrysset", "osm_name": "Trondheimsvegen", "osm_type": "secondary", "osm_lanes": null, "osm_oneway": null, "osm_distance": 0.17590321288592853, "osm_maxspeed": 60.0, "osmid": 878849565.0 }, "geometry": { "type": "Point", "coordinates": [ 11.176053, 60.232225 ] } },
{ "type": "Feature", "properties": { "AADT": 22167, "raw_name": "Mogreinakrysset", "osm_name": null, "osm_type": "motorway", "osm_lanes": 2.0, "osm_oneway": "True", "osm_distance": 10.330697401466823, "osm_maxspeed": 110.0, "osmid": 81241357.0 }, "geometry": { "type": "Point", "coordinates": [ 11.173484, 60.232403 ] } },
{ "type": "Feature", "properties": { "AADT": 7446, "raw_name": "OSL EV16 GARDERMOEN MED", "osm_name": "Lufthavnvegen", "osm_type": "motorway", "osm_lanes": 2.0, "osm_oneway": "True", "osm_distance": 0.26105121215055554, "osm_maxspeed": 90.0, "osmid": 41293349.0 }, "geometry": { "type": "Point", "coordinates": [ 11.093677, 60.184493 ] } },
{ "type": "Feature", "properties": { "AADT": 8502, "raw_name": "OSL EV16 GARDERMOEN MOT", "osm_name": "Lufthavnvegen", "osm_type": "motorway", "osm_lanes": 2.0, "osm_oneway": "True", "osm_distance": 0.35142175283596838, "osm_maxspeed": 90.0, "osmid": 22976561.0 }, "geometry": { "type": "Point", "coordinates": [ 11.09342, 60.184601 ] } },
{ "type": "Feature", "properties": { "AADT": 2940, "raw_name": "OSL EV16 PÅRAMPE", "osm_name": "Lufthavnvegen", "osm_type": "motorway_link", "osm_lanes": 1.0, "osm_oneway": "True", "osm_distance": 0.11551530052857441, "osm_maxspeed": 90.0, "osmid": 64620017.0 }, "geometry": { "type": "Point", "coordinates": [ 11.093001, 60.18465 ] } },
{ "type": "Feature", "properties": { "AADT": 23051, "raw_name": "Bj. Bjørnsonsgt", "osm_name": "Bjørnstjerne Bjørnsons gate", "osm_type": "trunk", "osm_lanes": 2.0, "osm_oneway": "True", "osm_distance": 3.4539063502509504, "osm_maxspeed": 50.0, "osmid": 30080672.0 }, "geometry": { "type": "Point", "coordinates": [ 10.214514, 59.732242 ] } },
{ "type": "Feature", "properties": { "AADT": 19610, "raw_name": "Strømsåstunnelen", "osm_name": "Strømsåstunnelen", "osm_type": "trunk", "osm_lanes": 2.0, "osm_oneway": null, "osm_distance": 0.16324112823194414, "osm_maxspeed": 70.0, "osmid": 13716683.0 }, "geometry": { "type": "Point", "coordinates": [ 10.182447, 59.731768 ] } },
{ "type": "Feature", "properties": { "AADT": 11006, "raw_name": "Konnerudgata", "osm_name": "Konnerudgata", "osm_type": "secondary", "osm_lanes": 3.0, "osm_oneway": null, "osm_distance": 0.22269100050881221, "osm_maxspeed": 70.0, "osmid": 88661789.0 }, "geometry": { "type": "Point", "coordinates": [ 10.168532, 59.735509 ] } },
{ "type": "Feature", "properties": { "AADT": 120, "raw_name": "Kullkompaniet", "osm_name": null, "osm_type": null, "osm_lanes": null, "osm_oneway": null, "osm_distance": null, "osm_maxspeed": null, "osmid": null }, "geometry": { "type": "Point", "coordinates": [ 10.218256, 59.734299 ] } },
{ "type": "Feature", "properties": { "AADT": 8941, "raw_name": "Strandveien ", "osm_name": "Nedre Strandgate", "osm_type": "tertiary", "osm_lanes": 2.0, "osm_oneway": null, "osm_distance": 0.082838026608126683, "osm_maxspeed": 40.0, "osmid": 436354357.0 }, "geometry": { "type": "Point", "coordinates": [ 10.216939, 59.740446 ] } },
{ "type": "Feature", "properties": { "AADT": 7668, "raw_name": "Prof.Smiths Alle", "osm_name": "Professor Smiths alle", "osm_type": "residential", "osm_lanes": null, "osm_oneway": null, "osm_distance": 0.22448127859100925, "osm_maxspeed": null, "osmid": 24096126.0 }, "geometry": { "type": "Point", "coordinates": [ 10.168872, 59.740283 ] } },
{ "type": "Feature", "properties": { "AADT": 21532, "raw_name": "Kreftingsgate", "osm_name": "Kreftings gate", "osm_type": "primary", "osm_lanes": 2.0, "osm_oneway": "True", "osm_distance": 3.0909784269113141, "osm_maxspeed": 50.0, "osmid": 1020230843.0 }, "geometry": { "type": "Point", "coordinates": [ 10.190509, 59.743192 ] } },
{ "type": "Feature", "properties": { "AADT": 18409, "raw_name": "Øvre Sund bru", "osm_name": null, "osm_type": "primary", "osm_lanes": 2.0, "osm_oneway": "True", "osm_distance": 4.2533733627082055, "osm_maxspeed": 50.0, "osmid": 134463934.0 }, "geometry": { "type": "Point", "coordinates": [ 10.189281, 59.743885 ] } },
{ "type": "Feature", "properties": { "AADT": 9310, "raw_name": "Gulskogen", "osm_name": "Nedre Eikervei", "osm_type": "secondary", "osm_lanes": 2.0, "osm_oneway": null, "osm_distance": 0.031192480699161612, "osm_maxspeed": 50.0, "osmid": 330374483.0 }, "geometry": { "type": "Point", "coordinates": [ 10.168186, 59.745181 ] } },
{ "type": "Feature", "properties": { "AADT": 8939, "raw_name": "Hauges gate", "osm_name": "Hauges gate", "osm_type": "tertiary", "osm_lanes": 2.0, "osm_oneway": null, "osm_distance": 0.28699363111203069, "osm_maxspeed": 40.0, "osmid": 385044737.0 }, "geometry": { "type": "Point", "coordinates": [ 10.197829, 59.746529 ] } },
{ "type": "Feature", "properties": { "AADT": 10240, "raw_name": "Landfalløya bru syd", "osm_name": "Øvre Eikervei", "osm_type": "secondary", "osm_lanes": 2.0, "osm_oneway": null, "osm_distance": 0.32296743103708203, "osm_maxspeed": 50.0, "osmid": 24351072.0 }, "geometry": { "type": "Point", "coordinates": [ 10.163274, 59.746912 ] } },
{ "type": "Feature", "properties": { "AADT": 4029, "raw_name": "Daler", "osm_name": "Drammensveien", "osm_type": "secondary", "osm_lanes": null, "osm_oneway": null, "osm_distance": 0.071949885570719144, "osm_maxspeed": 70.0, "osmid": 356855504.0 }, "geometry": { "type": "Point", "coordinates": [ 10.071892, 59.750653 ] } },
{ "type": "Feature", "properties": { "AADT": 7518, "raw_name": "Mjøndalen", "osm_name": null, "osm_type": "trunk", "osm_lanes": 1.0, "osm_oneway": "True", "osm_distance": 1.8842525489231017, "osm_maxspeed": 80.0, "osmid": 726582049.0 }, "geometry": { "type": "Point", "coordinates": [ 10.013042, 59.752018 ] } },
{ "type": "Feature", "properties": { "AADT": 15891, "raw_name": "Nedre Eiker bru nord", "osm_name": null, "osm_type": "primary", "osm_lanes": null, "osm_oneway": null, "osm_distance": 0.11100328881874728, "osm_maxspeed": 80.0, "osmid": 8117806.0 }, "geometry": { "type": "Point", "coordinates": [ 10.029064, 59.755504 ] } },
{ "type": "Feature", "properties": { "AADT": 204, "raw_name": "Gml. Lierstranda sykkel", "osm_name": "Strandveien", "osm_type": "primary", "osm_lanes": 2.0, "osm_oneway": "True", "osm_distance": 10.205652773778905, "osm_maxspeed": 60.0, "osmid": 706171394.0 }, "geometry": { "type": "Point", "coordinates": [ 10.236702, 59.746276 ] } },
{ "type": "Feature", "properties": { "AADT": 20476, "raw_name": "Lierstranda", "osm_name": "Strandveien", "osm_type": "primary", "osm_lanes": 1.0, "osm_oneway": "True", "osm_distance": 1.3605421685206964, "osm_maxspeed": 60.0, "osmid": 741660937.0 }, "geometry": { "type": "Point", "coordinates": [ 10.23871, 59.746669 ] } },
{ "type": "Feature", "properties": { "AADT": 150, "raw_name": "Bruusgaards vei", "osm_name": "Bruusgaards vei", "osm_type": "unclassified", "osm_lanes": null, "osm_oneway": null, "osm_distance": 10.763714083214548, "osm_maxspeed": 40.0, "osmid": 784943921.0 }, "geometry": { "type": "Point", "coordinates": [ 10.236587, 59.747036 ] } },
{ "type": "Feature", "properties": { "AADT": 16040, "raw_name": "Bragernestunnelen", "osm_name": "Bragernestunnelen", "osm_type": "primary", "osm_lanes": 2.0, "osm_oneway": null, "osm_distance": 0.011483962355934602, "osm_maxspeed": 70.0, "osmid": 356855480.0 }, "geometry": { "type": "Point", "coordinates": [ 10.206185, 59.750882 ] } },
{ "type": "Feature", "properties": { "AADT": 20136, "raw_name": "Gullaug", "osm_name": "Røykenveien", "osm_type": "trunk", "osm_lanes": 1.0, "osm_oneway": "True", "osm_distance": 6.3987227552576131, "osm_maxspeed": 60.0, "osmid": 493292293.0 }, "geometry": { "type": "Point", "coordinates": [ 10.287577, 59.75134 ] } },
{ "type": "Feature", "properties": { "AADT": 60034, "raw_name": "E18 Jensvoll", "osm_name": null, "osm_type": "motorway", "osm_lanes": 2.0, "osm_oneway": "True", "osm_distance": 9.9169723376067811, "osm_maxspeed": 100.0, "osmid": 125234147.0 }, "geometry": { "type": "Point", "coordinates": [ 10.247715, 59.754429 ] } },
{ "type": "Feature", "properties": { "AADT": 4105, "raw_name": "Stoppen", "osm_name": "Nøsteveien", "osm_type": "secondary", "osm_lanes": 2.0, "osm_oneway": null, "osm_distance": 0.0056849037150759384, "osm_maxspeed": 40.0, "osmid": 989358685.0 }, "geometry": { "type": "Point", "coordinates": [ 10.235608, 59.763751 ] } },
{ "type": "Feature", "properties": { "AADT": 7107, "raw_name": "Lierbyen nord", "osm_name": "Ringeriksveien", "osm_type": "primary", "osm_lanes": null, "osm_oneway": null, "osm_distance": 0.1123168552369788, "osm_maxspeed": 50.0, "osmid": 741660394.0 }, "geometry": { "type": "Point", "coordinates": [ 10.251771, 59.792899 ] } },
{ "type": "Feature", "properties": { "AADT": 4789, "raw_name": "Damtjern", "osm_name": "Lierbakkene", "osm_type": "primary", "osm_lanes": null, "osm_oneway": null, "osm_distance": 0.070213519705120769, "osm_maxspeed": 60.0, "osmid": 8162858.0 }, "geometry": { "type": "Point", "coordinates": [ 10.280301, 59.798879 ] } },
{ "type": "Feature", "properties": { "AADT": 105, "raw_name": "Ullerudsletta sykkel", "osm_name": "Osloveien", "osm_type": "primary", "osm_lanes": null, "osm_oneway": null, "osm_distance": 0.14669994905281647, "osm_maxspeed": 60.0, "osmid": 35078331.0 }, "geometry": { "type": "Point", "coordinates": [ 10.648248, 59.669763 ] } },
{ "type": "Feature", "properties": { "AADT": 13739, "raw_name": "Ullerudsletta", "osm_name": "Osloveien", "osm_type": "primary", "osm_lanes": null, "osm_oneway": null, "osm_distance": 0.19725858363790152, "osm_maxspeed": 60.0, "osmid": 35078331.0 }, "geometry": { "type": "Point", "coordinates": [ 10.64825, 59.669764 ] } },
{ "type": "Feature", "properties": { "AADT": 10346, "raw_name": "Oslofjordtunnelen", "osm_name": null, "osm_type": "trunk", "osm_lanes": 3.0, "osm_oneway": null, "osm_distance": 0.80861834123829979, "osm_maxspeed": null, "osmid": 5358628.0 }, "geometry": { "type": "Point", "coordinates": [ 10.655408, 59.691279 ] } },
{ "type": "Feature", "properties": { "AADT": 2082, "raw_name": "Kinnartangen", "osm_name": "Grimsrudveien", "osm_type": "secondary", "osm_lanes": null, "osm_oneway": null, "osm_distance": 0.1670291496835094, "osm_maxspeed": 70.0, "osmid": 5939133.0 }, "geometry": { "type": "Point", "coordinates": [ 10.329444, 59.716438 ] } },
{ "type": "Feature", "properties": { "AADT": 13053, "raw_name": "Spikkestad", "osm_name": null, "osm_type": "trunk", "osm_lanes": 2.0, "osm_oneway": null, "osm_distance": 0.18525061117895292, "osm_maxspeed": 80.0, "osmid": 197668776.0 }, "geometry": { "type": "Point", "coordinates": [ 10.349427, 59.733925 ] } },
{ "type": "Feature", "properties": { "AADT": 8733, "raw_name": "Liertoppen nord", "osm_name": "Drammensveien", "osm_type": "secondary", "osm_lanes": null, "osm_oneway": null, "osm_distance": 0.014956546664063841, "osm_maxspeed": 60.0, "osmid": 29219517.0 }, "geometry": { "type": "Point", "coordinates": [ 10.318416, 59.814963 ] } },
{ "type": "Feature", "properties": { "AADT": 48986, "raw_name": "Lierskogen", "osm_name": null, "osm_type": "motorway", "osm_lanes": 2.0, "osm_oneway": "True", "osm_distance": 4.236442480063082, "osm_maxspeed": 100.0, "osmid": 196618351.0 }, "geometry": { "type": "Point", "coordinates": [ 10.336993, 59.819146 ] } },
{ "type": "Feature", "properties": { "AADT": 46, "raw_name": "Kongsskogen sykkel", "osm_name": "Drammensveien", "osm_type": "secondary", "osm_lanes": null, "osm_oneway": null, "osm_distance": 5.6074226403179344, "osm_maxspeed": 40.0, "osmid": 965126030.0 }, "geometry": { "type": "Point", "coordinates": [ 10.384031, 59.820977 ] } },
{ "type": "Feature", "properties": { "AADT": 50314, "raw_name": "Drengsrud ved Liahagen bru", "osm_name": null, "osm_type": "motorway", "osm_lanes": 2.0, "osm_oneway": "True", "osm_distance": 3.8821292800946359, "osm_maxspeed": 100.0, "osmid": 4262056.0 }, "geometry": { "type": "Point", "coordinates": [ 10.378155, 59.824978 ] } },
{ "type": "Feature", "properties": { "AADT": 9886, "raw_name": "Buskerud gr.", "osm_name": "Slemmestadveien", "osm_type": "primary", "osm_lanes": null, "osm_oneway": null, "osm_distance": 0.19946627526967617, "osm_maxspeed": 60.0, "osmid": 150543133.0 }, "geometry": { "type": "Point", "coordinates": [ 10.487024, 59.790307 ] } },
{ "type": "Feature", "properties": { "AADT": 57, "raw_name": "Buskerud gr sykkel", "osm_name": "Slemmestadveien", "osm_type": "primary", "osm_lanes": null, "osm_oneway": null, "osm_distance": 0.37996009480507587, "osm_maxspeed": 60.0, "osmid": 150543133.0 }, "geometry": { "type": "Point", "coordinates": [ 10.486941, 59.790435 ] } },
{ "type": "Feature", "properties": { "AADT": 13317, "raw_name": "Sikta (Heggedal)", "osm_name": "Røykenveien", "osm_type": "primary", "osm_lanes": null, "osm_oneway": null, "osm_distance": 0.22848038246366334, "osm_maxspeed": 60.0, "osmid": 198052732.0 }, "geometry": { "type": "Point", "coordinates": [ 10.445204, 59.801256 ] } },
{ "type": "Feature", "properties": { "AADT": 122, "raw_name": "Røykenv v/Eidssletta sykkel", "osm_name": "Røykenveien", "osm_type": "primary", "osm_lanes": null, "osm_oneway": null, "osm_distance": 13.49207840901429, "osm_maxspeed": 60.0, "osmid": 198052732.0 }, "geometry": { "type": "Point", "coordinates": [ 10.445052, 59.801299 ] } },
{ "type": "Feature", "properties": { "AADT": 2586, "raw_name": "Vollenveien ved skolen", "osm_name": "Vollenveien", "osm_type": "secondary", "osm_lanes": null, "osm_oneway": null, "osm_distance": 0.16600190864452533, "osm_maxspeed": 40.0, "osmid": 113779598.0 }, "geometry": { "type": "Point", "coordinates": [ 10.478386, 59.806236 ] } },
{ "type": "Feature", "properties": { "AADT": 12279, "raw_name": "Blakstad nord", "osm_name": "Slemmestadveien", "osm_type": "primary", "osm_lanes": null, "osm_oneway": null, "osm_distance": 0.12659715791750248, "osm_maxspeed": 60.0, "osmid": 112658620.0 }, "geometry": { "type": "Point", "coordinates": [ 10.464775, 59.821448 ] } },
{ "type": "Feature", "properties": { "AADT": 19280, "raw_name": "ASKER XFV207 SIKTA", "osm_name": "Røykenveien", "osm_type": "primary", "osm_lanes": null, "osm_oneway": null, "osm_distance": 0.010029142287990088, "osm_maxspeed": 60.0, "osmid": 112487242.0 }, "geometry": { "type": "Point", "coordinates": [ 10.435775, 59.824722 ] } },
{ "type": "Feature", "properties": { "AADT": 20618, "raw_name": "Bleikerv. v/ Asker vgs.", "osm_name": "Bleikerveien", "osm_type": "primary", "osm_lanes": null, "osm_oneway": "True", "osm_distance": 3.9690814641346894, "osm_maxspeed": 50.0, "osmid": 8160188.0 }, "geometry": { "type": "Point", "coordinates": [ 10.441025, 59.830815 ] } },
{ "type": "Feature", "properties": { "AADT": 11107, "raw_name": "Asker sentrum Føyka", "osm_name": "Drammensveien", "osm_type": "secondary", "osm_lanes": null, "osm_oneway": null, "osm_distance": 0.044955176345932754, "osm_maxspeed": 50.0, "osmid": 58389855.0 }, "geometry": { "type": "Point", "coordinates": [ 10.437362, 59.832567 ] } },
{ "type": "Feature", "properties": { "AADT": 19108, "raw_name": "Hagaløkka", "osm_name": "Drammensveien", "osm_type": "secondary", "osm_lanes": null, "osm_oneway": null, "osm_distance": 0.11801030668525812, "osm_maxspeed": 50.0, "osmid": 1091339210.0 }, "geometry": { "type": "Point", "coordinates": [ 10.42302, 59.83322 ] } },
{ "type": "Feature", "properties": { "AADT": 13422, "raw_name": "ASKER RØYKENVEIEN", "osm_name": "Bleikerveien", "osm_type": "primary", "osm_lanes": 2.0, "osm_oneway": "True", "osm_distance": 2.3060792256672165, "osm_maxspeed": 50.0, "osmid": 921994188.0 }, "geometry": { "type": "Point", "coordinates": [ 10.437857, 59.833581 ] } },
{ "type": "Feature", "properties": { "AADT": 49484, "raw_name": "Fusdalkrysset (Asker)", "osm_name": null, "osm_type": "motorway", "osm_lanes": 2.0, "osm_oneway": "True", "osm_distance": 2.4364240221845792, "osm_maxspeed": 90.0, "osmid": 13870165.0 }, "geometry": { "type": "Point", "coordinates": [ 10.442252, 59.834138 ] } },
{ "type": "Feature", "properties": { "AADT": 4800, "raw_name": "Asker kirke", "osm_name": "Kirkeveien", "osm_type": "secondary", "osm_lanes": null, "osm_oneway": null, "osm_distance": 0.14311480841423627, "osm_maxspeed": 50.0, "osmid": 199390496.0 }, "geometry": { "type": "Point", "coordinates": [ 10.436519, 59.842113 ] } },
{ "type": "Feature", "properties": { "AADT": 174, "raw_name": "Asker kirke sykkel", "osm_name": "Kirkeveien", "osm_type": "secondary", "osm_lanes": null, "osm_oneway": null, "osm_distance": 7.3573728404666392, "osm_maxspeed": 50.0, "osmid": 199390496.0 }, "geometry": { "type": "Point", "coordinates": [ 10.43669, 59.842137 ] } },
{ "type": "Feature", "properties": { "AADT": 186, "raw_name": "Slemmestadv v/Syverstad (sykkel)", "osm_name": "Slemmestadveien", "osm_type": "primary", "osm_lanes": 3.0, "osm_oneway": null, "osm_distance": 13.451036369918274, "osm_maxspeed": 70.0, "osmid": 966770081.0 }, "geometry": { "type": "Point", "coordinates": [ 10.487579, 59.847453 ] } },
{ "type": "Feature", "properties": { "AADT": 15056, "raw_name": "Asker Slemmestadveien", "osm_name": "Slemmestadveien", "osm_type": "primary", "osm_lanes": 3.0, "osm_oneway": null, "osm_distance": 1.3684622351028042, "osm_maxspeed": 70.0, "osmid": 966770081.0 }, "geometry": { "type": "Point", "coordinates": [ 10.487459, 59.847561 ] } },
{ "type": "Feature", "properties": { "AADT": 66959, "raw_name": "Holmen", "osm_name": null, "osm_type": "motorway", "osm_lanes": 2.0, "osm_oneway": "True", "osm_distance": 9.0632378880501303, "osm_maxspeed": 90.0, "osmid": 205947888.0 }, "geometry": { "type": "Point", "coordinates": [ 10.478874, 59.852087 ] } },
{ "type": "Feature", "properties": { "AADT": 20681, "raw_name": "Holmen", "osm_name": "Slemmestadveien", "osm_type": "primary", "osm_lanes": null, "osm_oneway": "True", "osm_distance": 1.352029799267815, "osm_maxspeed": 70.0, "osmid": 966770019.0 }, "geometry": { "type": "Point", "coordinates": [ 10.484902, 59.855252 ] } },
{ "type": "Feature", "properties": { "AADT": 6736, "raw_name": "Kirkeveien (Hvalstad)", "osm_name": "Kirkeveien", "osm_type": "secondary", "osm_lanes": null, "osm_oneway": null, "osm_distance": 0.067829656186211312, "osm_maxspeed": 40.0, "osmid": 369564346.0 }, "geometry": { "type": "Point", "coordinates": [ 10.467993, 59.857437 ] } },