{
"type": "FeatureCollection",
"name": "Oslo_AADT_2021",
"crs": { "type": "name", "properties": { "name": "urn:ogc:def:crs:OGC:1.3:CRS84" } },
"features": [
{ "type": "Feature", "properties": { "AADT": 5543, "raw_name": "Gramsborgveien", "osm_name": "Gramsborgveien", "osm_type": "secondary", "osm_lanes": null, "osm_oneway": null, "osm_distance": 0.036596169638980186, "osm_maxspeed": 50.0, "osmid": 30043856.0 }, "geometry": { "type": "Point", "coordinates": [ 10.146245, 59.718772 ] } },
{ "type": "Feature", "properties": { "AADT": 4573, "raw_name": "Kobbervikdalen", "osm_name": "Holmestrandsveien", "osm_type": "primary", "osm_lanes": null, "osm_oneway": "False", "osm_distance": 0.6088999208243363, "osm_maxspeed": 60.0, "osmid": 356855535.0 }, "geometry": { "type": "Point", "coordinates": [ 10.234433, 59.715053 ] } },
{ "type": "Feature", "properties": { "AADT": 6852, "raw_name": "Austadv. 76", "osm_name": "Austadveien", "osm_type": "secondary", "osm_lanes": null, "osm_oneway": null, "osm_distance": 1.1755581888784306, "osm_maxspeed": 50.0, "osmid": 490184427.0 }, "geometry": { "type": "Point", "coordinates": [ 10.215692, 59.722161 ] } },
{ "type": "Feature", "properties": { "AADT": 8097, "raw_name": "Styrmoes vei", "osm_name": "Styrmoes vei", "osm_type": "secondary", "osm_lanes": null, "osm_oneway": null, "osm_distance": 1.1804490483170953, "osm_maxspeed": 40.0, "osmid": 489369877.0 }, "geometry": { "type": "Point", "coordinates": [ 10.207498, 59.728742 ] } },
{ "type": "Feature", "properties": { "AADT": 1868, "raw_name": "Storsand", "osm_name": "Storsandveien", "osm_type": "primary", "osm_lanes": null, "osm_oneway": null, "osm_distance": 0.050100107096138505, "osm_maxspeed": 50.0, "osmid": 653355748.0 }, "geometry": { "type": "Point", "coordinates": [ 10.603796, 59.640641 ] } },
{ "type": "Feature", "properties": { "AADT": 5488, "raw_name": "Tørkopp", "osm_name": "Svelvikveien", "osm_type": "primary", "osm_lanes": null, "osm_oneway": null, "osm_distance": 0.090006990512424168, "osm_maxspeed": 60.0, "osmid": 940950473.0 }, "geometry": { "type": "Point", "coordinates": [ 10.318438, 59.690806 ] } },
{ "type": "Feature", "properties": { "AADT": 1322, "raw_name": "Gimsrudv ved Jerdalsbukta", "osm_name": "Grimsrudveien", "osm_type": "secondary", "osm_lanes": null, "osm_oneway": null, "osm_distance": 0.15262867184617648, "osm_maxspeed": 50.0, "osmid": 895442973.0 }, "geometry": { "type": "Point", "coordinates": [ 10.401069, 59.692129 ] } },
{ "type": "Feature", "properties": { "AADT": 4878, "raw_name": "Hurumveien ved Sundbykrysset", "osm_name": "Hurumveien", "osm_type": "secondary", "osm_lanes": null, "osm_oneway": null, "osm_distance": 0.12777318620281625, "osm_maxspeed": 60.0, "osmid": 895646215.0 }, "geometry": { "type": "Point", "coordinates": [ 10.492767, 59.714646 ] } },
{ "type": "Feature", "properties": { "AADT": 1709, "raw_name": "Sundbyveien ved Hov", "osm_name": "Sundbyveien", "osm_type": "secondary", "osm_lanes": null, "osm_oneway": null, "osm_distance": 0.059972982279339303, "osm_maxspeed": 80.0, "osmid": 895646294.0 }, "geometry": { "type": "Point", "coordinates": [ 10.49538, 59.720263 ] } },
{ "type": "Feature", "properties": { "AADT": 10645, "raw_name": "Elgskauåstunnelen", "osm_name": "Elgskauåstunnelen", "osm_type": "trunk", "osm_lanes": null, "osm_oneway": null, "osm_distance": 0.132649837992974, "osm_maxspeed": 80.0, "osmid": 5361821.0 }, "geometry": { "type": "Point", "coordinates": [ 10.446323, 59.722724 ] } },
{ "type": "Feature", "properties": { "AADT": 2003, "raw_name": "Hurumveien ved Sageng", "osm_name": null, "osm_type": "secondary", "osm_lanes": null, "osm_oneway": null, "osm_distance": 0.15042025955439622, "osm_maxspeed": 60.0, "osmid": 5986264.0 }, "geometry": { "type": "Point", "coordinates": [ 10.45246, 59.726897 ] } },
{ "type": "Feature", "properties": { "AADT": 11823, "raw_name": "Bjørnstad nord", "osm_name": "Slemmestadveien", "osm_type": "primary", "osm_lanes": null, "osm_oneway": null, "osm_distance": 0.025117556492863985, "osm_maxspeed": 70.0, "osmid": 447933114.0 }, "geometry": { "type": "Point", "coordinates": [ 10.435636, 59.746323 ] } },
{ "type": "Feature", "properties": { "AADT": 31953, "raw_name": "E6 NYE MOSS NORD", "osm_name": null, "osm_type": "motorway", "osm_lanes": 2.0, "osm_oneway": "True", "osm_distance": 11.129857043088062, "osm_maxspeed": 110.0, "osmid": 381641512.0 }, "geometry": { "type": "Point", "coordinates": [ 10.719651, 59.506168 ] } },
{ "type": "Feature", "properties": { "AADT": 2096, "raw_name": "Tegnebyholtet", "osm_name": "Osloveien", "osm_type": "primary", "osm_lanes": null, "osm_oneway": null, "osm_distance": 0.024439928372106047, "osm_maxspeed": null, "osmid": 871946367.0 }, "geometry": { "type": "Point", "coordinates": [ 10.727811, 59.513136 ] } },
{ "type": "Feature", "properties": { "AADT": 4599, "raw_name": "Elvestad sør", "osm_name": "Elvestadveien", "osm_type": "primary", "osm_lanes": null, "osm_oneway": null, "osm_distance": 0.00068172158803991856, "osm_maxspeed": 80.0, "osmid": 890560025.0 }, "geometry": { "type": "Point", "coordinates": [ 10.888474, 59.591853 ] } },
{ "type": "Feature", "properties": { "AADT": 14474, "raw_name": "Jaren", "osm_name": "Holt bru", "osm_type": "motorway", "osm_lanes": 2.0, "osm_oneway": "True", "osm_distance": 4.7658389099141001, "osm_maxspeed": 100.0, "osmid": 262453694.0 }, "geometry": { "type": "Point", "coordinates": [ 10.996937, 59.622343 ] } },
{ "type": "Feature", "properties": { "AADT": 7697, "raw_name": "Sonsveien", "osm_name": "Sonsveien", "osm_type": "primary", "osm_lanes": null, "osm_oneway": null, "osm_distance": 0.24340385966594286, "osm_maxspeed": 60.0, "osmid": 772759782.0 }, "geometry": { "type": "Point", "coordinates": [ 10.714644, 59.518618 ] } },
{ "type": "Feature", "properties": { "AADT": 49, "raw_name": "Sonsveien sykkel", "osm_name": "Sonsveien", "osm_type": "primary", "osm_lanes": 2.0, "osm_oneway": "True", "osm_distance": 9.7503719389959684, "osm_maxspeed": 60.0, "osmid": 772759784.0 }, "geometry": { "type": "Point", "coordinates": [ 10.713308, 59.518867 ] } },
{ "type": "Feature", "properties": { "AADT": 16070, "raw_name": "Follotunnelen sørgående", "osm_name": null, "osm_type": "motorway", "osm_lanes": 2.0, "osm_oneway": "True", "osm_distance": 0.38510439625846205, "osm_maxspeed": 110.0, "osmid": 119098823.0 }, "geometry": { "type": "Point", "coordinates": [ 10.727727, 59.535969 ] } },
{ "type": "Feature", "properties": { "AADT": 16236, "raw_name": "Follotunnelen nordgående", "osm_name": null, "osm_type": "motorway", "osm_lanes": 2.0, "osm_oneway": "True", "osm_distance": 0.16136297021521806, "osm_maxspeed": 110.0, "osmid": 10411967.0 }, "geometry": { "type": "Point", "coordinates": [ 10.728025, 59.535994 ] } },
{ "type": "Feature", "properties": { "AADT": 612, "raw_name": "Kolåsveien", "osm_name": "Kolåsveien", "osm_type": "secondary", "osm_lanes": null, "osm_oneway": null, "osm_distance": 0.083200804367183454, "osm_maxspeed": 50.0, "osmid": 241456592.0 }, "geometry": { "type": "Point", "coordinates": [ 10.690534, 59.538326 ] } },
{ "type": "Feature", "properties": { "AADT": 5459, "raw_name": "Hølen", "osm_name": "Brandstad bru", "osm_type": "secondary", "osm_lanes": null, "osm_oneway": null, "osm_distance": 0.22493152692811488, "osm_maxspeed": 80.0, "osmid": 191466488.0 }, "geometry": { "type": "Point", "coordinates": [ 10.749901, 59.538583 ] } },
{ "type": "Feature", "properties": { "AADT": 7309, "raw_name": "Vestby kirke", "osm_name": "Kirkeveien", "osm_type": "secondary", "osm_lanes": null, "osm_oneway": null, "osm_distance": 0.012495068995070071, "osm_maxspeed": 50.0, "osmid": 20190255.0 }, "geometry": { "type": "Point", "coordinates": [ 10.734114, 59.602311 ] } },
{ "type": "Feature", "properties": { "AADT": 11185, "raw_name": "Fv 6 Vestby storsenter", "osm_name": "Kirkeveien", "osm_type": "secondary", "osm_lanes": 2.0, "osm_oneway": "True", "osm_distance": 3.0666011817947818, "osm_maxspeed": 50.0, "osmid": 303217426.0 }, "geometry": { "type": "Point", "coordinates": [ 10.742795, 59.602619 ] } },
{ "type": "Feature", "properties": { "AADT": 121, "raw_name": "Åsgård kulturskole", "osm_name": "Rådhusplassen", "osm_type": "tertiary", "osm_lanes": null, "osm_oneway": null, "osm_distance": 7.3356210476832278, "osm_maxspeed": 30.0, "osmid": 22995409.0 }, "geometry": { "type": "Point", "coordinates": [ 10.788644, 59.664183 ] } },
{ "type": "Feature", "properties": { "AADT": 344, "raw_name": "Ås kvartal", "osm_name": "Rådhusplassen", "osm_type": "tertiary", "osm_lanes": null, "osm_oneway": null, "osm_distance": 5.5025101084654802, "osm_maxspeed": 30.0, "osmid": 22995409.0 }, "geometry": { "type": "Point", "coordinates": [ 10.788545, 59.664214 ] } },
{ "type": "Feature", "properties": { "AADT": 9818, "raw_name": "Ås sentrum", "osm_name": "Drøbakveien", "osm_type": "primary", "osm_lanes": null, "osm_oneway": "True", "osm_distance": 0.046719708753369178, "osm_maxspeed": 40.0, "osmid": 203751938.0 }, "geometry": { "type": "Point", "coordinates": [ 10.800474, 59.665831 ] } },
{ "type": "Feature", "properties": { "AADT": 8177, "raw_name": "Holstadveien (Ås)", "osm_name": "Holstadveien", "osm_type": "primary", "osm_lanes": 2.0, "osm_oneway": null, "osm_distance": 0.23706482169336673, "osm_maxspeed": 60.0, "osmid": 250557041.0 }, "geometry": { "type": "Point", "coordinates": [ 10.813044, 59.683791 ] } },
{ "type": "Feature", "properties": { "AADT": 12255, "raw_name": "HOLSTAD KLIMA", "osm_name": "Askimveien", "osm_type": "trunk", "osm_lanes": null, "osm_oneway": null, "osm_distance": 0.0039203794143659798, "osm_maxspeed": 80.0, "osmid": 872221321.0 }, "geometry": { "type": "Point", "coordinates": [ 10.830197, 59.685042 ] } },
{ "type": "Feature", "properties": { "AADT": 37444, "raw_name": "Vestby syd ny", "osm_name": null, "osm_type": "motorway", "osm_lanes": 3.0, "osm_oneway": "True", "osm_distance": 11.191188790442999, "osm_maxspeed": 110.0, "osmid": 871944888.0 }, "geometry": { "type": "Point", "coordinates": [ 10.735925, 59.606039 ] } },
{ "type": "Feature", "properties": { "AADT": 7666, "raw_name": "Vestby (Verpet)", "osm_name": "Vestbyveien", "osm_type": "secondary", "osm_lanes": null, "osm_oneway": null, "osm_distance": 0.093570589660385159, "osm_maxspeed": 60.0, "osmid": 303337129.0 }, "geometry": { "type": "Point", "coordinates": [ 10.737166, 59.624665 ] } },
{ "type": "Feature", "properties": { "AADT": 5850, "raw_name": "Korsegården vest", "osm_name": "Drøbakveien", "osm_type": "primary", "osm_lanes": null, "osm_oneway": null, "osm_distance": 0.0036573331135312079, "osm_maxspeed": 70.0, "osmid": 154342282.0 }, "geometry": { "type": "Point", "coordinates": [ 10.736734, 59.660925 ] } },
{ "type": "Feature", "properties": { "AADT": 10454, "raw_name": "Ås (Vollebekk)", "osm_name": "Drøbakveien", "osm_type": "primary", "osm_lanes": 2.0, "osm_oneway": null, "osm_distance": 0.029310312165280843, "osm_maxspeed": 50.0, "osmid": 83131105.0 }, "geometry": { "type": "Point", "coordinates": [ 10.758513, 59.664585 ] } },
{ "type": "Feature", "properties": { "AADT": 184, "raw_name": "Ås NLH Vollebekk sykkel", "osm_name": "Drøbakveien", "osm_type": "primary", "osm_lanes": 2.0, "osm_oneway": null, "osm_distance": 9.4177232492776835, "osm_maxspeed": 50.0, "osmid": 83131105.0 }, "geometry": { "type": "Point", "coordinates": [ 10.758792, 59.664729 ] } },
{ "type": "Feature", "properties": { "AADT": 37683, "raw_name": "Årungen", "osm_name": null, "osm_type": "motorway", "osm_lanes": 2.0, "osm_oneway": "True", "osm_distance": 9.4098485164900083, "osm_maxspeed": 100.0, "osmid": 58201250.0 }, "geometry": { "type": "Point", "coordinates": [ 10.737092, 59.686111 ] } },
{ "type": "Feature", "properties": { "AADT": 881, "raw_name": "Egget", "osm_name": "Kongeveien", "osm_type": "secondary", "osm_lanes": null, "osm_oneway": null, "osm_distance": 0.35720897143824099, "osm_maxspeed": 50.0, "osmid": 160545538.0 }, "geometry": { "type": "Point", "coordinates": [ 10.773237, 59.698211 ] } },
{ "type": "Feature", "properties": { "AADT": 19746, "raw_name": "Smihagen enveg med", "osm_name": null, "osm_type": "motorway", "osm_lanes": 2.0, "osm_oneway": "True", "osm_distance": 1.7541789849423723, "osm_maxspeed": 90.0, "osmid": 132701641.0 }, "geometry": { "type": "Point", "coordinates": [ 10.737759, 59.703303 ] } },
{ "type": "Feature", "properties": { "AADT": 19876, "raw_name": "Smihagen enveg mot", "osm_name": "Smiehagen tunnel", "osm_type": "motorway", "osm_lanes": 2.0, "osm_oneway": "True", "osm_distance": 0.80918190817212543, "osm_maxspeed": 90.0, "osmid": 4333010.0 }, "geometry": { "type": "Point", "coordinates": [ 10.737141, 59.703322 ] } },
{ "type": "Feature", "properties": { "AADT": 12761, "raw_name": "Frogntunnelen", "osm_name": "Frogntunnelen", "osm_type": "trunk", "osm_lanes": 2.0, "osm_oneway": null, "osm_distance": 0.032578953628887963, "osm_maxspeed": 80.0, "osmid": 5384013.0 }, "geometry": { "type": "Point", "coordinates": [ 10.686021, 59.708242 ] } },
{ "type": "Feature", "properties": { "AADT": 3147, "raw_name": "Skyssjordet", "osm_name": "Kongeveien", "osm_type": "secondary", "osm_lanes": null, "osm_oneway": null, "osm_distance": 0.020362115380529584, "osm_maxspeed": 60.0, "osmid": 24600431.0 }, "geometry": { "type": "Point", "coordinates": [ 10.77213, 59.709796 ] } },
{ "type": "Feature", "properties": { "AADT": 5959, "raw_name": "Holstad nordre", "osm_name": "Åsveien", "osm_type": "primary", "osm_lanes": 2.0, "osm_oneway": null, "osm_distance": 0.21891451464904002, "osm_maxspeed": 70.0, "osmid": 872221324.0 }, "geometry": { "type": "Point", "coordinates": [ 10.829138, 59.694729 ] } },
{ "type": "Feature", "properties": { "AADT": 1864, "raw_name": "Tandbergåsen", "osm_name": "Kråkstadveien", "osm_type": "secondary", "osm_lanes": null, "osm_oneway": null, "osm_distance": 0.15766080907699856, "osm_maxspeed": 50.0, "osmid": 178653758.0 }, "geometry": { "type": "Point", "coordinates": [ 10.845041, 59.701133 ] } },
{ "type": "Feature", "properties": { "AADT": 2349, "raw_name": "Eikeli", "osm_name": "Kråkstadveien", "osm_type": "secondary", "osm_lanes": null, "osm_oneway": null, "osm_distance": 1.041228663357241, "osm_maxspeed": 50.0, "osmid": 892187998.0 }, "geometry": { "type": "Point", "coordinates": [ 10.844496, 59.70412 ] } },
{ "type": "Feature", "properties": { "AADT": 2108, "raw_name": "Løkenveien", "osm_name": "Løkenveien", "osm_type": "secondary", "osm_lanes": null, "osm_oneway": null, "osm_distance": 0.11870497929160916, "osm_maxspeed": 80.0, "osmid": 178653776.0 }, "geometry": { "type": "Point", "coordinates": [ 10.874993, 59.704905 ] } },
{ "type": "Feature", "properties": { "AADT": 7174, "raw_name": "Bamsebu", "osm_name": "Nordbyveien", "osm_type": "secondary", "osm_lanes": 4.0, "osm_oneway": null, "osm_distance": 0.064033021761797815, "osm_maxspeed": 40.0, "osmid": 467492230.0 }, "geometry": { "type": "Point", "coordinates": [ 10.803412, 59.7196 ] } },
{ "type": "Feature", "properties": { "AADT": 6619, "raw_name": "Ski sentrum", "osm_name": "Kirkeveien", "osm_type": "primary", "osm_lanes": null, "osm_oneway": null, "osm_distance": 0.28609037175896018, "osm_maxspeed": 40.0, "osmid": 719614162.0 }, "geometry": { "type": "Point", "coordinates": [ 10.837131, 59.720998 ] } },
{ "type": "Feature", "properties": { "AADT": 3782, "raw_name": "Oppsandveien 5", "osm_name": "Oppsandveien", "osm_type": "secondary", "osm_lanes": null, "osm_oneway": null, "osm_distance": 0.15173526269853879, "osm_maxspeed": 60.0, "osmid": 61417641.0 }, "geometry": { "type": "Point", "coordinates": [ 10.869745, 59.722156 ] } },
{ "type": "Feature", "properties": { "AADT": 16971, "raw_name": "Nygårdskrysset xf", "osm_name": "Søndre Tverrvei", "osm_type": "primary", "osm_lanes": null, "osm_oneway": null, "osm_distance": 0.050162033415886528, "osm_maxspeed": 80.0, "osmid": 4933706.0 }, "geometry": { "type": "Point", "coordinates": [ 10.790287, 59.723704 ] } },
{ "type": "Feature", "properties": { "AADT": 24211, "raw_name": "EV 18 v/rasteplass Ski", "osm_name": null, "osm_type": "trunk", "osm_lanes": null, "osm_oneway": "True", "osm_distance": 2.8853545798071929, "osm_maxspeed": 80.0, "osmid": 874522631.0 }, "geometry": { "type": "Point", "coordinates": [ 10.78419, 59.731456 ] } },
{ "type": "Feature", "properties": { "AADT": 122, "raw_name": "Roås sykkel", "osm_name": "Langhusveien", "osm_type": "primary", "osm_lanes": 2.0, "osm_oneway": null, "osm_distance": 11.004884278785664, "osm_maxspeed": 70.0, "osmid": 249997810.0 }, "geometry": { "type": "Point", "coordinates": [ 10.843136, 59.73527 ] } },
{ "type": "Feature", "properties": { "AADT": 10519, "raw_name": "Roås", "osm_name": "Langhusveien", "osm_type": "primary", "osm_lanes": null, "osm_oneway": "True", "osm_distance": 2.2476135422244519, "osm_maxspeed": 70.0, "osmid": 595197820.0 }, "geometry": { "type": "Point", "coordinates": [ 10.842389, 59.73631 ] } },
{ "type": "Feature", "properties": { "AADT": 12135, "raw_name": "Ramper E18 Vinterbro", "osm_name": null, "osm_type": "motorway_link", "osm_lanes": 2.0, "osm_oneway": "True", "osm_distance": 0.12727818022763512, "osm_maxspeed": 80.0, "osmid": 303411680.0 }, "geometry": { "type": "Point", "coordinates": [ 10.782093, 59.743302 ] } },
{ "type": "Feature", "properties": { "AADT": 34877, "raw_name": "Nordbytunellen", "osm_name": null, "osm_type": "motorway", "osm_lanes": 2.0, "osm_oneway": "True", "osm_distance": 9.9916490284726098, "osm_maxspeed": 80.0, "osmid": 28222254.0 }, "geometry": { "type": "Point", "coordinates": [ 10.782071, 59.743848 ] } },
{ "type": "Feature", "properties": { "AADT": 12606, "raw_name": "Vinterbro", "osm_name": null, "osm_type": "motorway_link", "osm_lanes": 1.0, "osm_oneway": "True", "osm_distance": 1.4871745835172907, "osm_maxspeed": 80.0, "osmid": 4336307.0 }, "geometry": { "type": "Point", "coordinates": [ 10.781752, 59.743917 ] } },
{ "type": "Feature", "properties": { "AADT": 40878, "raw_name": "Nøstvettunnelen", "osm_name": "Nøstvettunnelen", "osm_type": "motorway", "osm_lanes": 2.0, "osm_oneway": "True", "osm_distance": 8.273590632426572, "osm_maxspeed": 90.0, "osmid": 40486887.0 }, "geometry": { "type": "Point", "coordinates": [ 10.808882, 59.758719 ] } },
{ "type": "Feature", "properties": { "AADT": 3531, "raw_name": "Spydeberg sør", "osm_name": "Heliveien", "osm_type": "primary", "osm_lanes": null, "osm_oneway": null, "osm_distance": 0.019331457900933765, "osm_maxspeed": 60.0, "osmid": 612181524.0 }, "geometry": { "type": "Point", "coordinates": [ 11.074217, 59.608624 ] } },
{ "type": "Feature", "properties": { "AADT": 4573, "raw_name": "Tronstad", "osm_name": "Osloveien", "osm_type": "primary", "osm_lanes": null, "osm_oneway": null, "osm_distance": 0.013751497014862302, "osm_maxspeed": 80.0, "osmid": 579720352.0 }, "geometry": { "type": "Point", "coordinates": [ 11.051479, 59.616762 ] } },
{ "type": "Feature", "properties": { "AADT": 12268, "raw_name": "Smålenene bru", "osm_name": null, "osm_type": "motorway", "osm_lanes": 2.0, "osm_oneway": "True", "osm_distance": 4.4046136822398072, "osm_maxspeed": 100.0, "osmid": 74233936.0 }, "geometry": { "type": "Point", "coordinates": [ 11.096421, 59.592218 ] } },
{ "type": "Feature", "properties": { "AADT": 4471, "raw_name": "Sekkelsten", "osm_name": "Rakkestadveien", "osm_type": "primary", "osm_lanes": null, "osm_oneway": null, "osm_distance": 0.69525607320941774, "osm_maxspeed": 60.0, "osmid": 262416749.0 }, "geometry": { "type": "Point", "coordinates": [ 11.21485, 59.575728 ] } },
{ "type": "Feature", "properties": { "AADT": 5013, "raw_name": "Sekkelsten vest", "osm_name": "Askimveien", "osm_type": "primary", "osm_lanes": null, "osm_oneway": "True", "osm_distance": 0.80998370475380976, "osm_maxspeed": 70.0, "osmid": 1355899520.0 }, "geometry": { "type": "Point", "coordinates": [ 11.195233, 59.576588 ] } },
{ "type": "Feature", "properties": { "AADT": 13217, "raw_name": "Askim", "osm_name": "Osloveien", "osm_type": "primary", "osm_lanes": null, "osm_oneway": "True", "osm_distance": 1.8558386563690892, "osm_maxspeed": 50.0, "osmid": 735346949.0 }, "geometry": { "type": "Point", "coordinates": [ 11.167775, 59.58033 ] } },
{ "type": "Feature", "properties": { "AADT": 2433, "raw_name": "Berger nord", "osm_name": "Trøgstadveien", "osm_type": "primary", "osm_lanes": null, "osm_oneway": null, "osm_distance": 0.19261912773036466, "osm_maxspeed": 50.0, "osmid": 891477620.0 }, "geometry": { "type": "Point", "coordinates": [ 11.186459, 59.600163 ] } },
{ "type": "Feature", "properties": { "AADT": 182, "raw_name": "Bernhus", "osm_name": "Tosebygdaveien", "osm_type": "secondary", "osm_lanes": null, "osm_oneway": null, "osm_distance": 0.70104450360754733, "osm_maxspeed": 80.0, "osmid": 619174022.0 }, "geometry": { "type": "Point", "coordinates": [ 11.231726, 59.623846 ] } },
{ "type": "Feature", "properties": { "AADT": 310, "raw_name": "Fjellsrud", "osm_name": "Hølandsveien", "osm_type": "tertiary", "osm_lanes": null, "osm_oneway": null, "osm_distance": 0.24005257496340421, "osm_maxspeed": null, "osmid": 827586524.0 }, "geometry": { "type": "Point", "coordinates": [ 11.244934, 59.877968 ] } },
{ "type": "Feature", "properties": { "AADT": 6848, "raw_name": "Nordby", "osm_name": "Fetveien", "osm_type": "trunk", "osm_lanes": null, "osm_oneway": "True", "osm_distance": 4.008392874096856, "osm_maxspeed": 70.0, "osmid": 883688470.0 }, "geometry": { "type": "Point", "coordinates": [ 11.183508, 59.919185 ] } },
{ "type": "Feature", "properties": { "AADT": 14855, "raw_name": "Kringen", "osm_name": "Fetveien", "osm_type": "trunk", "osm_lanes": 1.0, "osm_oneway": "True", "osm_distance": 1.3608295103351, "osm_maxspeed": 60.0, "osmid": 883688441.0 }, "geometry": { "type": "Point", "coordinates": [ 11.177822, 59.922497 ] } },
{ "type": "Feature", "properties": { "AADT": 1424, "raw_name": "Hovin skole", "osm_name": "Lyserenveien", "osm_type": "primary", "osm_lanes": null, "osm_oneway": null, "osm_distance": 0.086263674807097207, "osm_maxspeed": 40.0, "osmid": 612213051.0 }, "geometry": { "type": "Point", "coordinates": [ 11.081687, 59.626164 ] } },
{ "type": "Feature", "properties": { "AADT": 3390, "raw_name": "Kirkebygda ", "osm_name": "Lillestrømveien", "osm_type": "primary", "osm_lanes": null, "osm_oneway": null, "osm_distance": 0.60948109194801559, "osm_maxspeed": 80.0, "osmid": 431702385.0 }, "geometry": { "type": "Point", "coordinates": [ 11.142551, 59.752957 ] } },
{ "type": "Feature", "properties": { "AADT": 57, "raw_name": "Fjerdingby sykkel", "osm_name": "Nedre Rælingsveg", "osm_type": "primary", "osm_lanes": 2.0, "osm_oneway": null, "osm_distance": 6.4448773715949814, "osm_maxspeed": 60.0, "osmid": 114655755.0 }, "geometry": { "type": "Point", "coordinates": [ 11.080193, 59.916614 ] } },
{ "type": "Feature", "properties": { "AADT": 10447, "raw_name": "Fjerdingby", "osm_name": "Nedre Rælingsveg", "osm_type": "primary", "osm_lanes": 2.0, "osm_oneway": null, "osm_distance": 0.037954330853360668, "osm_maxspeed": 60.0, "osmid": 114655755.0 }, "geometry": { "type": "Point", "coordinates": [ 11.080284, 59.916662 ] } },
{ "type": "Feature", "properties": { "AADT": 17895, "raw_name": "Fetsund (Tidl. Statoil/Circle K)", "osm_name": "Fetveien", "osm_type": "trunk", "osm_lanes": 2.0, "osm_oneway": null, "osm_distance": 0.014026229385249996, "osm_maxspeed": 60.0, "osmid": 885037419.0 }, "geometry": { "type": "Point", "coordinates": [ 11.150203, 59.927855 ] } },
{ "type": "Feature", "properties": { "AADT": 6306, "raw_name": "Knapstad", "osm_name": "Osloveien", "osm_type": "primary", "osm_lanes": null, "osm_oneway": null, "osm_distance": 0.17398640574274965, "osm_maxspeed": 80.0, "osmid": 262416711.0 }, "geometry": { "type": "Point", "coordinates": [ 11.019474, 59.62012 ] } },
{ "type": "Feature", "properties": { "AADT": 2333, "raw_name": "Mjærskau", "osm_name": "Tomterveien", "osm_type": "primary", "osm_lanes": 2.0, "osm_oneway": "False", "osm_distance": 0.055616566248791834, "osm_maxspeed": 80.0, "osmid": 23381992.0 }, "geometry": { "type": "Point", "coordinates": [ 11.041071, 59.695374 ] } },
{ "type": "Feature", "properties": { "AADT": 4227, "raw_name": "Råken (Enebakk)", "osm_name": "Osloveien", "osm_type": "primary", "osm_lanes": null, "osm_oneway": "True", "osm_distance": 1.3010323587049974, "osm_maxspeed": 60.0, "osmid": 433047199.0 }, "geometry": { "type": "Point", "coordinates": [ 11.008669, 59.739359 ] } },
{ "type": "Feature", "properties": { "AADT": 3511, "raw_name": "Rv159 Fjellstad Avrampe", "osm_name": "Strømsveien", "osm_type": "motorway", "osm_lanes": 3.0, "osm_oneway": "True", "osm_distance": 3.0869673734507943, "osm_maxspeed": 80.0, "osmid": 1341764268.0 }, "geometry": { "type": "Point", "coordinates": [ 11.009255, 59.938597 ] } },
{ "type": "Feature", "properties": { "AADT": 26422, "raw_name": "Rv159 Fjellstad", "osm_name": "Strømsveien", "osm_type": "motorway", "osm_lanes": 3.0, "osm_oneway": "True", "osm_distance": 2.9639143259932066, "osm_maxspeed": 80.0, "osmid": 1341764268.0 }, "geometry": { "type": "Point", "coordinates": [ 11.009116, 59.938649 ] } },
{ "type": "Feature", "properties": { "AADT": 3327, "raw_name": "Rv159 Fjellstad Pårampe", "osm_name": "Strømsveien", "osm_type": "motorway", "osm_lanes": 2.0, "osm_oneway": "True", "osm_distance": 2.4039298109002529, "osm_maxspeed": 80.0, "osmid": 435515029.0 }, "geometry": { "type": "Point", "coordinates": [ 11.008888, 59.938701 ] } },
{ "type": "Feature", "properties": { "AADT": 29520, "raw_name": "Rælingstunnelen", "osm_name": "Rælingstunnelen", "osm_type": "motorway", "osm_lanes": 2.0, "osm_oneway": "True", "osm_distance": 12.860852649197327, "osm_maxspeed": 80.0, "osmid": 23282171.0 }, "geometry": { "type": "Point", "coordinates": [ 11.032254, 59.944817 ] } },
{ "type": "Feature", "properties": { "AADT": 1727, "raw_name": "RV159 VAREMESSA AVRAMPE", "osm_name": null, "osm_type": "trunk", "osm_lanes": 3.0, "osm_oneway": null, "osm_distance": 3.1283655768900793, "osm_maxspeed": 70.0, "osmid": 886705656.0 }, "geometry": { "type": "Point", "coordinates": [ 11.057249, 59.948183 ] } },
{ "type": "Feature", "properties": { "AADT": 18502, "raw_name": "RV159 VAREMESSA", "osm_name": null, "osm_type": "trunk", "osm_lanes": 3.0, "osm_oneway": null, "osm_distance": 0.53765691933191306, "osm_maxspeed": 70.0, "osmid": 886705656.0 }, "geometry": { "type": "Point", "coordinates": [ 11.057354, 59.948201 ] } },
{ "type": "Feature", "properties": { "AADT": 1801, "raw_name": "RV159 VAREMESSA PÅRAMPE", "osm_name": null, "osm_type": "trunk_link", "osm_lanes": null, "osm_oneway": "True", "osm_distance": 0.05045319035829339, "osm_maxspeed": 80.0, "osmid": 26224143.0 }, "geometry": { "type": "Point", "coordinates": [ 11.056632, 59.948464 ] } },
{ "type": "Feature", "properties": { "AADT": 14506, "raw_name": "Dammensvika", "osm_name": "Nedre Rælingsveg", "osm_type": "primary", "osm_lanes": null, "osm_oneway": null, "osm_distance": 0.88598091469354634, "osm_maxspeed": 60.0, "osmid": 433018635.0 }, "geometry": { "type": "Point", "coordinates": [ 11.045183, 59.948662 ] } },
{ "type": "Feature", "properties": { "AADT": 7264, "raw_name": "Bråtejordet", "osm_name": "Bråteveien", "osm_type": "secondary", "osm_lanes": 2.0, "osm_oneway": null, "osm_distance": 0.044261663787742246, "osm_maxspeed": 40.0, "osmid": 646369269.0 }, "geometry": { "type": "Point", "coordinates": [ 11.001207, 59.954041 ] } },
{ "type": "Feature", "properties": { "AADT": 142, "raw_name": "Jonas Liesgate sykkel", "osm_name": "Jonas Lies gate", "osm_type": "secondary", "osm_lanes": null, "osm_oneway": "True", "osm_distance": 8.559414285825568, "osm_maxspeed": 50.0, "osmid": 97030607.0 }, "geometry": { "type": "Point", "coordinates": [ 11.040473, 59.954867 ] } },
{ "type": "Feature", "properties": { "AADT": 209, "raw_name": "Nitelva sykkel", "osm_name": "Strømsveien", "osm_type": "secondary", "osm_lanes": 2.0, "osm_oneway": null, "osm_distance": 5.0045156528366714, "osm_maxspeed": 50.0, "osmid": 4858559.0 }, "geometry": { "type": "Point", "coordinates": [ 11.026184, 59.956911 ] } },
{ "type": "Feature", "properties": { "AADT": 9823, "raw_name": "Nitelva bru", "osm_name": "Strømsveien", "osm_type": "secondary", "osm_lanes": 2.0, "osm_oneway": null, "osm_distance": 0.033821674214606641, "osm_maxspeed": 50.0, "osmid": 4858559.0 }, "geometry": { "type": "Point", "coordinates": [ 11.026116, 59.956982 ] } },
{ "type": "Feature", "properties": { "AADT": 20391, "raw_name": "Hovinbakken", "osm_name": "Fetveien", "osm_type": "trunk", "osm_lanes": 2.0, "osm_oneway": "True", "osm_distance": 6.9144821643692334, "osm_maxspeed": 80.0, "osmid": 113622578.0 }, "geometry": { "type": "Point", "coordinates": [ 11.134397, 59.937262 ] } },
{ "type": "Feature", "properties": { "AADT": 181, "raw_name": "Isakbekken sykkel", "osm_name": null, "osm_type": null, "osm_lanes": null, "osm_oneway": null, "osm_distance": null, "osm_maxspeed": null, "osmid": null }, "geometry": { "type": "Point", "coordinates": [ 11.079459, 59.952241 ] } },
{ "type": "Feature", "properties": { "AADT": 23903, "raw_name": "Isakbekken", "osm_name": "Fetveien", "osm_type": "trunk", "osm_lanes": 2.0, "osm_oneway": "True", "osm_distance": 3.0010662594484452, "osm_maxspeed": 80.0, "osmid": 113576140.0 }, "geometry": { "type": "Point", "coordinates": [ 11.079593, 59.952482 ] } },
{ "type": "Feature", "properties": { "AADT": 11019, "raw_name": "Kjeller", "osm_name": "Fetveien", "osm_type": "trunk", "osm_lanes": 2.0, "osm_oneway": null, "osm_distance": 0.73437638377899273, "osm_maxspeed": 50.0, "osmid": 404595894.0 }, "geometry": { "type": "Point", "coordinates": [ 11.048513, 59.970495 ] } },
{ "type": "Feature", "properties": { "AADT": 325, "raw_name": "Kjeller sykkel", "osm_name": null, "osm_type": null, "osm_lanes": null, "osm_oneway": null, "osm_distance": null, "osm_maxspeed": null, "osmid": null }, "geometry": { "type": "Point", "coordinates": [ 11.047663, 59.970757 ] } },
{ "type": "Feature", "properties": { "AADT": 14462, "raw_name": "Nordbyveien", "osm_name": "Nordbyveien", "osm_type": "primary", "osm_lanes": null, "osm_oneway": null, "osm_distance": 0.097202560810454489, "osm_maxspeed": 50.0, "osmid": 108645064.0 }, "geometry": { "type": "Point", "coordinates": [ 11.003592, 59.974641 ] } },
{ "type": "Feature", "properties": { "AADT": 112, "raw_name": "Nordbyveien sykkel", "osm_name": "Nordbyveien", "osm_type": "primary", "osm_lanes": null, "osm_oneway": null, "osm_distance": 18.211652176557198, "osm_maxspeed": 50.0, "osmid": 108645064.0 }, "geometry": { "type": "Point", "coordinates": [ 11.00335, 59.974686 ] } },
{ "type": "Feature", "properties": { "AADT": 11626, "raw_name": "Skedsmo (Stranden)", "osm_name": "Fetveien", "osm_type": "trunk", "osm_lanes": 2.0, "osm_oneway": null, "osm_distance": 0.21984331564060547, "osm_maxspeed": 60.0, "osmid": 115770465.0 }, "geometry": { "type": "Point", "coordinates": [ 11.019732, 59.977871 ] } },
{ "type": "Feature", "properties": { "AADT": 195, "raw_name": "Kjellerholen bru sykkel", "osm_name": "Trondheimsveien", "osm_type": "trunk", "osm_lanes": 3.0, "osm_oneway": null, "osm_distance": 5.0885802747919433, "osm_maxspeed": 60.0, "osmid": 113630883.0 }, "geometry": { "type": "Point", "coordinates": [ 11.004897, 59.979107 ] } },
{ "type": "Feature", "properties": { "AADT": 18929, "raw_name": "Kjellerholen bru", "osm_name": "Trondheimsveien", "osm_type": "trunk", "osm_lanes": 3.0, "osm_oneway": null, "osm_distance": 0.073973846274539776, "osm_maxspeed": 60.0, "osmid": 113630883.0 }, "geometry": { "type": "Point", "coordinates": [ 11.004819, 59.979172 ] } },
{ "type": "Feature", "properties": { "AADT": 9701, "raw_name": "Brøtertoppen", "osm_name": "Skedsmo kirkevei", "osm_type": "trunk", "osm_lanes": 2.0, "osm_oneway": null, "osm_distance": 0.62381081156517115, "osm_maxspeed": 60.0, "osmid": 1017859536.0 }, "geometry": { "type": "Point", "coordinates": [ 11.055543, 59.9792 ] } },
{ "type": "Feature", "properties": { "AADT": 69, "raw_name": "Brøtertoppen sykkel", "osm_name": "Skedsmo kirkevei", "osm_type": "trunk", "osm_lanes": 2.0, "osm_oneway": null, "osm_distance": 12.902087654430671, "osm_maxspeed": 60.0, "osmid": 1017859536.0 }, "geometry": { "type": "Point", "coordinates": [ 11.055333, 59.97933 ] } },
{ "type": "Feature", "properties": { "AADT": 73, "raw_name": "Brånåsdalen sykkel", "osm_name": "Trondheimsveien", "osm_type": "secondary", "osm_lanes": 2.0, "osm_oneway": null, "osm_distance": 12.26059087787225, "osm_maxspeed": 60.0, "osmid": 148833085.0 }, "geometry": { "type": "Point", "coordinates": [ 11.028849, 59.989163 ] } },
{ "type": "Feature", "properties": { "AADT": 8390, "raw_name": "Brånåsdalen", "osm_name": "Trondheimsveien", "osm_type": "secondary", "osm_lanes": 2.0, "osm_oneway": null, "osm_distance": 0.49021570615095211, "osm_maxspeed": 60.0, "osmid": 148833085.0 }, "geometry": { "type": "Point", "coordinates": [ 11.028694, 59.989199 ] } },
{ "type": "Feature", "properties": { "AADT": 63539, "raw_name": "Hvam nord", "osm_name": null, "osm_type": "motorway", "osm_lanes": 2.0, "osm_oneway": "True", "osm_distance": 7.302618311405018, "osm_maxspeed": 100.0, "osmid": 886121685.0 }, "geometry": { "type": "Point", "coordinates": [ 11.028942, 59.989594 ] } },
{ "type": "Feature", "properties": { "AADT": 2479, "raw_name": "Askehaugveien", "osm_name": "Askehaugveien", "osm_type": "secondary", "osm_lanes": null, "osm_oneway": null, "osm_distance": 0.062342325376398028, "osm_maxspeed": 40.0, "osmid": 263678922.0 }, "geometry": { "type": "Point", "coordinates": [ 10.764412, 59.721712 ] } },
{ "type": "Feature", "properties": { "AADT": 6389, "raw_name": "Nesoddv v/Knardalv", "osm_name": "Nesoddveien", "osm_type": "primary", "osm_lanes": 2.0, "osm_oneway": null, "osm_distance": 0.15094013150612287, "osm_maxspeed": 70.0, "osmid": 163948676.0 }, "geometry": { "type": "Point", "coordinates": [ 10.695756, 59.724038 ] } },
{ "type": "Feature", "properties": { "AADT": 8680, "raw_name": "Nessetveien", "osm_name": "Nessetveien", "osm_type": "primary", "osm_lanes": null, "osm_oneway": null, "osm_distance": 0.44629637726649929, "osm_maxspeed": 60.0, "osmid": 252962359.0 }, "geometry": { "type": "Point", "coordinates": [ 10.729355, 59.724113 ] } },
{ "type": "Feature", "properties": { "AADT": 13004, "raw_name": "Svartskog", "osm_name": null, "osm_type": "trunk", "osm_lanes": null, "osm_oneway": "True", "osm_distance": 4.7571064939691148, "osm_maxspeed": 80.0, "osmid": 252793897.0 }, "geometry": { "type": "Point", "coordinates": [ 10.770275, 59.775641 ] } },
{ "type": "Feature", "properties": { "AADT": 4643, "raw_name": "Hasle", "osm_name": "Hasleveien", "osm_type": "primary", "osm_lanes": 2.0, "osm_oneway": null, "osm_distance": 0.23433856256861341, "osm_maxspeed": 70.0, "osmid": 299949537.0 }, "geometry": { "type": "Point", "coordinates": [ 10.690102, 59.776151 ] } },
{ "type": "Feature", "properties": { "AADT": 1454, "raw_name": "Sandvika", "osm_name": "Gamle Mossevei", "osm_type": "secondary", "osm_lanes": null, "osm_oneway": null, "osm_distance": 0.37009248499826114, "osm_maxspeed": 60.0, "osmid": 463720345.0 }, "geometry": { "type": "Point", "coordinates": [ 10.773216, 59.787579 ] } },
{ "type": "Feature", "properties": { "AADT": 2322, "raw_name": "Fosshellinga", "osm_name": "Osloveien", "osm_type": "primary", "osm_lanes": null, "osm_oneway": null, "osm_distance": 0.036937088405657251, "osm_maxspeed": 80.0, "osmid": 845998697.0 }, "geometry": { "type": "Point", "coordinates": [ 10.973329, 59.622493 ] } },
{ "type": "Feature", "properties": { "AADT": 639, "raw_name": "Gustvet", "osm_name": "Osloveien", "osm_type": "primary", "osm_lanes": null, "osm_oneway": null, "osm_distance": 0.042626415588273722, "osm_maxspeed": 80.0, "osmid": 167469584.0 }, "geometry": { "type": "Point", "coordinates": [ 10.941412, 59.629824 ] } },
{ "type": "Feature", "properties": { "AADT": 2555, "raw_name": "Elvestad nord", "osm_name": "Hobølveien", "osm_type": "primary", "osm_lanes": null, "osm_oneway": null, "osm_distance": 0.35697774579805924, "osm_maxspeed": 60.0, "osmid": 262437417.0 }, "geometry": { "type": "Point", "coordinates": [ 10.9566, 59.630072 ] } },
{ "type": "Feature", "properties": { "AADT": 12784, "raw_name": "Elvestad vest", "osm_name": null, "osm_type": "motorway", "osm_lanes": 2.0, "osm_oneway": "True", "osm_distance": 3.726332867314087, "osm_maxspeed": 100.0, "osmid": 262437395.0 }, "geometry": { "type": "Point", "coordinates": [ 10.938646, 59.640141 ] } },
{ "type": "Feature", "properties": { "AADT": 4778, "raw_name": "Sværsvann", "osm_name": "Enebakkveien", "osm_type": "primary", "osm_lanes": null, "osm_oneway": null, "osm_distance": 0.37385518915745714, "osm_maxspeed": 60.0, "osmid": 161687907.0 }, "geometry": { "type": "Point", "coordinates": [ 10.890785, 59.81748 ] } },
{ "type": "Feature", "properties": { "AADT": 3333, "raw_name": "Losbyvn X Nordlivn", "osm_name": "Losbyveien", "osm_type": "secondary", "osm_lanes": null, "osm_oneway": null, "osm_distance": 0.71263636888016513, "osm_maxspeed": 50.0, "osmid": 10066612.0 }, "geometry": { "type": "Point", "coordinates": [ 10.958799, 59.914446 ] } },
{ "type": "Feature", "properties": { "AADT": 9172, "raw_name": "Stenfelt", "osm_name": "Langhusveien", "osm_type": "primary", "osm_lanes": null, "osm_oneway": "True", "osm_distance": 3.8198472488077275, "osm_maxspeed": 50.0, "osmid": 131817725.0 }, "geometry": { "type": "Point", "coordinates": [ 10.81679, 59.759858 ] } },
{ "type": "Feature", "properties": { "AADT": 2813, "raw_name": "Dalsbekken rampe", "osm_name": null, "osm_type": "primary", "osm_lanes": null, "osm_oneway": null, "osm_distance": 2.3533133866772236, "osm_maxspeed": 80.0, "osmid": 58515653.0 }, "geometry": { "type": "Point", "coordinates": [ 10.80901, 59.760162 ] } },
{ "type": "Feature", "properties": { "AADT": 3816, "raw_name": "Dalsbekken bru", "osm_name": null, "osm_type": "primary", "osm_lanes": null, "osm_oneway": null, "osm_distance": 0.0292571557969535, "osm_maxspeed": 80.0, "osmid": 400674496.0 }, "geometry": { "type": "Point", "coordinates": [ 10.809792, 59.760238 ] } },
{ "type": "Feature", "properties": { "AADT": 7776, "raw_name": "Vevelstad", "osm_name": "Vevelstadveien", "osm_type": "secondary", "osm_lanes": null, "osm_oneway": null, "osm_distance": 0.22594350061939203, "osm_maxspeed": 60.0, "osmid": 25634414.0 }, "geometry": { "type": "Point", "coordinates": [ 10.843027, 59.763386 ] } },
{ "type": "Feature", "properties": { "AADT": 2265, "raw_name": "ASS TJUVDALEN PÅRAMPE", "osm_name": null, "osm_type": "motorway_link", "osm_lanes": 1.0, "osm_oneway": "True", "osm_distance": 4.6031828243333681, "osm_maxspeed": 80.0, "osmid": 10411973.0 }, "geometry": { "type": "Point", "coordinates": [ 10.835302, 59.773212 ] } },
{ "type": "Feature", "properties": { "AADT": 42382, "raw_name": "Nøstvet Asurdalen", "osm_name": "Europaveien", "osm_type": "motorway", "osm_lanes": 2.0, "osm_oneway": "True", "osm_distance": 11.333691537465022, "osm_maxspeed": 90.0, "osmid": 303411632.0 }, "geometry": { "type": "Point", "coordinates": [ 10.836164, 59.774016 ] } },
{ "type": "Feature", "properties": { "AADT": 2366, "raw_name": "ASS TJUVDALEN AVRAMPE", "osm_name": null, "osm_type": "motorway_link", "osm_lanes": 1.0, "osm_oneway": "True", "osm_distance": 0.038771498968779128, "osm_maxspeed": 80.0, "osmid": 27820417.0 }, "geometry": { "type": "Point", "coordinates": [ 10.835788, 59.774148 ] } },
{ "type": "Feature", "properties": { "AADT": 11129, "raw_name": "SKI ASSURTJERN", "osm_name": "Assurdiagonalen", "osm_type": "secondary", "osm_lanes": null, "osm_oneway": "True", "osm_distance": 2.6433439144527187, "osm_maxspeed": 50.0, "osmid": 303411608.0 }, "geometry": { "type": "Point", "coordinates": [ 10.841191, 59.782992 ] } },
{ "type": "Feature", "properties": { "AADT": 4219, "raw_name": "Myrvoll Torg", "osm_name": "Tverrveien", "osm_type": "secondary", "osm_lanes": null, "osm_oneway": "True", "osm_distance": 0.5664943016290418, "osm_maxspeed": 50.0, "osmid": 528556487.0 }, "geometry": { "type": "Point", "coordinates": [ 10.802117, 59.787431 ] } },
{ "type": "Feature", "properties": { "AADT": 5035, "raw_name": "Myrvoll Torg_Rkj_Øst", "osm_name": "Tverrveien", "osm_type": "secondary", "osm_lanes": null, "osm_oneway": null, "osm_distance": 0.48464759712676414, "osm_maxspeed": 50.0, "osmid": 119135237.0 }, "geometry": { "type": "Point", "coordinates": [ 10.800777, 59.787677 ] } },
{ "type": "Feature", "properties": { "AADT": 110, "raw_name": "Granholtet sykkel", "osm_name": "Kongeveien", "osm_type": "secondary", "osm_lanes": 2.0, "osm_oneway": null, "osm_distance": 18.41657609291018, "osm_maxspeed": 60.0, "osmid": 27197695.0 }, "geometry": { "type": "Point", "coordinates": [ 10.818491, 59.792369 ] } },
{ "type": "Feature", "properties": { "AADT": 3300, "raw_name": "Ski Flataaser avrampe", "osm_name": "Europaveien", "osm_type": "motorway", "osm_lanes": 2.0, "osm_oneway": "True", "osm_distance": 10.098527395701042, "osm_maxspeed": 90.0, "osmid": 303411624.0 }, "geometry": { "type": "Point", "coordinates": [ 10.841593, 59.793314 ] } },
{ "type": "Feature", "properties": { "AADT": 43576, "raw_name": "Ski Flataaser", "osm_name": "Europaveien", "osm_type": "motorway", "osm_lanes": 3.0, "osm_oneway": "True", "osm_distance": 11.906647989645924, "osm_maxspeed": 90.0, "osmid": 303411613.0 }, "geometry": { "type": "Point", "coordinates": [ 10.841326, 59.793318 ] } },
{ "type": "Feature", "properties": { "AADT": 1921, "raw_name": "Ski Flataaser pårampe", "osm_name": "Europaveien", "osm_type": "motorway", "osm_lanes": 3.0, "osm_oneway": "True", "osm_distance": 8.6895101515876814, "osm_maxspeed": 90.0, "osmid": 400674503.0 }, "geometry": { "type": "Point", "coordinates": [ 10.841106, 59.793392 ] } },
{ "type": "Feature", "properties": { "AADT": 11108, "raw_name": "Taraldrudveien", "osm_name": "Taraldrudveien", "osm_type": "secondary", "osm_lanes": 1.0, "osm_oneway": "True", "osm_distance": 0.57288582691419754, "osm_maxspeed": 70.0, "osmid": 26685417.0 }, "geometry": { "type": "Point", "coordinates": [ 10.8396, 59.797311 ] } },
{ "type": "Feature", "properties": { "AADT": 48708, "raw_name": "Taraldrud", "osm_name": "Europaveien", "osm_type": "motorway", "osm_lanes": 2.0, "osm_oneway": "True", "osm_distance": 12.745419718632673, "osm_maxspeed": 90.0, "osmid": 303411629.0 }, "geometry": { "type": "Point", "coordinates": [ 10.843085, 59.798917 ] } },
{ "type": "Feature", "properties": { "AADT": 11151, "raw_name": "Sofiemyr", "osm_name": "Kongeveien", "osm_type": "secondary", "osm_lanes": 2.0, "osm_oneway": null, "osm_distance": 2.2241698030138486, "osm_maxspeed": 50.0, "osmid": 27197659.0 }, "geometry": { "type": "Point", "coordinates": [ 10.819685, 59.800713 ] } },
{ "type": "Feature", "properties": { "AADT": 17, "raw_name": "Kolbotn sykkeltavle mot metrering", "osm_name": "Skiveien", "osm_type": "primary", "osm_lanes": 2.0, "osm_oneway": null, "osm_distance": 12.693091562338489, "osm_maxspeed": 50.0, "osmid": 4936591.0 }, "geometry": { "type": "Point", "coordinates": [ 10.806187, 59.808375 ] } },
{ "type": "Feature", "properties": { "AADT": 84, "raw_name": "Mastemyrveien sykkel", "osm_name": null, "osm_type": "primary", "osm_lanes": null, "osm_oneway": null, "osm_distance": 5.8669003076614983, "osm_maxspeed": 60.0, "osmid": 174337064.0 }, "geometry": { "type": "Point", "coordinates": [ 10.789413, 59.816189 ] } },
{ "type": "Feature", "properties": { "AADT": 7066, "raw_name": "Mastemyrveien N1", "osm_name": null, "osm_type": "primary", "osm_lanes": null, "osm_oneway": null, "osm_distance": 0.0057784197447812834, "osm_maxspeed": 60.0, "osmid": 174337064.0 }, "geometry": { "type": "Point", "coordinates": [ 10.789545, 59.81622 ] } },
{ "type": "Feature", "properties": { "AADT": 53, "raw_name": "Skivn Oslo gr sykkel", "osm_name": "Skiveien", "osm_type": "secondary", "osm_lanes": null, "osm_oneway": null, "osm_distance": 9.8843283834438633, "osm_maxspeed": 50.0, "osmid": 159225903.0 }, "geometry": { "type": "Point", "coordinates": [ 10.809649, 59.819203 ] } },
{ "type": "Feature", "properties": { "AADT": 1430, "raw_name": "Gml. Mossevei Oslo gr.", "osm_name": "Gamle Mossevei", "osm_type": "secondary", "osm_lanes": null, "osm_oneway": null, "osm_distance": 0.2553496105362873, "osm_maxspeed": 60.0, "osmid": 892187989.0 }, "geometry": { "type": "Point", "coordinates": [ 10.772948, 59.819519 ] } },
{ "type": "Feature", "properties": { "AADT": 5769, "raw_name": "Flateby", "osm_name": "Røerveien", "osm_type": "primary", "osm_lanes": null, "osm_oneway": null, "osm_distance": 0.74001221797719663, "osm_maxspeed": 60.0, "osmid": 871356276.0 }, "geometry": { "type": "Point", "coordinates": [ 10.681817, 59.823271 ] } },
{ "type": "Feature", "properties": { "AADT": 837, "raw_name": "Ingjerstrandvn- Oslo grense", "osm_name": "Ingierstrandveien", "osm_type": "secondary", "osm_lanes": null, "osm_oneway": null, "osm_distance": 0.27631417929353186, "osm_maxspeed": 60.0, "osmid": 179027632.0 }, "geometry": { "type": "Point", "coordinates": [ 10.76888, 59.825975 ] } },
{ "type": "Feature", "properties": { "AADT": 14955, "raw_name": "Mastemyr", "osm_name": null, "osm_type": "trunk", "osm_lanes": 2.0, "osm_oneway": "True", "osm_distance": 10.076175918125781, "osm_maxspeed": 80.0, "osmid": 330697832.0 }, "geometry": { "type": "Point", "coordinates": [ 10.777599, 59.828037 ] } },
{ "type": "Feature", "properties": { "AADT": 1412, "raw_name": "Mosseveien ved Fiskevollen rampe sørgående", "osm_name": "Mosseveien", "osm_type": "trunk", "osm_lanes": 3.0, "osm_oneway": "True", "osm_distance": 3.8029875025787532, "osm_maxspeed": 60.0, "osmid": 118398539.0 }, "geometry": { "type": "Point", "coordinates": [ 10.776777, 59.84165 ] } },
{ "type": "Feature", "properties": { "AADT": 3787, "raw_name": "Skivn. Oslo gr.", "osm_name": "Skiveien", "osm_type": "secondary", "osm_lanes": null, "osm_oneway": null, "osm_distance": 0.024030344867425214, "osm_maxspeed": 50.0, "osmid": 159225903.0 }, "geometry": { "type": "Point", "coordinates": [ 10.809566, 59.819236 ] } },
{ "type": "Feature", "properties": { "AADT": 48619, "raw_name": "Klemetsrud", "osm_name": null, "osm_type": "motorway", "osm_lanes": 2.0, "osm_oneway": "True", "osm_distance": 10.219059676310133, "osm_maxspeed": 90.0, "osmid": 673222900.0 }, "geometry": { "type": "Point", "coordinates": [ 10.843871, 59.82707 ] } },
{ "type": "Feature", "properties": { "AADT": 46761, "raw_name": "Klemetsrudkrysset Hovedkjørefelt", "osm_name": "Europaveien", "osm_type": "trunk", "osm_lanes": 3.0, "osm_oneway": "True", "osm_distance": 11.501071972164015, "osm_maxspeed": 80.0, "osmid": 242364779.0 }, "geometry": { "type": "Point", "coordinates": [ 10.839833, 59.839091 ] } },
{ "type": "Feature", "properties": { "AADT": 8611, "raw_name": "Pårampe Klemetsrudkrysset Nordgående", "osm_name": null, "osm_type": "trunk_link", "osm_lanes": 1.0, "osm_oneway": "True", "osm_distance": 0.11626729559116018, "osm_maxspeed": 80.0, "osmid": 23280233.0 }, "geometry": { "type": "Point", "coordinates": [ 10.840628, 59.839249 ] } },
{ "type": "Feature", "properties": { "AADT": 7143, "raw_name": "Avrampe Klemtsrudkrysset Sørgående", "osm_name": null, "osm_type": "trunk_link", "osm_lanes": 1.0, "osm_oneway": "True", "osm_distance": 0.58123550056355666, "osm_maxspeed": 80.0, "osmid": 23280183.0 }, "geometry": { "type": "Point", "coordinates": [ 10.839176, 59.84003 ] } },
{ "type": "Feature", "properties": { "AADT": 5520, "raw_name": "Ljabrudiagonalen", "osm_name": "Ljabrudiagonalen", "osm_type": "primary", "osm_lanes": 3.0, "osm_oneway": "False", "osm_distance": 0.30199050130499799, "osm_maxspeed": 60.0, "osmid": 151099066.0 }, "geometry": { "type": "Point", "coordinates": [ 10.786571, 59.840297 ] } },
{ "type": "Feature", "properties": { "AADT": 9411, "raw_name": "Nordstrandsveien", "osm_name": "Nordstrandveien", "osm_type": "secondary", "osm_lanes": 2.0, "osm_oneway": null, "osm_distance": 0.099435821283814549, "osm_maxspeed": 40.0, "osmid": 683442319.0 }, "geometry": { "type": "Point", "coordinates": [ 10.807302, 59.86041 ] } },
{ "type": "Feature", "properties": { "AADT": 4655, "raw_name": "E6 Skullerud Av/Pårampe Nordgående", "osm_name": null, "osm_type": "trunk", "osm_lanes": 2.0, "osm_oneway": null, "osm_distance": 0.018635456136386581, "osm_maxspeed": 50.0, "osmid": 4940401.0 }, "geometry": { "type": "Point", "coordinates": [ 10.831039, 59.862445 ] } },
{ "type": "Feature", "properties": { "AADT": 1747, "raw_name": "Skullerud pårampe Sydgående", "osm_name": null, "osm_type": "trunk_link", "osm_lanes": null, "osm_oneway": "True", "osm_distance": 1.66970950733926, "osm_maxspeed": 80.0, "osmid": 242364804.0 }, "geometry": { "type": "Point", "coordinates": [ 10.830539, 59.862809 ] } },
{ "type": "Feature", "properties": { "AADT": 2054, "raw_name": "Skullerud Avrampe Nordgående", "osm_name": "Enebakkveien", "osm_type": "trunk", "osm_lanes": 2.0, "osm_oneway": "True", "osm_distance": 8.9363653959460585, "osm_maxspeed": 80.0, "osmid": 132658000.0 }, "geometry": { "type": "Point", "coordinates": [ 10.830928, 59.862816 ] } },
{ "type": "Feature", "properties": { "AADT": 2038, "raw_name": "E6 Skullerud  Avrampe Sydgående", "osm_name": null, "osm_type": "trunk_link", "osm_lanes": null, "osm_oneway": "True", "osm_distance": 0.33859933595162445, "osm_maxspeed": 80.0, "osmid": 4940398.0 }, "geometry": { "type": "Point", "coordinates": [ 10.82999, 59.863114 ] } },
{ "type": "Feature", "properties": { "AADT": 22864, "raw_name": "Mosseveien v/Furubråtveien", "osm_name": "Mosseveien", "osm_type": "trunk", "osm_lanes": 2.0, "osm_oneway": "True", "osm_distance": 5.0458933814751976, "osm_maxspeed": 50.0, "osmid": 331994218.0 }, "geometry": { "type": "Point", "coordinates": [ 10.783266, 59.867845 ] } },
{ "type": "Feature", "properties": { "AADT": 176, "raw_name": "Skullerud sykkel", "osm_name": null, "osm_type": null, "osm_lanes": null, "osm_oneway": null, "osm_distance": null, "osm_maxspeed": null, "osmid": null }, "geometry": { "type": "Point", "coordinates": [ 10.829667, 59.869146 ] } },
{ "type": "Feature", "properties": { "AADT": 14245, "raw_name": "Mosseveien ved Fiskevollen hovedkjørefelt", "osm_name": "Mosseveien", "osm_type": "trunk", "osm_lanes": 3.0, "osm_oneway": "True", "osm_distance": 4.0176063457927604, "osm_maxspeed": 60.0, "osmid": 330697850.0 }, "geometry": { "type": "Point", "coordinates": [ 10.776985, 59.841661 ] } },
{ "type": "Feature", "properties": { "AADT": 558, "raw_name": "Bekkelaget (fortau)", "osm_name": "Mosseveien", "osm_type": "trunk", "osm_lanes": 2.0, "osm_oneway": "True", "osm_distance": 7.6941384151633994, "osm_maxspeed": 60.0, "osmid": 176016237.0 }, "geometry": { "type": "Point", "coordinates": [ 10.768832, 59.884472 ] } },
{ "type": "Feature", "properties": { "AADT": 2297, "raw_name": "Kongshavn rampe sydgående", "osm_name": "Mosseveien", "osm_type": "trunk_link", "osm_lanes": 2.0, "osm_oneway": "True", "osm_distance": 1.2012224588510971, "osm_maxspeed": 60.0, "osmid": 255703544.0 }, "geometry": { "type": "Point", "coordinates": [ 10.756877, 59.895639 ] } },
{ "type": "Feature", "properties": { "AADT": 19804, "raw_name": "Kongshavn 1,2", "osm_name": "Mosseveien", "osm_type": "trunk", "osm_lanes": 1.0, "osm_oneway": "True", "osm_distance": 4.571550383257855, "osm_maxspeed": 60.0, "osmid": 255703513.0 }, "geometry": { "type": "Point", "coordinates": [ 10.756999, 59.895687 ] } },
{ "type": "Feature", "properties": { "AADT": 1457, "raw_name": "Kongshavn rampe nordgående", "osm_name": "Mosseveien", "osm_type": "trunk_link", "osm_lanes": 2.0, "osm_oneway": "True", "osm_distance": 0.16180498935551815, "osm_maxspeed": 60.0, "osmid": 255703543.0 }, "geometry": { "type": "Point", "coordinates": [ 10.757176, 59.895707 ] } },
{ "type": "Feature", "properties": { "AADT": 33320, "raw_name": "Ekebergtunnelen nordgående", "osm_name": "Operatunnelen / Ekebergtunnelen", "osm_type": "trunk", "osm_lanes": 3.0, "osm_oneway": "True", "osm_distance": 2.4128258615228653, "osm_maxspeed": 70.0, "osmid": 308394985.0 }, "geometry": { "type": "Point", "coordinates": [ 10.771393, 59.899473 ] } },
{ "type": "Feature", "properties": { "AADT": 34155, "raw_name": "Ekebergtunnelen sørgående", "osm_name": "Operatunnelen / Ekebergtunnelen", "osm_type": "trunk", "osm_lanes": 3.0, "osm_oneway": "True", "osm_distance": 0.84333998177376956, "osm_maxspeed": 70.0, "osmid": 226393012.0 }, "geometry": { "type": "Point", "coordinates": [ 10.771227, 59.899665 ] } },
{ "type": "Feature", "properties": { "AADT": 8772, "raw_name": "General Ruges vei v/ Bøler", "osm_name": "General Ruges vei", "osm_type": "secondary", "osm_lanes": 2.0, "osm_oneway": null, "osm_distance": 0.15538455817546296, "osm_maxspeed": 50.0, "osmid": 1298281022.0 }, "geometry": { "type": "Point", "coordinates": [ 10.845196, 59.883898 ] } },
{ "type": "Feature", "properties": { "AADT": 1154, "raw_name": "Pårampe fra Sandstuveien", "osm_name": "Europaveien", "osm_type": "trunk", "osm_lanes": 2.0, "osm_oneway": "True", "osm_distance": 5.6962798381216952, "osm_maxspeed": 80.0, "osmid": 672937161.0 }, "geometry": { "type": "Point", "coordinates": [ 10.807295, 59.887795 ] } },
{ "type": "Feature", "properties": { "AADT": 34407, "raw_name": "E6 Sandstuveien Sydgående", "osm_name": "Europaveien", "osm_type": "trunk", "osm_lanes": 3.0, "osm_oneway": "True", "osm_distance": 3.2886435856732521, "osm_maxspeed": 80.0, "osmid": 672937158.0 }, "geometry": { "type": "Point", "coordinates": [ 10.807435, 59.887855 ] } },
{ "type": "Feature", "properties": { "AADT": 837, "raw_name": "Avrampe til Sandstuveien", "osm_name": "Europaveien", "osm_type": "trunk", "osm_lanes": 3.0, "osm_oneway": "True", "osm_distance": 7.496112255261453, "osm_maxspeed": 80.0, "osmid": 672937158.0 }, "geometry": { "type": "Point", "coordinates": [ 10.80755, 59.88792 ] } },
{ "type": "Feature", "properties": { "AADT": 36549, "raw_name": "E6 Sandstuveien Nordgående", "osm_name": "Europaveien", "osm_type": "trunk", "osm_lanes": 2.0, "osm_oneway": "True", "osm_distance": 3.3218233385692577, "osm_maxspeed": 80.0, "osmid": 329342460.0 }, "geometry": { "type": "Point", "coordinates": [ 10.807332, 59.887929 ] } },
{ "type": "Feature", "properties": { "AADT": 3372, "raw_name": "Avrampe til Sandstuveien", "osm_name": null, "osm_type": "trunk_link", "osm_lanes": 1.0, "osm_oneway": "True", "osm_distance": 0.62887481156906155, "osm_maxspeed": 80.0, "osmid": 242364794.0 }, "geometry": { "type": "Point", "coordinates": [ 10.806105, 59.888159 ] } },
{ "type": "Feature", "properties": { "AADT": 3809, "raw_name": "Pårampe fra Sandstuveien", "osm_name": null, "osm_type": "trunk_link", "osm_lanes": 1.0, "osm_oneway": "True", "osm_distance": 0.06473913694438907, "osm_maxspeed": null, "osmid": 7995803.0 }, "geometry": { "type": "Point", "coordinates": [ 10.807013, 59.888731 ] } },
{ "type": "Feature", "properties": { "AADT": 1815, "raw_name": "Skjønhaug vest", "osm_name": "Trøgstadveien", "osm_type": "primary", "osm_lanes": null, "osm_oneway": null, "osm_distance": 0.01142297956477715, "osm_maxspeed": 50.0, "osmid": 253652630.0 }, "geometry": { "type": "Point", "coordinates": [ 11.308937, 59.637655 ] } },
{ "type": "Feature", "properties": { "AADT": 3590, "raw_name": "Skjønhaug sør", "osm_name": "Kirkeveien", "osm_type": "trunk", "osm_lanes": null, "osm_oneway": null, "osm_distance": 0.00308728700533653, "osm_maxspeed": 80.0, "osmid": 619174056.0 }, "geometry": { "type": "Point", "coordinates": [ 11.313422, 59.646483 ] } },
{ "type": "Feature", "properties": { "AADT": 1875, "raw_name": "Krokedal", "osm_name": "Båstadveien", "osm_type": "trunk", "osm_lanes": null, "osm_oneway": null, "osm_distance": 0.018679065391334074, "osm_maxspeed": 60.0, "osmid": 619174062.0 }, "geometry": { "type": "Point", "coordinates": [ 11.292533, 59.758302 ] } },
{ "type": "Feature", "properties": { "AADT": 5754, "raw_name": "Valsporten", "osm_name": "Haldenveien", "osm_type": "primary", "osm_lanes": 2.0, "osm_oneway": null, "osm_distance": 0.37179523462777347, "osm_maxspeed": 80.0, "osmid": 884630902.0 }, "geometry": { "type": "Point", "coordinates": [ 11.262128, 60.005327 ] } },
{ "type": "Feature", "properties": { "AADT": 10904, "raw_name": "Langbakk bru", "osm_name": null, "osm_type": "trunk", "osm_lanes": 2.0, "osm_oneway": "True", "osm_distance": 2.0218796130600789, "osm_maxspeed": 100.0, "osmid": 120237380.0 }, "geometry": { "type": "Point", "coordinates": [ 11.277407, 60.115884 ] } },
{ "type": "Feature", "properties": { "AADT": 2915, "raw_name": "Neskollen", "osm_name": "Hvamsmovegen", "osm_type": "secondary", "osm_lanes": null, "osm_oneway": "True", "osm_distance": 1.0501407183040063, "osm_maxspeed": 50.0, "osmid": 793874783.0 }, "geometry": { "type": "Point", "coordinates": [ 11.343665, 60.125819 ] } },
{ "type": "Feature", "properties": { "AADT": 5674, "raw_name": "Algarheimsvegen v Algarheim", "osm_name": "Algarheimsvegen", "osm_type": "primary", "osm_lanes": null, "osm_oneway": null, "osm_distance": 0.10929908438102601, "osm_maxspeed": 60.0, "osmid": 645890344.0 }, "geometry": { "type": "Point", "coordinates": [ 11.25513, 60.140819 ] } },
{ "type": "Feature", "properties": { "AADT": 2770, "raw_name": "Kisavegen v Algarheim", "osm_name": "Kisavegen", "osm_type": "secondary", "osm_lanes": null, "osm_oneway": null, "osm_distance": 0.097542096648914209, "osm_maxspeed": 50.0, "osmid": 879146715.0 }, "geometry": { "type": "Point", "coordinates": [ 11.254624, 60.141368 ] } },
{ "type": "Feature", "properties": { "AADT": 12675, "raw_name": "Svartdalstunellen mot Ryen", "osm_name": "Operatunnelen / Svartdalstunnelen", "osm_type": "trunk", "osm_lanes": 2.0, "osm_oneway": "True", "osm_distance": 0.35023970939919846, "osm_maxspeed": 70.0, "osmid": 226393013.0 }, "geometry": { "type": "Point", "coordinates": [ 10.802248, 59.899245 ] } },
{ "type": "Feature", "properties": { "AADT": 10461, "raw_name": "Østensjøveien v/Østensjø skole", "osm_name": "Østensjøveien", "osm_type": "secondary", "osm_lanes": 2.0, "osm_oneway": null, "osm_distance": 0.084954828950466521, "osm_maxspeed": 40.0, "osmid": 83131098.0 }, "geometry": { "type": "Point", "coordinates": [ 10.829181, 59.899302 ] } },
{ "type": "Feature", "properties": { "AADT": 13435, "raw_name": "Svartdalstunellen mot sentrum", "osm_name": "Operatunnelen / Svartdalstunnelen", "osm_type": "trunk", "osm_lanes": 2.0, "osm_oneway": "True", "osm_distance": 0.33161814118381161, "osm_maxspeed": 70.0, "osmid": 7995748.0 }, "geometry": { "type": "Point", "coordinates": [ 10.802524, 59.899352 ] } },
{ "type": "Feature", "properties": { "AADT": 75625, "raw_name": "E6 Manglerud", "osm_name": "Adolf Hedins vei", "osm_type": "trunk", "osm_lanes": 3.0, "osm_oneway": "True", "osm_distance": 4.5389504183291072, "osm_maxspeed": 70.0, "osmid": 141272107.0 }, "geometry": { "type": "Point", "coordinates": [ 10.818018, 59.901192 ] } },
{ "type": "Feature", "properties": { "AADT": 64, "raw_name": "Bryn sykkel", "osm_name": null, "osm_type": null, "osm_lanes": null, "osm_oneway": null, "osm_distance": null, "osm_maxspeed": null, "osmid": null }, "geometry": { "type": "Point", "coordinates": [ 10.81944, 59.90205 ] } },
{ "type": "Feature", "properties": { "AADT": 35027, "raw_name": "Bjørvikatunellen østgående", "osm_name": "Operatunnelen / Bjørvikatunnelen", "osm_type": "trunk", "osm_lanes": 3.0, "osm_oneway": "True", "osm_distance": 0.16113038017783726, "osm_maxspeed": 70.0, "osmid": 204039523.0 }, "geometry": { "type": "Point", "coordinates": [ 10.75313, 59.90551 ] } },
{ "type": "Feature", "properties": { "AADT": 31629, "raw_name": "Bjørvikatunellen vestgående", "osm_name": "Operatunnelen / Bjørvikatunnelen", "osm_type": "trunk", "osm_lanes": 3.0, "osm_oneway": "True", "osm_distance": 0.20912469606138251, "osm_maxspeed": 70.0, "osmid": 204039520.0 }, "geometry": { "type": "Point", "coordinates": [ 10.753222, 59.90562 ] } },
{ "type": "Feature", "properties": { "AADT": 11342, "raw_name": "Kong Håkon 5.s gt. nordgående", "osm_name": "Kong Håkon 5.s gate", "osm_type": "trunk", "osm_lanes": 3.0, "osm_oneway": "True", "osm_distance": 0.15765220225357329, "osm_maxspeed": 50.0, "osmid": 329366809.0 }, "geometry": { "type": "Point", "coordinates": [ 10.761556, 59.905907 ] } },
{ "type": "Feature", "properties": { "AADT": 9795, "raw_name": "Kong Håkon 5.s gt. sydgående", "osm_name": "Kong Håkon 5.s gate", "osm_type": "trunk", "osm_lanes": 3.0, "osm_oneway": "True", "osm_distance": 0.0147206973044308, "osm_maxspeed": 50.0, "osmid": 286291236.0 }, "geometry": { "type": "Point", "coordinates": [ 10.761306, 59.905927 ] } },
{ "type": "Feature", "properties": { "AADT": 461, "raw_name": "Dr. Eufemias Gt. Sykkel Østgående", "osm_name": "Dronning Eufemias gate", "osm_type": "trunk", "osm_lanes": 3.0, "osm_oneway": "True", "osm_distance": 0.41656557489853274, "osm_maxspeed": 40.0, "osmid": 329366798.0 }, "geometry": { "type": "Point", "coordinates": [ 10.754072, 59.908668 ] } },
{ "type": "Feature", "properties": { "AADT": 623, "raw_name": "Dr. Eufemias gt. Sykkel Vestgående", "osm_name": "Dronning Eufemias gate", "osm_type": "trunk", "osm_lanes": 3.0, "osm_oneway": "True", "osm_distance": 0.38081704337841404, "osm_maxspeed": 40.0, "osmid": 366747828.0 }, "geometry": { "type": "Point", "coordinates": [ 10.754715, 59.90871 ] } },
{ "type": "Feature", "properties": { "AADT": 6645, "raw_name": "Filipstad østgående rampe", "osm_name": null, "osm_type": "trunk_link", "osm_lanes": 2.0, "osm_oneway": "True", "osm_distance": 0.060108043256844462, "osm_maxspeed": 70.0, "osmid": 147755885.0 }, "geometry": { "type": "Point", "coordinates": [ 10.71757, 59.909743 ] } },
{ "type": "Feature", "properties": { "AADT": 30989, "raw_name": "Filipstad østgående", "osm_name": null, "osm_type": "trunk", "osm_lanes": 3.0, "osm_oneway": "True", "osm_distance": 0.52721806669414106, "osm_maxspeed": 70.0, "osmid": 205946626.0 }, "geometry": { "type": "Point", "coordinates": [ 10.717488, 59.909941 ] } },
{ "type": "Feature", "properties": { "AADT": 14967, "raw_name": "Østre tangent", "osm_name": "Østre tangent", "osm_type": "trunk", "osm_lanes": 2.0, "osm_oneway": null, "osm_distance": 0.25242881014469681, "osm_maxspeed": 50.0, "osmid": 255790896.0 }, "geometry": { "type": "Point", "coordinates": [ 10.760802, 59.910064 ] } },
{ "type": "Feature", "properties": { "AADT": 30553, "raw_name": "Filipstad vestgående", "osm_name": null, "osm_type": "trunk", "osm_lanes": 3.0, "osm_oneway": "True", "osm_distance": 0.041810190247829934, "osm_maxspeed": 80.0, "osmid": 5094553.0 }, "geometry": { "type": "Point", "coordinates": [ 10.71758, 59.910087 ] } },
{ "type": "Feature", "properties": { "AADT": 6679, "raw_name": "Filipstad vestgående rampe", "osm_name": null, "osm_type": "trunk_link", "osm_lanes": 1.0, "osm_oneway": "True", "osm_distance": 0.035766091833779989, "osm_maxspeed": 70.0, "osmid": 255787193.0 }, "geometry": { "type": "Point", "coordinates": [ 10.71745, 59.910219 ] } },
{ "type": "Feature", "properties": { "AADT": 1826, "raw_name": "Frognerstranda sykkel 03", "osm_name": null, "osm_type": "trunk", "osm_lanes": 3.0, "osm_oneway": "True", "osm_distance": 11.8669868482532, "osm_maxspeed": 80.0, "osmid": 467248341.0 }, "geometry": { "type": "Point", "coordinates": [ 10.704059, 59.911172 ] } },
{ "type": "Feature", "properties": { "AADT": 6667, "raw_name": "Helsfyr rampe mot Alnabru", "osm_name": "Strømsveien", "osm_type": "trunk", "osm_lanes": 3.0, "osm_oneway": "True", "osm_distance": 2.0680420481697022, "osm_maxspeed": 80.0, "osmid": 60303138.0 }, "geometry": { "type": "Point", "coordinates": [ 10.796609, 59.911676 ] } },
{ "type": "Feature", "properties": { "AADT": 41763, "raw_name": "Helsfyr 1,2,3,4", "osm_name": "Strømsveien", "osm_type": "trunk", "osm_lanes": 4.0, "osm_oneway": "True", "osm_distance": 5.6631752908649879, "osm_maxspeed": 80.0, "osmid": 258824037.0 }, "geometry": { "type": "Point", "coordinates": [ 10.796522, 59.911741 ] } },
{ "type": "Feature", "properties": { "AADT": 7639, "raw_name": "Helsfyr rampe mot sentrum", "osm_name": "Strømsveien", "osm_type": "trunk", "osm_lanes": 4.0, "osm_oneway": "True", "osm_distance": 5.1037241788853152, "osm_maxspeed": 80.0, "osmid": 258824037.0 }, "geometry": { "type": "Point", "coordinates": [ 10.796445, 59.911857 ] } },
{ "type": "Feature", "properties": { "AADT": 446, "raw_name": "Helsfyr (fortau)", "osm_name": null, "osm_type": "service", "osm_lanes": null, "osm_oneway": null, "osm_distance": 6.1993186922416132, "osm_maxspeed": null, "osmid": 237165981.0 }, "geometry": { "type": "Point", "coordinates": [ 10.801976, 59.913515 ] } },
{ "type": "Feature", "properties": { "AADT": 66933, "raw_name": "E6 Teisen", "osm_name": "Adolf Hedins vei", "osm_type": "trunk", "osm_lanes": 3.0, "osm_oneway": "True", "osm_distance": 5.3165475774090813, "osm_maxspeed": 70.0, "osmid": 666235574.0 }, "geometry": { "type": "Point", "coordinates": [ 10.814306, 59.915057 ] } },
{ "type": "Feature", "properties": { "AADT": 1588, "raw_name": "E6 Teisen pårampe fra Bryn", "osm_name": "Adolf Hedins vei", "osm_type": "trunk", "osm_lanes": 2.0, "osm_oneway": "True", "osm_distance": 6.0341115862025161, "osm_maxspeed": 70.0, "osmid": 71218142.0 }, "geometry": { "type": "Point", "coordinates": [ 10.814465, 59.915089 ] } },
{ "type": "Feature", "properties": { "AADT": 1269, "raw_name": "Munkedamsveien sykkel", "osm_name": "Operatunnelen", "osm_type": "trunk_link", "osm_lanes": null, "osm_oneway": "True", "osm_distance": 0.11764076890167346, "osm_maxspeed": 50.0, "osmid": 5786369.0 }, "geometry": { "type": "Point", "coordinates": [ 10.725558, 59.911193 ] } },
{ "type": "Feature", "properties": { "AADT": 10508, "raw_name": "Munkedamsveien", "osm_name": "Munkedamsveien", "osm_type": "trunk", "osm_lanes": 3.0, "osm_oneway": null, "osm_distance": 0.24391462012908327, "osm_maxspeed": 50.0, "osmid": 466609373.0 }, "geometry": { "type": "Point", "coordinates": [ 10.725752, 59.911418 ] } },
{ "type": "Feature", "properties": { "AADT": 67741, "raw_name": "E18-FROGNERSTR V/SK", "osm_name": null, "osm_type": "trunk", "osm_lanes": 3.0, "osm_oneway": "True", "osm_distance": 6.5976766729055569, "osm_maxspeed": 80.0, "osmid": 305101154.0 }, "geometry": { "type": "Point", "coordinates": [ 10.698443, 59.914826 ] } },
{ "type": "Feature", "properties": { "AADT": 12429, "raw_name": "Vaterlandstunnelen", "osm_name": null, "osm_type": null, "osm_lanes": null, "osm_oneway": null, "osm_distance": null, "osm_maxspeed": null, "osmid": null }, "geometry": { "type": "Point", "coordinates": [ 10.7493, 59.916004 ] } },
{ "type": "Feature", "properties": { "AADT": 6717, "raw_name": "Finnmarksgata", "osm_name": "Finnmarkgata", "osm_type": "primary", "osm_lanes": 4.0, "osm_oneway": null, "osm_distance": 0.75685190377492928, "osm_maxspeed": 40.0, "osmid": 135234952.0 }, "geometry": { "type": "Point", "coordinates": [ 10.776115, 59.916631 ] } },
{ "type": "Feature", "properties": { "AADT": 12974, "raw_name": "Bygdøy alle ", "osm_name": "Bygdøy allé", "osm_type": "secondary", "osm_lanes": 3.0, "osm_oneway": null, "osm_distance": 0.23572037573427687, "osm_maxspeed": 50.0, "osmid": 968251919.0 }, "geometry": { "type": "Point", "coordinates": [ 10.696369, 59.919245 ] } },
{ "type": "Feature", "properties": { "AADT": 12318, "raw_name": "Tvetenveien v/Haugerud", "osm_name": "Tvetenveien", "osm_type": "secondary", "osm_lanes": 2.0, "osm_oneway": null, "osm_distance": 0.66767812823785144, "osm_maxspeed": null, "osmid": 4867742.0 }, "geometry": { "type": "Point", "coordinates": [ 10.8557, 59.922562 ] } },
{ "type": "Feature", "properties": { "AADT": 43693, "raw_name": "Rv. 150 Ulvensplitten", "osm_name": "Ulvensplitten", "osm_type": "trunk_link", "osm_lanes": 1.0, "osm_oneway": "True", "osm_distance": 0.54972944745688312, "osm_maxspeed": 70.0, "osmid": 28307517.0 }, "geometry": { "type": "Point", "coordinates": [ 10.807645, 59.922586 ] } },
{ "type": "Feature", "properties": { "AADT": 16927, "raw_name": "E6 Ulvensplitten rampe Teisen Alnabru", "osm_name": "Ulvensplitten", "osm_type": "trunk_link", "osm_lanes": 1.0, "osm_oneway": "True", "osm_distance": 0.88121212210832012, "osm_maxspeed": 70.0, "osmid": 317265000.0 }, "geometry": { "type": "Point", "coordinates": [ 10.809038, 59.922708 ] } },
{ "type": "Feature", "properties": { "AADT": 6472, "raw_name": "Losbyvn X Bergervn", "osm_name": "Losbyveien", "osm_type": "secondary", "osm_lanes": null, "osm_oneway": null, "osm_distance": 0.37847880719675697, "osm_maxspeed": 50.0, "osmid": 10066684.0 }, "geometry": { "type": "Point", "coordinates": [ 10.958426, 59.916275 ] } },
{ "type": "Feature", "properties": { "AADT": 7585, "raw_name": "Skårersletta", "osm_name": "Skårersletta", "osm_type": "tertiary", "osm_lanes": null, "osm_oneway": null, "osm_distance": 3.133955277274922, "osm_maxspeed": 30.0, "osmid": 1356195929.0 }, "geometry": { "type": "Point", "coordinates": [ 10.955178, 59.918783 ] } },
{ "type": "Feature", "properties": { "AADT": 12740, "raw_name": "Nordlivn. Lørenskog", "osm_name": "Nordliveien", "osm_type": "secondary", "osm_lanes": 2.0, "osm_oneway": null, "osm_distance": 0.01679114347034227, "osm_maxspeed": 70.0, "osmid": 926316597.0 }, "geometry": { "type": "Point", "coordinates": [ 10.946851, 59.918833 ] } },
{ "type": "Feature", "properties": { "AADT": 13803, "raw_name": "Solheimveien Lørenskog sentrum", "osm_name": "Solheimveien", "osm_type": "secondary", "osm_lanes": 2.0, "osm_oneway": "True", "osm_distance": 2.7122201841654356, "osm_maxspeed": 50.0, "osmid": 22000491.0 }, "geometry": { "type": "Point", "coordinates": [ 10.950167, 59.928587 ] } },
{ "type": "Feature", "properties": { "AADT": 26055, "raw_name": "E6 Alnabru nordgående Ulven Furuset", "osm_name": "Ulvensplitten", "osm_type": "motorway", "osm_lanes": 2.0, "osm_oneway": "True", "osm_distance": 0.26780264519345798, "osm_maxspeed": 80.0, "osmid": 194704708.0 }, "geometry": { "type": "Point", "coordinates": [ 10.828958, 59.922795 ] } },
{ "type": "Feature", "properties": { "AADT": 12828, "raw_name": "E6 Ulvensplitten Rampe Økern Alnabru", "osm_name": "Ulvensplitten", "osm_type": "trunk_link", "osm_lanes": 1.0, "osm_oneway": "True", "osm_distance": 0.27834622077981008, "osm_maxspeed": 70.0, "osmid": 28307520.0 }, "geometry": { "type": "Point", "coordinates": [ 10.809022, 59.922799 ] } },
{ "type": "Feature", "properties": { "AADT": 14654, "raw_name": "E6 Ulvensplitten Rampe Alnabru Teisen", "osm_name": "Ulvensplitten", "osm_type": "trunk_link", "osm_lanes": 1.0, "osm_oneway": "True", "osm_distance": 0.40838297185864347, "osm_maxspeed": 60.0, "osmid": 224742780.0 }, "geometry": { "type": "Point", "coordinates": [ 10.809402, 59.922925 ] } },
{ "type": "Feature", "properties": { "AADT": 23020, "raw_name": "E6 Alnabru nordgående Helsfyr Furuset", "osm_name": null, "osm_type": "motorway", "osm_lanes": 3.0, "osm_oneway": "True", "osm_distance": 4.0601717107026642, "osm_maxspeed": 80.0, "osmid": 4394238.0 }, "geometry": { "type": "Point", "coordinates": [ 10.82835, 59.922954 ] } },
{ "type": "Feature", "properties": { "AADT": 11764, "raw_name": "E6 Ulvensplitten Rampe Alnabru Økern", "osm_name": "Ulvensplitten", "osm_type": "trunk_link", "osm_lanes": 1.0, "osm_oneway": "True", "osm_distance": 0.83762309318143147, "osm_maxspeed": 60.0, "osmid": 4649866.0 }, "geometry": { "type": "Point", "coordinates": [ 10.809383, 59.923027 ] } },
{ "type": "Feature", "properties": { "AADT": 277, "raw_name": "Breivoll sykkel", "osm_name": "Breivollveien", "osm_type": "tertiary", "osm_lanes": 2.0, "osm_oneway": null, "osm_distance": 3.8304889752775142, "osm_maxspeed": 50.0, "osmid": 141233043.0 }, "geometry": { "type": "Point", "coordinates": [ 10.831387, 59.923064 ] } },
{ "type": "Feature", "properties": { "AADT": 18409, "raw_name": "E6 Alnabru sydgående Furuset Helsfyr", "osm_name": null, "osm_type": "motorway", "osm_lanes": 3.0, "osm_oneway": "True", "osm_distance": 3.6149241456089833, "osm_maxspeed": 80.0, "osmid": 4394238.0 }, "geometry": { "type": "Point", "coordinates": [ 10.830461, 59.923406 ] } },
{ "type": "Feature", "properties": { "AADT": 24382, "raw_name": "E6 Alnabru Sydgående Furuset Ulven", "osm_name": "Ulvensplitten", "osm_type": "motorway", "osm_lanes": 2.0, "osm_oneway": "True", "osm_distance": 0.27074257253383338, "osm_maxspeed": 80.0, "osmid": 4394240.0 }, "geometry": { "type": "Point", "coordinates": [ 10.830182, 59.923599 ] } },
{ "type": "Feature", "properties": { "AADT": 4213, "raw_name": "Lystad", "osm_name": "Rovenveien", "osm_type": "primary", "osm_lanes": null, "osm_oneway": null, "osm_distance": 0.18977343191448526, "osm_maxspeed": 80.0, "osmid": 883868906.0 }, "geometry": { "type": "Point", "coordinates": [ 11.203197, 59.954548 ] } },
{ "type": "Feature", "properties": { "AADT": 64716, "raw_name": "Skedsmovollen", "osm_name": null, "osm_type": "motorway", "osm_lanes": 2.0, "osm_oneway": "True", "osm_distance": 7.5138466117312168, "osm_maxspeed": 100.0, "osmid": 38458880.0 }, "geometry": { "type": "Point", "coordinates": [ 11.046334, 60.003356 ] } },
{ "type": "Feature", "properties": { "AADT": 13859, "raw_name": "Skedsmokorset", "osm_name": "Skedsmo kirkevei", "osm_type": "primary", "osm_lanes": 3.0, "osm_oneway": null, "osm_distance": 0.073651750070519273, "osm_maxspeed": 50.0, "osmid": 23161300.0 }, "geometry": { "type": "Point", "coordinates": [ 11.034271, 60.003567 ] } },
{ "type": "Feature", "properties": { "AADT": 6263, "raw_name": "Klampenborg", "osm_name": "Byvegen", "osm_type": "primary", "osm_lanes": null, "osm_oneway": null, "osm_distance": 0.14979354163001654, "osm_maxspeed": 80.0, "osmid": 270121906.0 }, "geometry": { "type": "Point", "coordinates": [ 11.05421, 60.043408 ] } },
{ "type": "Feature", "properties": { "AADT": 7902, "raw_name": "Hval", "osm_name": "Haldenveien", "osm_type": "primary", "osm_lanes": null, "osm_oneway": null, "osm_distance": 0.30211574459998375, "osm_maxspeed": 80.0, "osmid": 182356968.0 }, "geometry": { "type": "Point", "coordinates": [ 11.126807, 60.019579 ] } },
{ "type": "Feature", "properties": { "AADT": 60650, "raw_name": "Leira bru", "osm_name": null, "osm_type": "motorway", "osm_lanes": 2.0, "osm_oneway": "True", "osm_distance": 5.7473763007700081, "osm_maxspeed": 100.0, "osmid": 38458880.0 }, "geometry": { "type": "Point", "coordinates": [ 11.096486, 60.029546 ] } },
{ "type": "Feature", "properties": { "AADT": 56272, "raw_name": "Kløfta sør", "osm_name": null, "osm_type": "motorway", "osm_lanes": 2.0, "osm_oneway": "True", "osm_distance": 10.473032068265162, "osm_maxspeed": 110.0, "osmid": 38459541.0 }, "geometry": { "type": "Point", "coordinates": [ 11.154149, 60.069808 ] } },
{ "type": "Feature", "properties": { "AADT": 1111, "raw_name": "Vangsdalen", "osm_name": "Vangsdalen", "osm_type": "unclassified", "osm_lanes": null, "osm_oneway": null, "osm_distance": 0.0025340113691056949, "osm_maxspeed": null, "osmid": 153229861.0 }, "geometry": { "type": "Point", "coordinates": [ 11.074995, 60.094196 ] } },
{ "type": "Feature", "properties": { "AADT": 1033, "raw_name": "Heni", "osm_name": "Henivegen", "osm_type": "unclassified", "osm_lanes": null, "osm_oneway": null, "osm_distance": 0.067571454159853439, "osm_maxspeed": null, "osmid": 103700617.0 }, "geometry": { "type": "Point", "coordinates": [ 11.056081, 60.098045 ] } },
{ "type": "Feature", "properties": { "AADT": 751, "raw_name": "Iingjerdalen", "osm_name": "Kongsvingervegen", "osm_type": "secondary", "osm_lanes": null, "osm_oneway": null, "osm_distance": 0.36714457368757963, "osm_maxspeed": 80.0, "osmid": 11706575.0 }, "geometry": { "type": "Point", "coordinates": [ 11.243333, 60.089679 ] } },
{ "type": "Feature", "properties": { "AADT": 1214, "raw_name": "Borgenkrysset avrampe", "osm_name": null, "osm_type": "trunk_link", "osm_lanes": null, "osm_oneway": "True", "osm_distance": 0.67180605096426482, "osm_maxspeed": 100.0, "osmid": 4855645.0 }, "geometry": { "type": "Point", "coordinates": [ 11.212782, 60.091735 ] } },
{ "type": "Feature", "properties": { "AADT": 10619, "raw_name": "Borgenkrysset", "osm_name": null, "osm_type": "trunk", "osm_lanes": 2.0, "osm_oneway": "True", "osm_distance": 2.2367885411666557, "osm_maxspeed": 100.0, "osmid": 22999135.0 }, "geometry": { "type": "Point", "coordinates": [ 11.212733, 60.091815 ] } },
{ "type": "Feature", "properties": { "AADT": 1118, "raw_name": "Borgenkrysset pårampe", "osm_name": null, "osm_type": "trunk_link", "osm_lanes": null, "osm_oneway": "True", "osm_distance": 0.43041955182117497, "osm_maxspeed": 100.0, "osmid": 4855585.0 }, "geometry": { "type": "Point", "coordinates": [ 11.212692, 60.091898 ] } },
{ "type": "Feature", "properties": { "AADT": 4544, "raw_name": "Trøgstad gård", "osm_name": "Trondheimsvegen - Kløfta", "osm_type": "secondary", "osm_lanes": null, "osm_oneway": null, "osm_distance": 0.10103027075947306, "osm_maxspeed": 80.0, "osmid": 200794220.0 }, "geometry": { "type": "Point", "coordinates": [ 11.154202, 60.124356 ] } },
{ "type": "Feature", "properties": { "AADT": 16339, "raw_name": "Langeland", "osm_name": "Trondheimsvegen - Jessheim", "osm_type": "secondary", "osm_lanes": null, "osm_oneway": "True", "osm_distance": 1.4697080000172102, "osm_maxspeed": 60.0, "osmid": 881226815.0 }, "geometry": { "type": "Point", "coordinates": [ 11.16312, 60.132634 ] } },
{ "type": "Feature", "properties": { "AADT": 12358, "raw_name": "Dølihagan/Trondheimsvegen", "osm_name": "Trondheimsvegen - Jessheim", "osm_type": "secondary", "osm_lanes": 2.0, "osm_oneway": null, "osm_distance": 0.0089899700371366097, "osm_maxspeed": 50.0, "osmid": 1149578463.0 }, "geometry": { "type": "Point", "coordinates": [ 11.173287, 60.137746 ] } },
{ "type": "Feature", "properties": { "AADT": 7436, "raw_name": "Tviterhellinga", "osm_name": "Gjerdrumsvegen", "osm_type": "secondary", "osm_lanes": null, "osm_oneway": null, "osm_distance": 0.60315238790229819, "osm_maxspeed": 50.0, "osmid": 160627525.0 }, "geometry": { "type": "Point", "coordinates": [ 11.124366, 60.07686 ] } },
{ "type": "Feature", "properties": { "AADT": 15463, "raw_name": "Skibakk Kløfta", "osm_name": "Kongsvingervegen", "osm_type": "secondary", "osm_lanes": null, "osm_oneway": "True", "osm_distance": 1.2700444442398435, "osm_maxspeed": 50.0, "osmid": 691672383.0 }, "geometry": { "type": "Point", "coordinates": [ 11.147981, 60.079471 ] } },
{ "type": "Feature", "properties": { "AADT": 6769, "raw_name": "Gjerivegen", "osm_name": "Gjerivegen", "osm_type": "secondary", "osm_lanes": null, "osm_oneway": null, "osm_distance": 0.27256025352815522, "osm_maxspeed": 60.0, "osmid": 160627530.0 }, "geometry": { "type": "Point", "coordinates": [ 11.084426, 60.081618 ] } },
{ "type": "Feature", "properties": { "AADT": 58, "raw_name": "Trøgstad gård sykkel", "osm_name": "Trondheimsvegen - Kløfta", "osm_type": "secondary", "osm_lanes": null, "osm_oneway": null, "osm_distance": 11.380130264214328, "osm_maxspeed": 80.0, "osmid": 200794220.0 }, "geometry": { "type": "Point", "coordinates": [ 11.154061, 60.124381 ] } },
{ "type": "Feature", "properties": { "AADT": 6405, "raw_name": "SAND ULLENSAKER", "osm_name": "Gardermovegen", "osm_type": "primary", "osm_lanes": null, "osm_oneway": null, "osm_distance": 0.00095668761476516598, "osm_maxspeed": 50.0, "osmid": 380884561.0 }, "geometry": { "type": "Point", "coordinates": [ 11.139523, 60.151207 ] } },
{ "type": "Feature", "properties": { "AADT": 90, "raw_name": "Sand Ullensaker sykkel", "osm_name": "Gardermovegen", "osm_type": "primary", "osm_lanes": null, "osm_oneway": null, "osm_distance": 4.3257755428935081, "osm_maxspeed": 50.0, "osmid": 380884561.0 }, "geometry": { "type": "Point", "coordinates": [ 11.139402, 60.151268 ] } },
{ "type": "Feature", "properties": { "AADT": 11374, "raw_name": "Jessheim sentrum", "osm_name": "Algarheimsvegen", "osm_type": "primary", "osm_lanes": 1.0, "osm_oneway": "True", "osm_distance": 1.3461359741677592, "osm_maxspeed": 50.0, "osmid": 344739885.0 }, "geometry": { "type": "Point", "coordinates": [ 11.178028, 60.141211 ] } },
{ "type": "Feature", "properties": { "AADT": 37674, "raw_name": "Jessheim E6", "osm_name": null, "osm_type": "motorway", "osm_lanes": 2.0, "osm_oneway": "True", "osm_distance": 10.008158038828896, "osm_maxspeed": 110.0, "osmid": 472052981.0 }, "geometry": { "type": "Point", "coordinates": [ 11.154225, 60.141624 ] } },
{ "type": "Feature", "properties": { "AADT": 8312, "raw_name": "Trondheimsveien 14", "osm_name": "Trondheimsvegen - Jessheim", "osm_type": "secondary", "osm_lanes": null, "osm_oneway": "True", "osm_distance": 5.6929727950872007, "osm_maxspeed": 50.0, "osmid": 880312524.0 }, "geometry": { "type": "Point", "coordinates": [ 11.170052, 60.149271 ] } },
{ "type": "Feature", "properties": { "AADT": 8663, "raw_name": "Nordby skole", "osm_name": "Trondheimsvegen - Jessheim", "osm_type": "secondary", "osm_lanes": null, "osm_oneway": null, "osm_distance": 0.35947716877168018, "osm_maxspeed": 50.0, "osmid": 437025969.0 }, "geometry": { "type": "Point", "coordinates": [ 11.170528, 60.150181 ] } },
{ "type": "Feature", "properties": { "AADT": 122, "raw_name": "Nordby skole sykkel", "osm_name": "Trondheimsvegen - Jessheim", "osm_type": "secondary", "osm_lanes": null, "osm_oneway": null, "osm_distance": 13.533538048621915, "osm_maxspeed": 50.0, "osmid": 437025969.0 }, "geometry": { "type": "Point", "coordinates": [ 11.170374, 60.15022 ] } },
{ "type": "Feature", "properties": { "AADT": 8473, "raw_name": "Industriveien Jessheim", "osm_name": "Jessheimvegen", "osm_type": "primary", "osm_lanes": null, "osm_oneway": null, "osm_distance": 0.21042020745901963, "osm_maxspeed": 80.0, "osmid": 381964982.0 }, "geometry": { "type": "Point", "coordinates": [ 11.188145, 60.151984 ] } },
{ "type": "Feature", "properties": { "AADT": 249, "raw_name": "Industriveien Jessheim sykkel", "osm_name": "Jessheimvegen", "osm_type": "primary", "osm_lanes": null, "osm_oneway": "True", "osm_distance": 20.778386138497233, "osm_maxspeed": 80.0, "osmid": 381964981.0 }, "geometry": { "type": "Point", "coordinates": [ 11.187894, 60.152147 ] } },
{ "type": "Feature", "properties": { "AADT": 9682, "raw_name": "Nordby", "osm_name": "Trondheimsvegen - Jessheim", "osm_type": "secondary", "osm_lanes": null, "osm_oneway": null, "osm_distance": 0.78134484149089023, "osm_maxspeed": 50.0, "osmid": 437025969.0 }, "geometry": { "type": "Point", "coordinates": [ 11.171555, 60.152882 ] } },
{ "type": "Feature", "properties": { "AADT": 25065, "raw_name": "Jessheim nord flyplasskrysset", "osm_name": null, "osm_type": "motorway", "osm_lanes": 2.0, "osm_oneway": "True", "osm_distance": 8.5432365392372613, "osm_maxspeed": 110.0, "osmid": 183053834.0 }, "geometry": { "type": "Point", "coordinates": [ 11.154181, 60.160321 ] } },
{ "type": "Feature", "properties": { "AADT": 1163, "raw_name": "Jessheim nord fra Gardermoen", "osm_name": null, "osm_type": "motorway_link", "osm_lanes": 1.0, "osm_oneway": "True", "osm_distance": 0.029460735343370556, "osm_maxspeed": 80.0, "osmid": 325249293.0 }, "geometry": { "type": "Point", "coordinates": [ 11.154934, 60.160512 ] } },
{ "type": "Feature", "properties": { "AADT": 15571, "raw_name": "Grønvoll v/bussholdeplass", "osm_name": "Jessheimvegen", "osm_type": "primary", "osm_lanes": null, "osm_oneway": null, "osm_distance": 0.22641185390531146, "osm_maxspeed": 60.0, "osmid": 137045000.0 }, "geometry": { "type": "Point", "coordinates": [ 11.167851, 60.164718 ] } },
{ "type": "Feature", "properties": { "AADT": 11787, "raw_name": "Sykehuskrysset Jessheim", "osm_name": "Jessheimvegen", "osm_type": "primary", "osm_lanes": null, "osm_oneway": "True", "osm_distance": 2.0680113039566845, "osm_maxspeed": 60.0, "osmid": 137045004.0 }, "geometry": { "type": "Point", "coordinates": [ 11.16615, 60.164855 ] } },
{ "type": "Feature", "properties": { "AADT": 508, "raw_name": "Jessheim nord mot Gardermoen", "osm_name": null, "osm_type": "motorway_link", "osm_lanes": 1.0, "osm_oneway": "True", "osm_distance": 0.21305651756818281, "osm_maxspeed": 100.0, "osmid": 1149578435.0 }, "geometry": { "type": "Point", "coordinates": [ 11.153762, 60.160397 ] } },
{ "type": "Feature", "properties": { "AADT": 220, "raw_name": "Gardermoen kontroll avrampe", "osm_name": null, "osm_type": "motorway_link", "osm_lanes": 1.0, "osm_oneway": "True", "osm_distance": 3.7708422222207343, "osm_maxspeed": null, "osmid": 64620066.0 }, "geometry": { "type": "Point", "coordinates": [ 11.116957, 60.167339 ] } },
{ "type": "Feature", "properties": { "AADT": 18417, "raw_name": "Gardermoen kontroll", "osm_name": null, "osm_type": "motorway", "osm_lanes": 2.0, "osm_oneway": "True", "osm_distance": 4.651110729514758, "osm_maxspeed": 100.0, "osmid": 208860962.0 }, "geometry": { "type": "Point", "coordinates": [ 11.115952, 60.167675 ] } },
{ "type": "Feature", "properties": { "AADT": 545, "raw_name": "Gardermoen kontroll pårampe", "osm_name": null, "osm_type": "motorway_link", "osm_lanes": 1.0, "osm_oneway": "True", "osm_distance": 0.41602168023225633, "osm_maxspeed": null, "osmid": 27549025.0 }, "geometry": { "type": "Point", "coordinates": [ 11.11536, 60.16792 ] } },
{ "type": "Feature", "properties": { "AADT": 5107, "raw_name": "Vallhall", "osm_name": "Jessheimvegen", "osm_type": "secondary", "osm_lanes": 2.0, "osm_oneway": null, "osm_distance": 0.07211885431638472, "osm_maxspeed": 80.0, "osmid": 22975936.0 }, "geometry": { "type": "Point", "coordinates": [ 11.14413, 60.168949 ] } },
{ "type": "Feature", "properties": { "AADT": 12681, "raw_name": "Gardermoen sør", "osm_name": null, "osm_type": "trunk", "osm_lanes": null, "osm_oneway": null, "osm_distance": 0.83043046214930516, "osm_maxspeed": 70.0, "osmid": 43532600.0 }, "geometry": { "type": "Point", "coordinates": [ 11.078818, 60.178553 ] } },
{ "type": "Feature", "properties": { "AADT": 2168, "raw_name": "OSL EV16 AVRAMPE", "osm_name": "Lufthavnvegen", "osm_type": "motorway_link", "osm_lanes": 1.0, "osm_oneway": "True", "osm_distance": 0.80817514885681008, "osm_maxspeed": 80.0, "osmid": 22975870.0 }, "geometry": { "type": "Point", "coordinates": [ 11.094435, 60.184281 ] } },
{ "type": "Feature", "properties": { "AADT": 1795, "raw_name": "Engelstad", "osm_name": "Sogndalsvegen", "osm_type": "primary", "osm_lanes": 2.0, "osm_oneway": null, "osm_distance": 0.39425250071754536, "osm_maxspeed": null, "osmid": 425931942.0 }, "geometry": { "type": "Point", "coordinates": [ 11.030243, 60.190284 ] } },
{ "type": "Feature", "properties": { "AADT": 9421, "raw_name": "Kneppe", "osm_name": null, "osm_type": "trunk", "osm_lanes": null, "osm_oneway": null, "osm_distance": 0.3214521027092303, "osm_maxspeed": 70.0, "osmid": 848919314.0 }, "geometry": { "type": "Point", "coordinates": [ 11.067845, 60.208168 ] } },
{ "type": "Feature", "properties": { "AADT": 5438, "raw_name": "Rv 4 Bjerke Sydgående Pårampe", "osm_name": null, "osm_type": "trunk_link", "osm_lanes": 1.0, "osm_oneway": "True", "osm_distance": 0.13538647530590253, "osm_maxspeed": null, "osmid": 4982389.0 }, "geometry": { "type": "Point", "coordinates": [ 10.808771, 59.942788 ] } },
{ "type": "Feature", "properties": { "AADT": 1587, "raw_name": "Rv 4 Bjerke Sydgående Avrampe", "osm_name": "Trondheimsveien", "osm_type": "trunk_link", "osm_lanes": 2.0, "osm_oneway": "True", "osm_distance": 0.96776454138035117, "osm_maxspeed": null, "osmid": 48859701.0 }, "geometry": { "type": "Point", "coordinates": [ 10.81009, 59.94293 ] } },
{ "type": "Feature", "properties": { "AADT": 12876, "raw_name": "Nedre Kalbakkvei", "osm_name": "Nedre Kalbakkvei", "osm_type": "secondary", "osm_lanes": null, "osm_oneway": null, "osm_distance": 0.017477330503087706, "osm_maxspeed": 50.0, "osmid": 410103304.0 }, "geometry": { "type": "Point", "coordinates": [ 10.862771, 59.945301 ] } },
{ "type": "Feature", "properties": { "AADT": 592, "raw_name": "Veitvet", "osm_name": "Trondheimsveien", "osm_type": "trunk", "osm_lanes": 2.0, "osm_oneway": "True", "osm_distance": 6.5976450812737619, "osm_maxspeed": 70.0, "osmid": 228251018.0 }, "geometry": { "type": "Point", "coordinates": [ 10.84517, 59.945707 ] } },
{ "type": "Feature", "properties": { "AADT": 25861, "raw_name": "Rv. 4 Rødtvet", "osm_name": "Trondheimsveien", "osm_type": "trunk", "osm_lanes": 2.0, "osm_oneway": "True", "osm_distance": 3.2476058297583266, "osm_maxspeed": 70.0, "osmid": 228251018.0 }, "geometry": { "type": "Point", "coordinates": [ 10.852639, 59.947857 ] } },
{ "type": "Feature", "properties": { "AADT": 6116, "raw_name": "Ø.Akersvei rampe mot Haugenstua", "osm_name": null, "osm_type": "motorway_link", "osm_lanes": 1.0, "osm_oneway": "True", "osm_distance": 0.014039093463465021, "osm_maxspeed": 80.0, "osmid": 4242588.0 }, "geometry": { "type": "Point", "coordinates": [ 10.946845, 59.948869 ] } },
{ "type": "Feature", "properties": { "AADT": 202, "raw_name": "Grorud sykkel", "osm_name": "Maria Dehlis vei", "osm_type": "unclassified", "osm_lanes": null, "osm_oneway": null, "osm_distance": 4.1230233405652479, "osm_maxspeed": null, "osmid": 348774303.0 }, "geometry": { "type": "Point", "coordinates": [ 10.895981, 59.950494 ] } },
{ "type": "Feature", "properties": { "AADT": 6102, "raw_name": "Grorud Rampe mot Haugenstua", "osm_name": "Østre Aker vei", "osm_type": "trunk", "osm_lanes": 3.0, "osm_oneway": "True", "osm_distance": 7.5545454740285525, "osm_maxspeed": 80.0, "osmid": 98820628.0 }, "geometry": { "type": "Point", "coordinates": [ 10.885944, 59.950568 ] } },
{ "type": "Feature", "properties": { "AADT": 21776, "raw_name": "Grorud Stasjon 1,2,3,4", "osm_name": "Østre Aker vei", "osm_type": "trunk", "osm_lanes": 3.0, "osm_oneway": "True", "osm_distance": 4.1772112374522949, "osm_maxspeed": 80.0, "osmid": 98820628.0 }, "geometry": { "type": "Point", "coordinates": [ 10.88577, 59.950602 ] } },
{ "type": "Feature", "properties": { "AADT": 2337, "raw_name": "Grorud rampe mot Økern", "osm_name": null, "osm_type": "trunk_link", "osm_lanes": 1.0, "osm_oneway": "True", "osm_distance": 0.78899958403605286, "osm_maxspeed": null, "osmid": 82634590.0 }, "geometry": { "type": "Point", "coordinates": [ 10.885272, 59.950656 ] } },
{ "type": "Feature", "properties": { "AADT": 7432, "raw_name": "Av- og pårampe Haugenstua", "osm_name": "Fossumveien", "osm_type": "trunk_link", "osm_lanes": 2.0, "osm_oneway": null, "osm_distance": 0.16693860987095091, "osm_maxspeed": null, "osmid": 110155445.0 }, "geometry": { "type": "Point", "coordinates": [ 10.921578, 59.951724 ] } },
{ "type": "Feature", "properties": { "AADT": 10436, "raw_name": "Rv 163 Haugenstua Vestgående", "osm_name": "Østre Aker vei", "osm_type": "trunk", "osm_lanes": 3.0, "osm_oneway": "True", "osm_distance": 2.1068812938603347, "osm_maxspeed": 80.0, "osmid": 464180718.0 }, "geometry": { "type": "Point", "coordinates": [ 10.921478, 59.952343 ] } },
{ "type": "Feature", "properties": { "AADT": 9446, "raw_name": "Haugenstua østgående", "osm_name": "Østre Aker vei", "osm_type": "trunk", "osm_lanes": 3.0, "osm_oneway": "True", "osm_distance": 2.1121245571127854, "osm_maxspeed": 80.0, "osmid": 464180718.0 }, "geometry": { "type": "Point", "coordinates": [ 10.921426, 59.952343 ] } },
{ "type": "Feature", "properties": { "AADT": 2554, "raw_name": "Avrampe mot Haugenstua", "osm_name": "Østre Aker vei", "osm_type": "trunk", "osm_lanes": 3.0, "osm_oneway": "True", "osm_distance": 3.1851017095294658, "osm_maxspeed": 80.0, "osmid": 464180718.0 }, "geometry": { "type": "Point", "coordinates": [ 10.921488, 59.952425 ] } },
{ "type": "Feature", "properties": { "AADT": 4851, "raw_name": "Pårampe mot Grorud", "osm_name": null, "osm_type": "trunk_link", "osm_lanes": 1.0, "osm_oneway": "True", "osm_distance": 0.11223555573392126, "osm_maxspeed": null, "osmid": 5371116.0 }, "geometry": { "type": "Point", "coordinates": [ 10.920957, 59.953294 ] } },
{ "type": "Feature", "properties": { "AADT": 32, "raw_name": "Bråteveien sykkel", "osm_name": "Bråteveien", "osm_type": "secondary", "osm_lanes": null, "osm_oneway": null, "osm_distance": 9.6662168278075118, "osm_maxspeed": 50.0, "osmid": 102191008.0 }, "geometry": { "type": "Point", "coordinates": [ 10.991849, 59.968735 ] } },
{ "type": "Feature", "properties": { "AADT": 4869, "raw_name": "Bråteveien", "osm_name": "Bråteveien", "osm_type": "secondary", "osm_lanes": null, "osm_oneway": null, "osm_distance": 0.058074393564392778, "osm_maxspeed": 50.0, "osmid": 102191008.0 }, "geometry": { "type": "Point", "coordinates": [ 10.991489, 59.968824 ] } },
{ "type": "Feature", "properties": { "AADT": 68464, "raw_name": "Hvam sør", "osm_name": null, "osm_type": "motorway", "osm_lanes": 4.0, "osm_oneway": "True", "osm_distance": 12.018774244084222, "osm_maxspeed": 90.0, "osmid": 32861930.0 }, "geometry": { "type": "Point", "coordinates": [ 10.989173, 59.969809 ] } },
{ "type": "Feature", "properties": { "AADT": 18534, "raw_name": "Rv. 4 Rommen", "osm_name": "Trondheimsveien", "osm_type": "trunk", "osm_lanes": 3.0, "osm_oneway": null, "osm_distance": 1.0401598481430261, "osm_maxspeed": 60.0, "osmid": 228251025.0 }, "geometry": { "type": "Point", "coordinates": [ 10.916119, 59.971416 ] } },
{ "type": "Feature", "properties": { "AADT": 16365, "raw_name": "Hellerudsletta", "osm_name": "Trondheimsveien", "osm_type": "primary", "osm_lanes": null, "osm_oneway": null, "osm_distance": 0.20846763893615053, "osm_maxspeed": 60.0, "osmid": 172688378.0 }, "geometry": { "type": "Point", "coordinates": [ 10.984056, 59.981403 ] } },
{ "type": "Feature", "properties": { "AADT": 18888, "raw_name": "Gjelleråsen", "osm_name": "Trondheimsveien", "osm_type": "trunk", "osm_lanes": null, "osm_oneway": "True", "osm_distance": 3.878002244232277, "osm_maxspeed": 60.0, "osmid": 376812458.0 }, "geometry": { "type": "Point", "coordinates": [ 10.928465, 59.986366 ] } },
{ "type": "Feature", "properties": { "AADT": 17774, "raw_name": "Gjelleråsen", "osm_name": "Trondheimsveien", "osm_type": "primary", "osm_lanes": 2.0, "osm_oneway": "True", "osm_distance": 2.2196541819329552, "osm_maxspeed": 60.0, "osmid": 1161974336.0 }, "geometry": { "type": "Point", "coordinates": [ 10.933352, 59.989457 ] } },
{ "type": "Feature", "properties": { "AADT": 10827, "raw_name": "Gamle Rv. 4 Hagan", "osm_name": "Nittedalsveien", "osm_type": "secondary", "osm_lanes": 3.0, "osm_oneway": null, "osm_distance": 1.3804400656423743, "osm_maxspeed": 60.0, "osmid": 4982076.0 }, "geometry": { "type": "Point", "coordinates": [ 10.925266, 59.992677 ] } },
{ "type": "Feature", "properties": { "AADT": 14308, "raw_name": "Hagantunnelen", "osm_name": "Hagantunnelen", "osm_type": "trunk", "osm_lanes": null, "osm_oneway": null, "osm_distance": 0.020470378592953649, "osm_maxspeed": 70.0, "osmid": 23714620.0 }, "geometry": { "type": "Point", "coordinates": [ 10.912145, 60.00084 ] } },
{ "type": "Feature", "properties": { "AADT": 1794, "raw_name": "Rud", "osm_name": "Nittedalsveien", "osm_type": "secondary", "osm_lanes": null, "osm_oneway": null, "osm_distance": 0.32401290792670118, "osm_maxspeed": 60.0, "osmid": 11715831.0 }, "geometry": { "type": "Point", "coordinates": [ 10.907813, 60.020065 ] } },
{ "type": "Feature", "properties": { "AADT": 12681, "raw_name": "Slattum", "osm_name": null, "osm_type": "trunk", "osm_lanes": null, "osm_oneway": "True", "osm_distance": 1.4449767119970072, "osm_maxspeed": 80.0, "osmid": 376295657.0 }, "geometry": { "type": "Point", "coordinates": [ 10.908223, 60.020181 ] } },
{ "type": "Feature", "properties": { "AADT": 10910, "raw_name": "Slemdalsveien", "osm_name": "Slemdalsveien", "osm_type": "secondary", "osm_lanes": 2.0, "osm_oneway": null, "osm_distance": 0.047068846574914822, "osm_maxspeed": 50.0, "osmid": 4262961.0 }, "geometry": { "type": "Point", "coordinates": [ 10.699009, 59.94942 ] } },
{ "type": "Feature", "properties": { "AADT": 26176, "raw_name": "Tåsentunellen Østgående Løp", "osm_name": "Tåsentunnelen", "osm_type": "trunk", "osm_lanes": 2.0, "osm_oneway": "True", "osm_distance": 0.20773064462889632, "osm_maxspeed": 70.0, "osmid": 4341399.0 }, "geometry": { "type": "Point", "coordinates": [ 10.740503, 59.951082 ] } },
{ "type": "Feature", "properties": { "AADT": 26518, "raw_name": "Tåsentunellen Vestgående Løp", "osm_name": "Tåsentunnelen", "osm_type": "trunk", "osm_lanes": 2.0, "osm_oneway": "True", "osm_distance": 0.02535021026120881, "osm_maxspeed": 70.0, "osmid": 311648213.0 }, "geometry": { "type": "Point", "coordinates": [ 10.74056, 59.951217 ] } },
{ "type": "Feature", "properties": { "AADT": 1150, "raw_name": "Tåsen", "osm_name": "Kaj Munks vei", "osm_type": "secondary", "osm_lanes": 2.0, "osm_oneway": null, "osm_distance": 6.5369630901038969, "osm_maxspeed": null, "osmid": 135343997.0 }, "geometry": { "type": "Point", "coordinates": [ 10.75688, 59.953141 ] } },
{ "type": "Feature", "properties": { "AADT": 60920, "raw_name": "ST.RINGV V/NYDALSBR", "osm_name": "Rolf Wickstrøms vei", "osm_type": "trunk", "osm_lanes": 2.0, "osm_oneway": "True", "osm_distance": 2.0363569190494584, "osm_maxspeed": 70.0, "osmid": 70287956.0 }, "geometry": { "type": "Point", "coordinates": [ 10.767581, 59.953374 ] } },
{ "type": "Feature", "properties": { "AADT": 6801, "raw_name": "Stryken", "osm_name": null, "osm_type": "trunk", "osm_lanes": null, "osm_oneway": null, "osm_distance": 0.31733248846577033, "osm_maxspeed": 80.0, "osmid": 299925374.0 }, "geometry": { "type": "Point", "coordinates": [ 10.721254, 60.157062 ] } },
{ "type": "Feature", "properties": { "AADT": 1038, "raw_name": "Strekan", "osm_name": "Hadelandsvegen", "osm_type": "secondary", "osm_lanes": null, "osm_oneway": null, "osm_distance": 0.36995040973190946, "osm_maxspeed": 60.0, "osmid": 378138398.0 }, "geometry": { "type": "Point", "coordinates": [ 10.724708, 60.159254 ] } },
{ "type": "Feature", "properties": { "AADT": 25446, "raw_name": "Ammerud", "osm_name": "Trondheimsveien", "osm_type": "trunk", "osm_lanes": 2.0, "osm_oneway": "True", "osm_distance": 2.6231379804818675, "osm_maxspeed": 60.0, "osmid": 196227441.0 }, "geometry": { "type": "Point", "coordinates": [ 10.879109, 59.959309 ] } },
{ "type": "Feature", "properties": { "AADT": 4805, "raw_name": "Stasjonsveien N1", "osm_name": "Stasjonsveien", "osm_type": "secondary", "osm_lanes": null, "osm_oneway": null, "osm_distance": 0.53851434265326026, "osm_maxspeed": 40.0, "osmid": 714931693.0 }, "geometry": { "type": "Point", "coordinates": [ 10.871635, 60.05115 ] } },
{ "type": "Feature", "properties": { "AADT": 2291, "raw_name": "Tøyenberget", "osm_name": "Gamleveien", "osm_type": "secondary", "osm_lanes": null, "osm_oneway": null, "osm_distance": 0.015455229437246963, "osm_maxspeed": 50.0, "osmid": 23018506.0 }, "geometry": { "type": "Point", "coordinates": [ 10.861543, 60.112965 ] } },
{ "type": "Feature", "properties": { "AADT": 9828, "raw_name": "Trebyen (Hakadal)", "osm_name": "Hadelandsveien", "osm_type": "trunk", "osm_lanes": null, "osm_oneway": null, "osm_distance": 0.060723572523621032, "osm_maxspeed": 70.0, "osmid": 197788356.0 }, "geometry": { "type": "Point", "coordinates": [ 10.842627, 60.11332 ] } },
{ "type": "Feature", "properties": { "AADT": 1530, "raw_name": "Grønvoll", "osm_name": "Gamleveien", "osm_type": "secondary", "osm_lanes": null, "osm_oneway": null, "osm_distance": 0.13946647113143987, "osm_maxspeed": 50.0, "osmid": 23018506.0 }, "geometry": { "type": "Point", "coordinates": [ 10.855654, 60.116107 ] } },
{ "type": "Feature", "properties": { "AADT": 7575, "raw_name": "Gruatunnelen", "osm_name": null, "osm_type": "trunk", "osm_lanes": null, "osm_oneway": null, "osm_distance": 0.28520611526773593, "osm_maxspeed": 80.0, "osmid": 3236595.0 }, "geometry": { "type": "Point", "coordinates": [ 10.676931, 60.251608 ] } },
{ "type": "Feature", "properties": { "AADT": 8232, "raw_name": "Lierkrysset", "osm_name": "Trondheimsvegen - Jessheim", "osm_type": "secondary", "osm_lanes": null, "osm_oneway": null, "osm_distance": 0.72434309264812402, "osm_maxspeed": 80.0, "osmid": 701396482.0 }, "geometry": { "type": "Point", "coordinates": [ 11.1706, 60.180355 ] } },